[{"id":107102,"name":"Akyurt","latitude":40.13512,"longitude":33.08614},{"id":107139,"name":"Altındağ","latitude":40.0011,"longitude":32.97022},{"id":107135,"name":"Altpınar","latitude":39.20417,"longitude":32.74778},{"id":107166,"name":"Ankara","latitude":39.91987,"longitude":32.85427},{"id":107217,"name":"Ayaş","latitude":40.01933,"longitude":32.33221},{"id":107268,"name":"Bala İlçesi","latitude":39.56374,"longitude":33.12962},{"id":107290,"name":"Batikent","latitude":39.96833,"longitude":32.73083},{"id":107342,"name":"Beypazari","latitude":40.14695,"longitude":31.91911},{"id":107343,"name":"Beypazarı","latitude":40.1675,"longitude":31.92111},{"id":108768,"name":"Çamlıdere","latitude":40.48958,"longitude":32.47499},{"id":108779,"name":"Çankaya","latitude":39.9179,"longitude":32.86268},{"id":108844,"name":"Çubuk","latitude":40.23861,"longitude":33.03222},{"id":107568,"name":"Elmadağ","latitude":39.92083,"longitude":33.23083},{"id":107611,"name":"Etimesgut İlçesi","latitude":39.96335,"longitude":32.63744},{"id":107614,"name":"Evren","latitude":39.02402,"longitude":33.80626},{"id":107687,"name":"Gölbaşı","latitude":39.79043,"longitude":32.80903},{"id":107725,"name":"Güdül","latitude":40.21051,"longitude":32.24552},{"id":107811,"name":"Haymana","latitude":39.43212,"longitude":32.49732},{"id":107868,"name":"Kahramankazan","latitude":40.16502,"longitude":32.63904},{"id":107874,"name":"Kalecik","latitude":40.09722,"longitude":33.40833},{"id":107956,"name":"Kazan","latitude":40.23167,"longitude":32.68389},{"id":107991,"name":"Keçiören","latitude":40.02106,"longitude":32.83102},{"id":108113,"name":"Kızılcahamam","latitude":40.46972,"longitude":32.65056},{"id":108147,"name":"Mamak İlçesi","latitude":39.94587,"longitude":32.90811},{"id":108237,"name":"Nallıhan","latitude":40.18593,"longitude":31.35179},{"id":108346,"name":"Polatlı","latitude":39.57715,"longitude":32.14132},{"id":108352,"name":"Pursaklar","latitude":40.03961,"longitude":32.90139},{"id":108956,"name":"Şereflikoçhisar","latitude":38.93925,"longitude":33.5386},{"id":108470,"name":"Sincan İlçesi","latitude":39.95943,"longitude":32.49567},{"id":108703,"name":"Yenimahalle","latitude":39.99043,"longitude":32.69555}]