[{"id":76415,"name":"Bahau","latitude":2.8079,"longitude":102.4049},{"id":76465,"name":"Kampung Baharu Nilai","latitude":2.8033,"longitude":101.7972},{"id":76499,"name":"Kuala Pilah","latitude":2.7389,"longitude":102.2487},{"id":76545,"name":"Port Dickson","latitude":2.53718,"longitude":101.80571},{"id":76559,"name":"Seremban","latitude":2.7297,"longitude":101.9381},{"id":76574,"name":"Tampin","latitude":2.4701,"longitude":102.2302}]