[{"id":155,"name":"Bashkia Bulqizë","latitude":41.47152,"longitude":20.33192},{"id":165,"name":"Bashkia Klos","latitude":41.50826,"longitude":20.07107},{"id":176,"name":"Bashkia Mat","latitude":41.63317,"longitude":20.01228},{"id":193,"name":"Bulqizë","latitude":41.49167,"longitude":20.22194},{"id":194,"name":"Burrel","latitude":41.61028,"longitude":20.00889},{"id":209,"name":"Klos","latitude":41.50694,"longitude":20.08667},{"id":236,"name":"Peshkopi","latitude":41.685,"longitude":20.42889},{"id":243,"name":"Rrethi i Bulqizës","latitude":41.5,"longitude":20.33333},{"id":246,"name":"Rrethi i Dibrës","latitude":41.75,"longitude":20.33333},{"id":256,"name":"Rrethi i Matit","latitude":41.58333,"longitude":20.08333},{"id":272,"name":"Ulëz","latitude":41.68278,"longitude":19.89333}]