[{"id":19282,"name":"Anlu","latitude":31.2575,"longitude":113.67833},{"id":19353,"name":"Buhe","latitude":30.28757,"longitude":112.22979},{"id":19355,"name":"Caidian","latitude":30.58333,"longitude":114.03333},{"id":19359,"name":"Caohe","latitude":30.2297,"longitude":115.43346},{"id":19396,"name":"Chengzhong","latitude":30.94454,"longitude":113.55284},{"id":19425,"name":"Danjiangkou","latitude":32.54278,"longitude":111.50861},{"id":19440,"name":"Daye","latitude":30.08333,"longitude":114.95},{"id":19486,"name":"Duobao","latitude":30.67,"longitude":112.68952},{"id":19491,"name":"Enshi","latitude":30.3,"longitude":109.48333},{"id":19492,"name":"Enshi Tujiazu Miaozu Zizhizhou","latitude":30.1981,"longitude":109.67555},{"id":19495,"name":"Ezhou","latitude":30.4,"longitude":114.83333},{"id":19496,"name":"Ezhou Shi","latitude":30.48832,"longitude":114.77979},{"id":19507,"name":"Fengkou","latitude":30.08268,"longitude":113.33346},{"id":19560,"name":"Guangshui","latitude":31.6199,"longitude":113.9978},{"id":19567,"name":"Gucheng Chengguanzhen","latitude":32.26604,"longitude":111.63476},{"id":19596,"name":"Hanchuan","latitude":30.65,"longitude":113.76667},{"id":19647,"name":"Huanggang","latitude":30.45143,"longitude":114.87035},{"id":19651,"name":"Huangmei","latitude":30.19235,"longitude":116.02496},{"id":19654,"name":"Huangpi","latitude":30.88453,"longitude":114.37789},{"id":19658,"name":"Huangshi","latitude":30.24706,"longitude":115.04814},{"id":19663,"name":"Huangzhou","latitude":30.45,"longitude":114.8},{"id":19735,"name":"Jingling","latitude":30.65,"longitude":113.1},{"id":19736,"name":"Jingmen","latitude":31.03361,"longitude":112.20472},{"id":19737,"name":"Jingmen Shi","latitude":31.11244,"longitude":112.6431},{"id":19738,"name":"Jingzhou","latitude":30.35028,"longitude":112.19028},{"id":19805,"name":"Laohekou","latitude":32.38583,"longitude":111.66778},{"id":19834,"name":"Lichuan","latitude":30.3,"longitude":108.85},{"id":19900,"name":"Macheng","latitude":31.18013,"longitude":115.02213},{"id":19951,"name":"Nanzhang Chengguanzhen","latitude":31.78394,"longitude":111.82752},{"id":19997,"name":"Puqi","latitude":29.71667,"longitude":113.88333},{"id":20008,"name":"Qianjiang","latitude":30.421,"longitude":112.8919},{"id":20022,"name":"Qingquan","latitude":30.45113,"longitude":115.25593},{"id":20085,"name":"Shashi","latitude":30.30722,"longitude":112.24472},{"id":20089,"name":"Shennongjia","latitude":31.58339,"longitude":110.4972},{"id":20109,"name":"Shiyan","latitude":32.6475,"longitude":110.77806},{"id":20145,"name":"Suizhou","latitude":31.71111,"longitude":113.36306},{"id":20233,"name":"Wuhan","latitude":30.58333,"longitude":114.26667},{"id":20240,"name":"Wuxue","latitude":29.85058,"longitude":115.5525},{"id":20258,"name":"Xiangyang","latitude":32.0422,"longitude":112.14479},{"id":20261,"name":"Xianning","latitude":29.84347,"longitude":114.32201},{"id":20262,"name":"Xianning Prefecture","latitude":29.66609,"longitude":114.26389},{"id":20266,"name":"Xiantao","latitude":30.3708,"longitude":113.44294},{"id":20269,"name":"Xiaogan","latitude":30.92689,"longitude":113.92221},{"id":20282,"name":"Xihe","latitude":31.68635,"longitude":113.46585},{"id":20290,"name":"Xindi","latitude":29.81667,"longitude":113.46667},{"id":20305,"name":"Xinshi","latitude":31.04704,"longitude":113.14098},{"id":20317,"name":"Xinzhou","latitude":30.86667,"longitude":114.8},{"id":20323,"name":"Xiulin","latitude":29.71667,"longitude":112.4},{"id":20366,"name":"Yichang","latitude":30.71444,"longitude":111.28472},{"id":20367,"name":"Yicheng","latitude":31.70472,"longitude":112.25611},{"id":20402,"name":"Yunmeng Chengguanzhen","latitude":31.06251,"longitude":113.76545},{"id":20414,"name":"Zaoyang","latitude":32.12722,"longitude":112.75417},{"id":20445,"name":"Zhicheng","latitude":30.29556,"longitude":111.50472},{"id":20446,"name":"Zhijiang","latitude":30.42139,"longitude":111.75333},{"id":20455,"name":"Zhongxiang","latitude":31.16611,"longitude":112.58306}]