[{"id":10053,"name":"Abadia de Goiás","latitude":-16.77762,"longitude":-49.46841},{"id":10055,"name":"Abadiânia","latitude":-16.22632,"longitude":-48.62681},{"id":10079,"name":"Acreúna","latitude":-17.43605,"longitude":-50.26696},{"id":10081,"name":"Adelândia","latitude":-16.38577,"longitude":-50.18846},{"id":15660,"name":"Água Fria de Goiás","latitude":-14.96056,"longitude":-47.84963},{"id":15661,"name":"Água Limpa","latitude":-18.07999,"longitude":-48.79951},{"id":15668,"name":"Águas Lindas de Goiás","latitude":-15.76613,"longitude":-48.28611},{"id":10129,"name":"Alexânia","latitude":-16.14926,"longitude":-48.45973},{"id":10146,"name":"Aloândia","latitude":-17.69411,"longitude":-49.44985},{"id":10171,"name":"Alto Horizonte","latitude":-14.20236,"longitude":-49.435},{"id":10178,"name":"Alto Paraíso de Goiás","latitude":-14.18198,"longitude":-47.45902},{"id":10199,"name":"Alvorada do Norte","latitude":-14.52424,"longitude":-46.64133},{"id":10208,"name":"Amaralina","latitude":-13.8139,"longitude":-49.63205},{"id":10214,"name":"Americano do Brasil","latitude":-16.26498,"longitude":-49.99408},{"id":10217,"name":"Amorinópolis","latitude":-16.6342,"longitude":-51.09852},{"id":10282,"name":"Anápolis","latitude":-16.32667,"longitude":-48.95278},{"id":10260,"name":"Anhanguera","latitude":-18.31505,"longitude":-48.2219},{"id":10263,"name":"Anicuns","latitude":-16.38582,"longitude":-49.97942},{"id":10287,"name":"Aparecida de Goiânia","latitude":-16.82333,"longitude":-49.24389},{"id":10288,"name":"Aparecida do Rio Doce","latitude":-18.22963,"longitude":-51.2414},{"id":10299,"name":"Aporé","latitude":-18.74325,"longitude":-52.06942},{"id":10372,"name":"Araçu","latitude":-16.38304,"longitude":-49.70782},{"id":10315,"name":"Aragarças","latitude":-15.94743,"longitude":-52.08069},{"id":10316,"name":"Aragoiânia","latitude":-16.95418,"longitude":-49.40598},{"id":10323,"name":"Araguapaz","latitude":-15.12986,"longitude":-50.4984},{"id":10391,"name":"Arenópolis","latitude":-16.36096,"longitude":-51.60464},{"id":10418,"name":"Aruanã","latitude":-14.8102,"longitude":-50.94501},{"id":10449,"name":"Aurilândia","latitude":-16.67681,"longitude":-50.52582},{"id":10460,"name":"Avelinópolis","latitude":-16.49121,"longitude":-49.76368},{"id":10483,"name":"Baliza","latitude":-16.36672,"longitude":-52.43611},{"id":10561,"name":"Barro Alto","latitude":-14.91276,"longitude":-48.87739},{"id":10596,"name":"Bela Vista de Goiás","latitude":-16.97278,"longitude":-48.95333},{"id":10696,"name":"Bom Jardim de Goiás","latitude":-16.27033,"longitude":-52.05682},{"id":10707,"name":"Bom Jesus de Goiás","latitude":-18.19213,"longitude":-49.89536},{"id":10733,"name":"Bonfinópolis","latitude":-16.59726,"longitude":-49.01486},{"id":10742,"name":"Bonópolis","latitude":-13.57725,"longitude":-49.89702},{"id":10778,"name":"Brazabrantes","latitude":-16.37909,"longitude":-49.38445},{"id":10803,"name":"Britânia","latitude":-15.21115,"longitude":-51.14785},{"id":10824,"name":"Buriti Alegre","latitude":-18.14,"longitude":-49.04028},{"id":10826,"name":"Buriti de Goiás","latitude":-16.16439,"longitude":-50.42918},{"id":10831,"name":"Buritinópolis","latitude":-14.40974,"longitude":-46.31759},{"id":10848,"name":"Cabeceiras","latitude":-15.73747,"longitude":-47.03428},{"id":10862,"name":"Cachoeira Alta","latitude":-18.54284,"longitude":-50.98208},{"id":10868,"name":"Cachoeira de Goiás","latitude":-16.72507,"longitude":-50.68613},{"id":10864,"name":"Cachoeira Dourada","latitude":-18.49516,"longitude":-49.65104},{"id":11224,"name":"Caçu","latitude":-18.55667,"longitude":-51.13083},{"id":10900,"name":"Caiapônia","latitude":-16.95987,"longitude":-51.79148},{"id":10925,"name":"Caldas Novas","latitude":-17.73126,"longitude":-48.65479},{"id":10926,"name":"Caldazinha","latitude":-16.74858,"longitude":-49.00064},{"id":10960,"name":"Campestre de Goiás","latitude":-16.78337,"longitude":-49.70958},{"id":10973,"name":"Campinaçu","latitude":-13.86371,"longitude":-48.56754},{"id":10974,"name":"Campinorte","latitude":-14.045,"longitude":-48.97524},{"id":10978,"name":"Campo Alegre de Goiás","latitude":-17.67336,"longitude":-47.77801},{"id":10995,"name":"Campo Limpo de Goiás","latitude":-16.30048,"longitude":-49.09041},{"id":11009,"name":"Campos Belos","latitude":-13.03667,"longitude":-46.77167},{"id":11016,"name":"Campos Verdes","latitude":-14.19022,"longitude":-49.65835},{"id":11149,"name":"Carmo do Rio Verde","latitude":-15.35361,"longitude":-49.7075},{"id":11189,"name":"Castelândia","latitude":-18.15581,"longitude":-50.34},{"id":11194,"name":"Catalão","latitude":-18.16583,"longitude":-47.94639},{"id":11210,"name":"Caturaí","latitude":-16.46981,"longitude":-49.59556},{"id":11215,"name":"Cavalcante","latitude":-13.7975,"longitude":-47.45833},{"id":11245,"name":"Ceres","latitude":-15.2735,"longitude":-49.64455},{"id":11257,"name":"Cezarina","latitude":-17.11818,"longitude":-49.72995},{"id":11266,"name":"Chapadão do Céu","latitude":-18.37043,"longitude":-52.5656},{"id":11291,"name":"Cidade Ocidental","latitude":-16.16178,"longitude":-47.79998},{"id":11311,"name":"Cocalzinho de Goiás","latitude":-15.659,"longitude":-48.57595},{"id":11324,"name":"Colinas do Sul","latitude":-14.01221,"longitude":-48.05124},{"id":11557,"name":"Córrego do Ouro","latitude":-16.39566,"longitude":-50.5732},{"id":11443,"name":"Corumbá de Goiás","latitude":-15.9219,"longitude":-48.62979},{"id":11440,"name":"Corumbaíba","latitude":-18.16664,"longitude":-48.53205},{"id":11471,"name":"Cristalina","latitude":-16.76769,"longitude":-47.6153},{"id":11475,"name":"Cristianópolis","latitude":-17.19669,"longitude":-48.68114},{"id":11483,"name":"Crixás","latitude":-14.54889,"longitude":-49.96917},{"id":11486,"name":"Cromínia","latitude":-17.24762,"longitude":-49.32979},{"id":11512,"name":"Cumari","latitude":-18.31597,"longitude":-48.16375},{"id":11559,"name":"Damianópolis","latitude":-14.54949,"longitude":-46.19367},{"id":11561,"name":"Damolândia","latitude":-16.25109,"longitude":-49.34505},{"id":11566,"name":"Davinópolis","latitude":-18.13603,"longitude":-47.5775},{"id":11596,"name":"Diorama","latitude":-16.22318,"longitude":-51.34971},{"id":11607,"name":"Divinópolis de Goiás","latitude":-13.22378,"longitude":-46.52704},{"id":11661,"name":"Doverlândia","latitude":-16.87767,"longitude":-52.49917},{"id":11674,"name":"Edealina","latitude":-17.4399,"longitude":-49.73319},{"id":11675,"name":"Edéia","latitude":-17.33833,"longitude":-49.93139},{"id":11755,"name":"Estrela do Norte","latitude":-13.78262,"longitude":-49.10026},{"id":11772,"name":"Faina","latitude":-15.43697,"longitude":-50.39151},{"id":11785,"name":"Fazenda Nova","latitude":-16.12866,"longitude":-50.92604},{"id":11823,"name":"Firminópolis","latitude":-16.58194,"longitude":-50.305},{"id":11832,"name":"Flores de Goiás","latitude":-14.59003,"longitude":-46.87853},{"id":11852,"name":"Formosa","latitude":-15.53722,"longitude":-47.33444},{"id":11858,"name":"Formoso","latitude":-13.70339,"longitude":-48.87538},{"id":11916,"name":"Gameleira de Goiás","latitude":-16.43131,"longitude":-48.67456},{"id":11963,"name":"Goianápolis","latitude":-16.53041,"longitude":-49.08769},{"id":11958,"name":"Goiandira","latitude":-18.10979,"longitude":-48.14934},{"id":11964,"name":"Goianésia","latitude":-15.3175,"longitude":-49.1175},{"id":11971,"name":"Goiânia","latitude":-16.67861,"longitude":-49.25389},{"id":11960,"name":"Goianira","latitude":-16.49611,"longitude":-49.42639},{"id":11970,"name":"Goiás","latitude":-15.93444,"longitude":-50.14028},{"id":11967,"name":"Goiatuba","latitude":-18.0125,"longitude":-49.35472},{"id":11977,"name":"Gouvelândia","latitude":-18.50777,"longitude":-50.17554},{"id":12033,"name":"Guapó","latitude":-16.83056,"longitude":-49.53194},{"id":12062,"name":"Guaraíta","latitude":-15.65961,"longitude":-50.06663},{"id":12046,"name":"Guarani de Goiás","latitude":-13.88485,"longitude":-46.50711},{"id":12067,"name":"Guarinos","latitude":-14.69976,"longitude":-49.731},{"id":12093,"name":"Heitoraí","latitude":-15.73416,"longitude":-49.83108},{"id":12102,"name":"Hidrolândia","latitude":-16.96222,"longitude":-49.22806},{"id":12100,"name":"Hidrolina","latitude":-14.75739,"longitude":-49.35965},{"id":12114,"name":"Iaciara","latitude":-14.09583,"longitude":-46.63167},{"id":12227,"name":"Inaciolândia","latitude":-18.49889,"longitude":-49.90164},{"id":12240,"name":"Indiara","latitude":-17.18504,"longitude":-49.96826},{"id":12253,"name":"Inhumas","latitude":-16.35778,"longitude":-49.49611},{"id":12260,"name":"Ipameri","latitude":-17.72194,"longitude":-48.15972},{"id":12276,"name":"Ipiranga de Goiás","latitude":-15.16876,"longitude":-49.65047},{"id":12285,"name":"Iporá","latitude":-16.45543,"longitude":-51.15977},{"id":12323,"name":"Israelândia","latitude":-16.35776,"longitude":-50.89499},{"id":12330,"name":"Itaberaí","latitude":-16.02028,"longitude":-49.81028},{"id":12352,"name":"Itaguari","latitude":-15.91179,"longitude":-49.61834},{"id":12353,"name":"Itaguaru","latitude":-15.76944,"longitude":-49.60042},{"id":12373,"name":"Itajá","latitude":-19.11554,"longitude":-51.24473},{"id":12398,"name":"Itapaci","latitude":-14.95083,"longitude":-49.54944},{"id":12423,"name":"Itapirapuã","latitude":-15.82333,"longitude":-50.61333},{"id":12438,"name":"Itapuranga","latitude":-15.56944,"longitude":-49.93481},{"id":12452,"name":"Itarumã","latitude":-18.87992,"longitude":-51.32023},{"id":12464,"name":"Itauçu","latitude":-16.21434,"longitude":-49.60066},{"id":12487,"name":"Itumbiara","latitude":-18.41917,"longitude":-49.21528},{"id":12503,"name":"Ivolândia","latitude":-16.6883,"longitude":-50.9266},{"id":12556,"name":"Jandaia","latitude":-17.129,"longitude":-50.19476},{"id":12580,"name":"Jaraguá","latitude":-15.75694,"longitude":-49.33444},{"id":12598,"name":"Jataí","latitude":-17.85829,"longitude":-51.70531},{"id":12605,"name":"Jaupaci","latitude":-16.16749,"longitude":-51.10168},{"id":12627,"name":"Jesúpolis","latitude":-15.96458,"longitude":-49.39461},{"id":12656,"name":"Joviânia","latitude":-17.78422,"longitude":-49.5844},{"id":12707,"name":"Jussara","latitude":-15.58295,"longitude":-51.3297},{"id":12745,"name":"Lagoa Santa","latitude":-19.21207,"longitude":-51.25891},{"id":12821,"name":"Leopoldo de Bulhões","latitude":-16.58142,"longitude":-48.90604},{"id":12877,"name":"Luziânia","latitude":-16.2525,"longitude":-47.95028},{"id":12919,"name":"Mairipotaba","latitude":-17.32688,"longitude":-49.50788},{"id":12932,"name":"Mambaí","latitude":-14.4422,"longitude":-46.05807},{"id":12963,"name":"Mara Rosa","latitude":-14.01285,"longitude":-49.39507},{"id":13038,"name":"Marzagão","latitude":-17.99103,"longitude":-48.68316},{"id":13072,"name":"Matrinchã","latitude":-15.33819,"longitude":-50.82655},{"id":13080,"name":"Maurilândia","latitude":-18.05037,"longitude":-50.32935},{"id":13119,"name":"Mimoso de Goiás","latitude":-15.04832,"longitude":-48.34448},{"id":13124,"name":"Minaçu","latitude":-13.42682,"longitude":-48.3878},{"id":13126,"name":"Mineiros","latitude":-17.56944,"longitude":-52.55111},{"id":13168,"name":"Moiporá","latitude":-16.50172,"longitude":-50.76811},{"id":13188,"name":"Monte Alegre de Goiás","latitude":-13.2615,"longitude":-46.84266},{"id":13221,"name":"Montes Claros de Goiás","latitude":-15.96248,"longitude":-51.50601},{"id":13223,"name":"Montividiu","latitude":-17.25815,"longitude":-51.15739},{"id":13224,"name":"Montividiu do Norte","latitude":-13.09232,"longitude":-48.74161},{"id":13237,"name":"Morrinhos","latitude":-17.79922,"longitude":-49.09225},{"id":13240,"name":"Morro Agudo de Goiás","latitude":-15.3231,"longitude":-50.01578},{"id":13255,"name":"Mossâmedes","latitude":-16.16495,"longitude":-50.17004},{"id":13258,"name":"Mozarlândia","latitude":-14.74472,"longitude":-50.57056},{"id":13271,"name":"Mundo Novo","latitude":-13.71649,"longitude":-50.23715},{"id":13286,"name":"Mutunópolis","latitude":-13.70257,"longitude":-49.29995},{"id":13316,"name":"Nazário","latitude":-16.5801,"longitude":-49.86543},{"id":13318,"name":"Nerópolis","latitude":-16.43883,"longitude":-49.18117},{"id":13330,"name":"Niquelândia","latitude":-14.47389,"longitude":-48.45972},{"id":13349,"name":"Nova América","latitude":-15.05098,"longitude":-49.92499},{"id":13354,"name":"Nova Aurora","latitude":-18.10107,"longitude":-48.27661},{"id":13370,"name":"Nova Crixás","latitude":-14.27678,"longitude":-50.57649},{"id":13383,"name":"Nova Glória","latitude":-15.0636,"longitude":-49.48353},{"id":13390,"name":"Nova Iguaçu de Goiás","latitude":-14.29731,"longitude":-49.31188},{"id":13427,"name":"Nova Roma","latitude":-13.84078,"longitude":-47.00832},{"id":13445,"name":"Nova Veneza","latitude":-16.35456,"longitude":-49.30001},{"id":13455,"name":"Novo Brasil","latitude":-16.04806,"longitude":-50.63638},{"id":13458,"name":"Novo Gama","latitude":-16.12535,"longitude":-48.07041},{"id":13474,"name":"Novo Planalto","latitude":-13.38362,"longitude":-49.76104},{"id":13519,"name":"Orizona","latitude":-17.03139,"longitude":-48.29583},{"id":13547,"name":"Ouro Verde de Goiás","latitude":-16.23604,"longitude":-49.22771},{"id":13553,"name":"Ouvidor","latitude":-18.20107,"longitude":-47.71513},{"id":13561,"name":"Padre Bernardo","latitude":-15.16595,"longitude":-48.28281},{"id":13577,"name":"Palestina de Goiás","latitude":-16.72854,"longitude":-51.45851},{"id":13598,"name":"Palmeiras de Goiás","latitude":-16.805,"longitude":-49.92583},{"id":13603,"name":"Palmelo","latitude":-17.31937,"longitude":-48.39429},{"id":13604,"name":"Palminópolis","latitude":-16.83157,"longitude":-50.24267},{"id":13613,"name":"Panamá","latitude":-18.20132,"longitude":-49.3889},{"id":13638,"name":"Paranaiguara","latitude":-18.77492,"longitude":-50.61841},{"id":13666,"name":"Paraúna","latitude":-16.94778,"longitude":-50.44861},{"id":13813,"name":"Perolândia","latitude":-17.52861,"longitude":-52.06417},{"id":13818,"name":"Petrolina de Goiás","latitude":-16.095,"longitude":-49.33806},{"id":13838,"name":"Pilar de Goiás","latitude":-14.52999,"longitude":-49.51094},{"id":13884,"name":"Piracanjuba","latitude":-17.30278,"longitude":-49.01667},{"id":13896,"name":"Piranhas","latitude":-16.42694,"longitude":-51.82222},{"id":13914,"name":"Pirenópolis","latitude":-15.85072,"longitude":-48.96087},{"id":13916,"name":"Pires do Rio","latitude":-17.29972,"longitude":-48.27944},{"id":13933,"name":"Planaltina","latitude":-15.45278,"longitude":-47.61417},{"id":13963,"name":"Pontalina","latitude":-17.525,"longitude":-49.44722},{"id":13983,"name":"Porangatu","latitude":-13.44083,"longitude":-49.14861},{"id":13989,"name":"Porteirão","latitude":-17.90236,"longitude":-50.15667},{"id":13991,"name":"Portelândia","latitude":-17.3561,"longitude":-52.67861},{"id":14030,"name":"Posse","latitude":-14.09306,"longitude":-46.36944},{"id":14108,"name":"Professor Jamil","latitude":-17.29408,"longitude":-49.25572},{"id":14154,"name":"Quirinópolis","latitude":-18.44833,"longitude":-50.45167},{"id":14227,"name":"Rialma","latitude":-15.315,"longitude":-49.58444},{"id":14228,"name":"Rianápolis","latitude":-15.47467,"longitude":-49.44786},{"id":14294,"name":"Rio Quente","latitude":-17.81769,"longitude":-48.80202},{"id":14300,"name":"Rio Verde","latitude":-17.71888,"longitude":-51.04215},{"id":14358,"name":"Rubiataba","latitude":-15.16444,"longitude":-49.80333},{"id":14411,"name":"Sanclerlândia","latitude":-16.28223,"longitude":-50.3721},{"id":14425,"name":"Santa Bárbara de Goiás","latitude":-16.60228,"longitude":-49.68624},{"id":14447,"name":"Santa Cruz de Goiás","latitude":-17.45147,"longitude":-48.57101},{"id":14465,"name":"Santa Fé de Goiás","latitude":-15.62304,"longitude":-51.1385},{"id":14474,"name":"Santa Helena de Goiás","latitude":-17.80542,"longitude":-50.53885},{"id":14481,"name":"Santa Isabel","latitude":-15.26996,"longitude":-49.37797},{"id":14532,"name":"Santa Rita do Araguaia","latitude":-17.23294,"longitude":-53.07676},{"id":14534,"name":"Santa Rita do Novo Destino","latitude":-14.82658,"longitude":-49.05935},{"id":14542,"name":"Santa Rosa de Goiás","latitude":-16.06989,"longitude":-49.48147},{"id":14554,"name":"Santa Tereza de Goiás","latitude":-13.55111,"longitude":-48.99503},{"id":14561,"name":"Santa Terezinha de Goiás","latitude":-14.31049,"longitude":-49.71445},{"id":14612,"name":"Santo Antônio da Barra","latitude":-17.51225,"longitude":-50.63068},{"id":14616,"name":"Santo Antônio de Goiás","latitude":-16.50007,"longitude":-49.31097},{"id":14625,"name":"Santo Antônio do Descoberto","latitude":-16.08073,"longitude":-48.29596},{"id":14861,"name":"São Domingos","latitude":-13.39833,"longitude":-46.31833},{"id":14885,"name":"São Francisco de Goiás","latitude":-15.95223,"longitude":-49.24888},{"id":15005,"name":"São João d'Aliança","latitude":-14.42907,"longitude":-47.41407},{"id":15012,"name":"São João da Paraúna","latitude":-16.82392,"longitude":-50.35316},{"id":15065,"name":"São Luís de Montes Belos","latitude":-16.525,"longitude":-50.37222},{"id":15061,"name":"São Luiz do Norte","latitude":-14.89284,"longitude":-49.28212},{"id":15087,"name":"São Miguel do Araguaia","latitude":-13.275,"longitude":-50.16278},{"id":15094,"name":"São Miguel do Passa Quatro","latitude":-16.99955,"longitude":-48.66188},{"id":15100,"name":"São Patrício","latitude":-15.34426,"longitude":-49.83291},{"id":15157,"name":"São Simão","latitude":-19.0108,"longitude":-50.60612},{"id":14695,"name":"Senador Canedo","latitude":-16.70806,"longitude":-49.09306},{"id":14747,"name":"Serranópolis","latitude":-18.27044,"longitude":-52.24749},{"id":14782,"name":"Silvânia","latitude":-16.65889,"longitude":-48.60806},{"id":14783,"name":"Simolândia","latitude":-14.43819,"longitude":-46.59232},{"id":15179,"name":"Sítio d'Abadia","latitude":-14.75201,"longitude":-46.27003},{"id":15242,"name":"Taquaral de Goiás","latitude":-16.0582,"longitude":-49.5904},{"id":15285,"name":"Teresina de Goiás","latitude":-13.73244,"longitude":-47.25266},{"id":15288,"name":"Terezópolis de Goiás","latitude":-16.42797,"longitude":-49.07425},{"id":15382,"name":"Três Ranchos","latitude":-18.36835,"longitude":-47.7985},{"id":15358,"name":"Trindade","latitude":-16.64944,"longitude":-49.48889},{"id":15367,"name":"Trombas","latitude":-13.40409,"longitude":-48.77287},{"id":15421,"name":"Turvânia","latitude":-16.55807,"longitude":-50.16909},{"id":15417,"name":"Turvelândia","latitude":-17.79588,"longitude":-50.29695},{"id":15441,"name":"Uirapuru","latitude":-14.14128,"longitude":-49.93396},{"id":15472,"name":"Uruaçu","latitude":-14.42245,"longitude":-49.06374},{"id":15469,"name":"Uruana","latitude":-15.56368,"longitude":-49.64028},{"id":15485,"name":"Urutaí","latitude":-17.41664,"longitude":-48.19794},{"id":15504,"name":"Valparaíso de Goiás","latitude":-16.09899,"longitude":-47.98813},{"id":15519,"name":"Varjão","latitude":-17.07758,"longitude":-49.62111},{"id":15554,"name":"Vianópolis","latitude":-16.85286,"longitude":-48.45647},{"id":15557,"name":"Vicentinópolis","latitude":-17.70714,"longitude":-49.90768},{"id":15566,"name":"Vila Boa","latitude":-14.97912,"longitude":-47.09259},{"id":15575,"name":"Vila Propício","latitude":-15.20221,"longitude":-48.77569}]