[{"id":32254,"name":"Allariz","latitude":42.19044,"longitude":-7.80175},{"id":32352,"name":"Ambía","latitude":42.20578,"longitude":-7.73707},{"id":32355,"name":"Amoeiro","latitude":42.41667,"longitude":-7.95},{"id":151095,"name":"Arnoia A","latitude":0.0,"longitude":0.0},{"id":32569,"name":"Avión","latitude":42.38333,"longitude":-8.25},{"id":32630,"name":"Baltar","latitude":41.952,"longitude":-7.71581},{"id":32632,"name":"Bande","latitude":42.0312,"longitude":-7.97489},{"id":32703,"name":"Baños de Molgas","latitude":42.24148,"longitude":-7.67223},{"id":151096,"name":"Barbadás","latitude":0.0,"longitude":0.0},{"id":151097,"name":"Barco de Valdeorras O","latitude":0.0,"longitude":0.0},{"id":32714,"name":"Beade","latitude":42.33074,"longitude":-8.1295},{"id":151098,"name":"Beariz","latitude":0.0,"longitude":0.0},{"id":151099,"name":"Blancos Os","latitude":0.0,"longitude":0.0},{"id":32921,"name":"Boborás","latitude":42.43332,"longitude":-8.14431},{"id":151100,"name":"Bola A","latitude":0.0,"longitude":0.0},{"id":151101,"name":"Bolo O","latitude":0.0,"longitude":0.0},{"id":151102,"name":"Calvos de Randín","latitude":0.0,"longitude":0.0},{"id":33282,"name":"Carballeda de Avia","latitude":42.3214,"longitude":-8.16456},{"id":151103,"name":"Carballeda de Valdeorras","latitude":0.0,"longitude":0.0},{"id":151104,"name":"Carballiño O","latitude":0.0,"longitude":0.0},{"id":33339,"name":"Cartelle","latitude":42.25109,"longitude":-8.07062},{"id":33473,"name":"Castrelo de Miño","latitude":42.29798,"longitude":-8.06697},{"id":151105,"name":"Castrelo do Val","latitude":0.0,"longitude":0.0},{"id":33487,"name":"Castro Caldelas","latitude":42.37366,"longitude":-7.42578},{"id":33563,"name":"Celanova","latitude":42.15303,"longitude":-7.95513},{"id":33572,"name":"Cenlle","latitude":42.34183,"longitude":-8.08982},{"id":151107,"name":"Chandrexa de Queixa","latitude":0.0,"longitude":0.0},{"id":33727,"name":"Coles","latitude":42.4,"longitude":-7.83333},{"id":151106,"name":"Cortegada","latitude":0.0,"longitude":0.0},{"id":33843,"name":"Cualedro","latitude":41.98897,"longitude":-7.59464},{"id":34063,"name":"Entrimo","latitude":41.93297,"longitude":-8.11725},{"id":34095,"name":"Esgos","latitude":42.32549,"longitude":-7.69691},{"id":151108,"name":"Gomesende","latitude":0.0,"longitude":0.0},{"id":151109,"name":"Gudiña A","latitude":0.0,"longitude":0.0},{"id":151110,"name":"Irixo O","latitude":0.0,"longitude":0.0},{"id":151113,"name":"Larouco","latitude":0.0,"longitude":0.0},{"id":35007,"name":"Laza","latitude":42.06136,"longitude":-7.462},{"id":151114,"name":"Leiro","latitude":0.0,"longitude":0.0},{"id":151115,"name":"Lobeira","latitude":0.0,"longitude":0.0},{"id":35095,"name":"Lobios","latitude":42.40746,"longitude":-7.53164},{"id":35161,"name":"Luintra","latitude":42.40964,"longitude":-7.72682},{"id":35181,"name":"Maceda","latitude":42.26972,"longitude":-7.65052},{"id":35268,"name":"Manzaneda","latitude":42.30962,"longitude":-7.23209},{"id":35323,"name":"Maside","latitude":42.41031,"longitude":-8.02582},{"id":35392,"name":"Melón","latitude":42.26016,"longitude":-8.214},{"id":151116,"name":"Merca A","latitude":0.0,"longitude":0.0},{"id":151117,"name":"Mezquita A","latitude":0.0,"longitude":0.0},{"id":35547,"name":"Montederramo","latitude":42.27554,"longitude":-7.50138},{"id":151118,"name":"Monterrei","latitude":0.0,"longitude":0.0},{"id":35660,"name":"Muiños","latitude":41.95609,"longitude":-7.97396},{"id":35817,"name":"Nogueira de Ramuín","latitude":42.41712,"longitude":-7.74982},{"id":35846,"name":"O Barco de Valdeorras","latitude":42.41642,"longitude":-6.99005},{"id":35847,"name":"O Carballiño","latitude":42.43163,"longitude":-8.07899},{"id":35865,"name":"Oimbra","latitude":41.88554,"longitude":-7.47216},{"id":35983,"name":"Ourense","latitude":42.33669,"longitude":-7.86407},{"id":151119,"name":"Paderne de Allariz","latitude":0.0,"longitude":0.0},{"id":35993,"name":"Padrenda","latitude":42.13333,"longitude":-8.15},{"id":151120,"name":"Parada de Sil","latitude":0.0,"longitude":0.0},{"id":36147,"name":"Pereiro de Aguiar","latitude":42.34524,"longitude":-7.80008},{"id":151121,"name":"Pereiro de Aguiar O","latitude":0.0,"longitude":0.0},{"id":151122,"name":"Peroxa A","latitude":0.0,"longitude":0.0},{"id":36159,"name":"Petín","latitude":42.38191,"longitude":-7.12899},{"id":36232,"name":"Piñor","latitude":42.5012,"longitude":-8.00151},{"id":151123,"name":"Pobra de Trives A","latitude":0.0,"longitude":0.0},{"id":151124,"name":"Pontedeva","latitude":0.0,"longitude":0.0},{"id":36278,"name":"Porqueira","latitude":42.01667,"longitude":-7.85},{"id":151125,"name":"Punxín","latitude":0.0,"longitude":0.0},{"id":36527,"name":"Quintela de Leirado","latitude":42.13967,"longitude":-8.10126},{"id":36542,"name":"Rairiz de Veiga","latitude":42.08364,"longitude":-7.83503},{"id":151126,"name":"Ramirás","latitude":0.0,"longitude":0.0},{"id":36607,"name":"Ribadavia","latitude":42.28804,"longitude":-8.14362},{"id":36642,"name":"Riós","latitude":41.97457,"longitude":-7.28234},{"id":151128,"name":"Rúa A","latitude":0.0,"longitude":0.0},{"id":151129,"name":"Rubiá","latitude":0.0,"longitude":0.0},{"id":36801,"name":"San Amaro","latitude":42.37385,"longitude":-8.07347},{"id":151130,"name":"San Cibrao das Viñas","latitude":0.0,"longitude":0.0},{"id":151131,"name":"San Cristovo de Cea","latitude":0.0,"longitude":0.0},{"id":151127,"name":"San Xoán de Río","latitude":0.0,"longitude":0.0},{"id":151132,"name":"Sandiás","latitude":0.0,"longitude":0.0},{"id":37167,"name":"Sarreaus","latitude":42.08784,"longitude":-7.60348},{"id":37345,"name":"Taboadela","latitude":42.24234,"longitude":-7.82719},{"id":151133,"name":"Teixeira A","latitude":0.0,"longitude":0.0},{"id":37610,"name":"Toén","latitude":42.31765,"longitude":-7.95435},{"id":37620,"name":"Trasmiras","latitude":42.0254,"longitude":-7.61735},{"id":151134,"name":"Veiga A","latitude":0.0,"longitude":0.0},{"id":37951,"name":"Verea","latitude":42.10653,"longitude":-8.00092},{"id":37955,"name":"Verín","latitude":41.94149,"longitude":-7.43809},{"id":151135,"name":"Viana do Bolo","latitude":0.0,"longitude":0.0},{"id":151136,"name":"Vilamarín","latitude":0.0,"longitude":0.0},{"id":151137,"name":"Vilamartín de Valdeorras","latitude":0.0,"longitude":0.0},{"id":151138,"name":"Vilar de Barrio","latitude":0.0,"longitude":0.0},{"id":151139,"name":"Vilar de Santos","latitude":0.0,"longitude":0.0},{"id":151140,"name":"Vilardevós","latitude":0.0,"longitude":0.0},{"id":151141,"name":"Vilariño de Conso","latitude":0.0,"longitude":0.0},{"id":38422,"name":"Xinzo de Limia","latitude":42.0635,"longitude":-7.72459},{"id":151111,"name":"Xunqueira de Ambía","latitude":0.0,"longitude":0.0},{"id":151112,"name":"Xunqueira de Espadanedo","latitude":0.0,"longitude":0.0}]