[{"id":130185,"name":"Cho Dok","latitude":10.7,"longitude":105.11667},{"id":130211,"name":"Huyện An Phú","latitude":10.84274,"longitude":105.0899},{"id":130248,"name":"Huyện Châu Phú","latitude":10.57166,"longitude":105.16991},{"id":130262,"name":"Huyện Chợ Mới","latitude":10.4773,"longitude":105.49092},{"id":130401,"name":"Huyện Phú Tân","latitude":10.65716,"longitude":105.28459},{"id":130461,"name":"Huyện Tri Tôn","latitude":10.41416,"longitude":104.96136},{"id":130569,"name":"Long Xuyên","latitude":10.38639,"longitude":105.43518},{"id":130570,"name":"Long Xuyên City","latitude":10.36857,"longitude":105.4234}]