[{"id":105182,"name":"Amphoe Ao Luek","latitude":8.38526,"longitude":98.75378},{"id":105396,"name":"Amphoe Khao Phanom","latitude":8.26953,"longitude":99.11813},{"id":105411,"name":"Amphoe Khlong Thom","latitude":7.9147,"longitude":99.19935},{"id":105442,"name":"Amphoe Ko Lanta","latitude":7.71267,"longitude":99.07813},{"id":105477,"name":"Amphoe Lam Thap","latitude":8.04799,"longitude":99.33543},{"id":105546,"name":"Amphoe Mueang Krabi","latitude":8.15947,"longitude":98.86661},{"id":105689,"name":"Amphoe Nuea Khlong","latitude":8.06058,"longitude":99.04039},{"id":105789,"name":"Amphoe Plai Phraya","latitude":8.54087,"longitude":98.83671},{"id":106381,"name":"Ao Luek","latitude":8.37803,"longitude":98.72117},{"id":106534,"name":"Ko Lanta","latitude":7.53362,"longitude":99.08647},{"id":106540,"name":"Krabi","latitude":8.07257,"longitude":98.91052},{"id":106605,"name":"Nuea Khlong","latitude":8.07143,"longitude":98.99933},{"id":106676,"name":"Saladan","latitude":7.61342,"longitude":99.03651}]