[{"id":9178,"name":"Goulouré","latitude":12.23484,"longitude":-1.93394},{"id":9183,"name":"Kokologo","latitude":12.19392,"longitude":-1.87687},{"id":9186,"name":"Koudougou","latitude":12.25263,"longitude":-2.36272},{"id":9189,"name":"Léo","latitude":11.10033,"longitude":-2.10654},{"id":9198,"name":"Pitmoaga","latitude":12.24564,"longitude":-1.88148},{"id":9205,"name":"Province de la Sissili","latitude":11.33333,"longitude":-2.25},{"id":9212,"name":"Province du Boulkiemdé","latitude":12.33333,"longitude":-2.16667},{"id":9227,"name":"Province du Sanguié","latitude":12.16667,"longitude":-2.66667},{"id":9235,"name":"Province du Ziro","latitude":11.58333,"longitude":-1.91667},{"id":9238,"name":"Réo","latitude":12.31963,"longitude":-2.47094},{"id":9240,"name":"Sapouy","latitude":11.55444,"longitude":-1.77361}]