[{"id":135403,"name":"Alfonsine","latitude":44.50768,"longitude":12.03743},{"id":135748,"name":"Bagnacavallo","latitude":44.41402,"longitude":11.97813},{"id":135750,"name":"Bagnara di Romagna","latitude":44.3893,"longitude":11.82726},{"id":136341,"name":"Brisighella","latitude":44.22228,"longitude":11.77358},{"id":137078,"name":"Casola Valsenio","latitude":44.22443,"longitude":11.62487},{"id":137131,"name":"Castel Bolognese","latitude":44.31981,"longitude":11.79903},{"id":137591,"name":"Cervia","latitude":44.26204,"longitude":12.34812},{"id":137974,"name":"Conselice","latitude":44.51163,"longitude":11.82848},{"id":138111,"name":"Cotignola","latitude":44.38572,"longitude":11.93852},{"id":138403,"name":"Faenza","latitude":44.29007,"longitude":11.87948},{"id":138761,"name":"Fusignano","latitude":44.46656,"longitude":11.95636},{"id":139648,"name":"Lugo","latitude":44.42137,"longitude":11.91094},{"id":139971,"name":"Massa Lombarda","latitude":44.44703,"longitude":11.82095},{"id":59299,"name":"Ravenna","latitude":44.41344,"longitude":12.20121},{"id":59393,"name":"Riolo Terme","latitude":44.27609,"longitude":11.72722},{"id":59704,"name":"Russi","latitude":44.37645,"longitude":12.03335},{"id":60326,"name":"Sant'Agata sul Santerno","latitude":44.44351,"longitude":11.86112},{"id":60905,"name":"Solarolo","latitude":44.35892,"longitude":11.84661}]