[{"id":52222,"name":"Bansang","latitude":13.43333,"longitude":-14.65},{"id":52228,"name":"Brikama Nding","latitude":13.53333,"longitude":-14.93333},{"id":52233,"name":"Dankunku","latitude":13.56667,"longitude":-15.31667},{"id":52236,"name":"Denton","latitude":13.5,"longitude":-14.93333},{"id":52246,"name":"Fulladu West","latitude":13.5,"longitude":-14.75},{"id":52247,"name":"Galleh Manda","latitude":13.43333,"longitude":-14.78333},{"id":52248,"name":"Georgetown","latitude":13.54039,"longitude":-14.76374},{"id":52252,"name":"Jakhaly","latitude":13.55,"longitude":-14.96667},{"id":52254,"name":"Janjanbureh","latitude":13.53564,"longitude":-14.76515},{"id":52258,"name":"Jarreng","latitude":13.61667,"longitude":-15.18333},{"id":52265,"name":"Karantaba","latitude":13.66667,"longitude":-15.03333},{"id":52266,"name":"Kass Wollof","latitude":13.78333,"longitude":-14.93333},{"id":52280,"name":"Kuntaur","latitude":13.67085,"longitude":-14.88977},{"id":52281,"name":"Kunting","latitude":13.53333,"longitude":-14.66667},{"id":52285,"name":"Lower Saloum","latitude":13.71667,"longitude":-15.36667},{"id":52287,"name":"Niamina East District","latitude":13.63333,"longitude":-15.08333},{"id":52288,"name":"Niamina West District","latitude":13.58333,"longitude":-15.25},{"id":52289,"name":"Niani","latitude":13.66667,"longitude":-14.91667},{"id":52290,"name":"Nianija District","latitude":13.729,"longitude":-15.091},{"id":52294,"name":"Pateh Sam","latitude":13.61667,"longitude":-15.06667},{"id":52298,"name":"Sami","latitude":13.58333,"longitude":-15.2},{"id":52299,"name":"Sami District","latitude":13.58333,"longitude":-14.58333},{"id":52303,"name":"Saruja","latitude":13.55,"longitude":-14.91667},{"id":52309,"name":"Sukuta","latitude":13.61667,"longitude":-14.91667},{"id":52317,"name":"Upper Saloum","latitude":13.75,"longitude":-15.2},{"id":52318,"name":"Wassu","latitude":13.69094,"longitude":-14.87884}]