[{"id":31594,"name":"Alatskivi","latitude":58.59806,"longitude":27.13361},{"id":31601,"name":"Elva","latitude":58.2225,"longitude":26.42111},{"id":31621,"name":"Kallaste","latitude":58.66312,"longitude":27.16164},{"id":31622,"name":"Kambja vald","latitude":58.20255,"longitude":26.68996},{"id":31646,"name":"Kõrveküla","latitude":58.42417,"longitude":26.78222},{"id":31642,"name":"Kurepalu","latitude":58.31861,"longitude":26.84083},{"id":31654,"name":"Luunja","latitude":58.35583,"longitude":26.88083},{"id":31655,"name":"Luunja vald","latitude":58.39178,"longitude":26.95574},{"id":31668,"name":"Nõo","latitude":58.27556,"longitude":26.5375},{"id":31669,"name":"Nõo vald","latitude":58.24199,"longitude":26.52499},{"id":31677,"name":"Peipsiääre vald","latitude":58.51559,"longitude":27.18444},{"id":31679,"name":"Puhja","latitude":58.34194,"longitude":26.31472},{"id":31720,"name":"Tartu","latitude":58.38062,"longitude":26.72509},{"id":31721,"name":"Tartu linn","latitude":58.37498,"longitude":26.73256},{"id":31722,"name":"Tartu vald","latitude":58.478,"longitude":26.74956},{"id":31754,"name":"Ülenurme","latitude":58.3162,"longitude":26.72517}]