[{"id":76422,"name":"Batu Feringgi","latitude":5.4709,"longitude":100.24529},{"id":76431,"name":"Bukit Mertajam","latitude":5.36301,"longitude":100.4667},{"id":76434,"name":"Butterworth","latitude":5.3991,"longitude":100.36382},{"id":76447,"name":"George Town","latitude":5.41123,"longitude":100.33543},{"id":76456,"name":"Juru","latitude":5.31201,"longitude":100.44229},{"id":76467,"name":"Kampung Batu Feringgi","latitude":5.46948,"longitude":100.24449},{"id":76475,"name":"Kampung Sungai Ara","latitude":5.32699,"longitude":100.27348},{"id":76482,"name":"Kepala Batas","latitude":5.51707,"longitude":100.4265},{"id":76528,"name":"Nibong Tebal","latitude":5.16586,"longitude":100.47793},{"id":76540,"name":"Perai","latitude":5.38333,"longitude":100.38333},{"id":76542,"name":"Permatang Kuching","latitude":5.46339,"longitude":100.38144},{"id":76555,"name":"Seberang Perai","latitude":5.3877,"longitude":100.42603},{"id":76578,"name":"Tanjung Tokong","latitude":5.46061,"longitude":100.30742},{"id":76580,"name":"Tasek Glugor","latitude":5.48032,"longitude":100.49849},{"id":76582,"name":"Telaga Batu","latitude":5.46667,"longitude":100.23333}]