[{"id":39155,"name":"Eot Municipality","latitude":7.3854,"longitude":151.7392},{"id":39156,"name":"Ettal Municipality","latitude":5.592,"longitude":153.56},{"id":39159,"name":"Fananu Municipality","latitude":8.55811,"longitude":151.90822},{"id":39160,"name":"Fanapanges Municipality","latitude":7.353,"longitude":151.6676},{"id":39163,"name":"Fefen Municipality","latitude":7.353,"longitude":151.831},{"id":39164,"name":"Fonoton Municipality","latitude":7.486,"longitude":151.8794},{"id":39167,"name":"Houk Municipality","latitude":6.683,"longitude":149.3},{"id":39173,"name":"Kuttu Municipality","latitude":5.453,"longitude":153.456},{"id":39175,"name":"Lekinioch Municipality","latitude":5.507,"longitude":153.819},{"id":39177,"name":"Losap Municipality","latitude":6.894,"longitude":152.739},{"id":39180,"name":"Makur Municipality","latitude":8.985,"longitude":150.126},{"id":39182,"name":"Moch Municipality","latitude":5.4918,"longitude":153.5385},{"id":39184,"name":"Murilo","latitude":8.69242,"longitude":152.33934},{"id":39185,"name":"Murilo Municipality","latitude":8.692,"longitude":152.342},{"id":39186,"name":"Namoluk Municipality","latitude":5.915,"longitude":153.136},{"id":39187,"name":"Nema","latitude":6.98922,"longitude":152.57377},{"id":39188,"name":"Nema Municipality","latitude":6.993,"longitude":152.574},{"id":39192,"name":"Nomwin Municipality","latitude":8.43,"longitude":151.745},{"id":39194,"name":"Oneop Municipality","latitude":5.5066,"longitude":153.709},{"id":39195,"name":"Onou Municipality","latitude":8.799,"longitude":150.29},{"id":39196,"name":"Onoun Municipality","latitude":8.575,"longitude":149.6855},{"id":39197,"name":"Paata-Tupunion Municipality","latitude":7.376,"longitude":151.583},{"id":39199,"name":"Parem Municipality","latitude":7.362,"longitude":151.789},{"id":39200,"name":"Piherarh Municipality","latitude":8.569,"longitude":150.418},{"id":39201,"name":"Piis-Emwar Municipality","latitude":6.834,"longitude":152.7},{"id":39202,"name":"Piis-Panewu Municipality","latitude":7.678,"longitude":151.7634},{"id":39204,"name":"Pollap Municipality","latitude":7.63971,"longitude":149.43011},{"id":39205,"name":"Polowat Municipality","latitude":7.355,"longitude":149.182},{"id":39206,"name":"Pwene Municipality","latitude":7.337,"longitude":151.584},{"id":39207,"name":"Ramanum Municipality","latitude":7.4135,"longitude":151.6646},{"id":39210,"name":"Ruo Municipality","latitude":8.609,"longitude":152.244},{"id":39213,"name":"Satowan Municipality","latitude":5.334,"longitude":153.7365},{"id":39214,"name":"Siis Municipality","latitude":7.295,"longitude":151.8246},{"id":39216,"name":"Ta Municipality","latitude":5.2842,"longitude":153.6465},{"id":39218,"name":"Tamatam Municipality","latitude":7.53898,"longitude":149.41175},{"id":39220,"name":"Tolensom Municipality","latitude":7.333,"longitude":151.623},{"id":39222,"name":"Tonoas Municipality","latitude":7.381,"longitude":151.89},{"id":39224,"name":"Udot-Fonuweisom Municipality","latitude":7.389,"longitude":151.708},{"id":39226,"name":"Uman-Fonuweisom Municipality","latitude":7.299,"longitude":151.877},{"id":39227,"name":"Unanu Municipality","latitude":8.75,"longitude":150.3395},{"id":39230,"name":"Weno","latitude":7.44648,"longitude":151.84135},{"id":39231,"name":"Weno Municipality","latitude":7.44,"longitude":151.881},{"id":39233,"name":"Wonei Municipality","latitude":7.387,"longitude":151.601}]