[{"id":63133,"name":"Al Jīzah","latitude":31.69893,"longitude":35.9553},{"id":63132,"name":"Al Jubayhah","latitude":32.01071,"longitude":35.89802},{"id":63141,"name":"Amman","latitude":31.95522,"longitude":35.94503},{"id":63203,"name":"Ḩayy al Bunayyāt","latitude":31.89603,"longitude":35.88465},{"id":63204,"name":"Ḩayy al Quwaysimah","latitude":31.91037,"longitude":35.94975},{"id":63162,"name":"Jāwā","latitude":31.85247,"longitude":35.93928},{"id":63185,"name":"Saḩāb","latitude":31.87032,"longitude":36.00479},{"id":63192,"name":"Umm as Summāq","latitude":31.88542,"longitude":35.8543},{"id":63194,"name":"Wādī as Sīr","latitude":31.9545,"longitude":35.81831}]