[{"id":110878,"name":"Bugembe","latitude":0.48213,"longitude":33.24065},{"id":110879,"name":"Bugiri","latitude":0.57139,"longitude":33.74167},{"id":110881,"name":"Bukwa District","latitude":1.27115,"longitude":34.66778},{"id":110882,"name":"Bulambuli District","latitude":1.32055,"longitude":34.28062},{"id":110884,"name":"Busembatia","latitude":0.77725,"longitude":33.62364},{"id":110885,"name":"Busia","latitude":0.46588,"longitude":34.09221},{"id":110887,"name":"Buwenge","latitude":0.64996,"longitude":33.17128},{"id":110898,"name":"Iganga","latitude":0.60917,"longitude":33.46861},{"id":110899,"name":"Jinja","latitude":0.43902,"longitude":33.20317},{"id":110905,"name":"Kamuli","latitude":0.94722,"longitude":33.11972},{"id":110909,"name":"Kapchorwa","latitude":1.40096,"longitude":34.45038},{"id":110914,"name":"Kibuku District","latitude":1.05,"longitude":33.80879},{"id":110922,"name":"Kumi","latitude":1.46083,"longitude":33.93611},{"id":110933,"name":"Mayuge","latitude":0.45972,"longitude":33.48028},{"id":110934,"name":"Mbale","latitude":1.08209,"longitude":34.17503},{"id":110955,"name":"Pallisa","latitude":1.145,"longitude":33.70944},{"id":110958,"name":"Sironko","latitude":1.23132,"longitude":34.24773},{"id":110959,"name":"Soroti","latitude":1.71464,"longitude":33.61113},{"id":110960,"name":"Tororo","latitude":0.69299,"longitude":34.18085}]