[{"id":63209,"name":"‘Ayy","latitude":31.13371,"longitude":35.64375},{"id":63210,"name":"‘Izrā","latitude":31.15889,"longitude":35.69278},{"id":63129,"name":"Adir","latitude":31.20217,"longitude":35.76155},{"id":63135,"name":"Al Khinzīrah","latitude":31.05056,"longitude":35.60606},{"id":63137,"name":"Al Mazār al Janūbī","latitude":31.06722,"longitude":35.69486},{"id":63138,"name":"Al Qaşr","latitude":31.31407,"longitude":35.74393},{"id":63143,"name":"Ar Rabbah","latitude":31.26923,"longitude":35.73829},{"id":63166,"name":"Karak City","latitude":31.16368,"longitude":35.76204},{"id":63182,"name":"Safi","latitude":31.03608,"longitude":35.46544}]