[{"id":39130,"name":"Ähtäri","latitude":62.55403,"longitude":24.06186},{"id":38730,"name":"Alahärmä","latitude":63.23333,"longitude":22.85},{"id":38731,"name":"Alajärvi","latitude":63.0,"longitude":23.81667},{"id":38734,"name":"Alavus","latitude":62.58333,"longitude":23.61667},{"id":38751,"name":"Evijärvi","latitude":63.36667,"longitude":23.48333},{"id":38785,"name":"Ilmajoki","latitude":62.73333,"longitude":22.56667},{"id":38791,"name":"Isojoki","latitude":62.11319,"longitude":21.95884},{"id":38796,"name":"Jalasjärvi","latitude":62.5,"longitude":22.75},{"id":38804,"name":"Jurva","latitude":62.68333,"longitude":21.98333},{"id":38826,"name":"Karijoki","latitude":62.30851,"longitude":21.70856},{"id":38835,"name":"Kauhajoki","latitude":62.43333,"longitude":22.18333},{"id":38836,"name":"Kauhava","latitude":63.10299,"longitude":23.07129},{"id":38871,"name":"Kortesjärvi","latitude":63.3,"longitude":23.16667},{"id":38882,"name":"Kuortane","latitude":62.8,"longitude":23.5},{"id":38883,"name":"Kurikka","latitude":62.61667,"longitude":22.41667},{"id":38898,"name":"Lappajärvi","latitude":63.2,"longitude":23.63333},{"id":38901,"name":"Lapua","latitude":62.96927,"longitude":23.0088},{"id":38906,"name":"Lehtimäki","latitude":62.78333,"longitude":23.91667},{"id":38959,"name":"Nurmo","latitude":62.8287,"longitude":22.9099},{"id":39044,"name":"Seinäjoki","latitude":62.79446,"longitude":22.82822},{"id":39053,"name":"Soini","latitude":62.86667,"longitude":24.21667},{"id":39076,"name":"Teuva","latitude":62.4819,"longitude":21.74156},{"id":39087,"name":"Töysä","latitude":62.62803,"longitude":23.81828},{"id":39111,"name":"Vimpeli","latitude":63.16187,"longitude":23.81922},{"id":39122,"name":"Ylihärmä","latitude":63.15,"longitude":22.78333},{"id":39124,"name":"Ylistaro","latitude":62.93958,"longitude":22.51306}]