[{"id":53428,"name":"Almolonga","latitude":14.81591,"longitude":-91.49464},{"id":53436,"name":"Cabricán","latitude":15.07485,"longitude":-91.648},{"id":53438,"name":"Cajolá","latitude":14.92205,"longitude":-91.61478},{"id":53441,"name":"Cantel","latitude":14.81154,"longitude":-91.45536},{"id":53461,"name":"Coatepeque","latitude":14.70413,"longitude":-91.86426},{"id":53463,"name":"Colomba","latitude":14.7073,"longitude":-91.73167},{"id":53469,"name":"Concepción Chiquirichapa","latitude":14.8551,"longitude":-91.6236},{"id":53485,"name":"El Palmar","latitude":14.65083,"longitude":-91.578},{"id":53495,"name":"Flores Costa Cuca","latitude":14.63238,"longitude":-91.86341},{"id":53502,"name":"Génova","latitude":14.61667,"longitude":-91.83333},{"id":53504,"name":"Huitán","latitude":15.0492,"longitude":-91.63944},{"id":53518,"name":"La Esperanza","latitude":14.87169,"longitude":-91.5614},{"id":53540,"name":"Municipio de Almolonga","latitude":14.81118,"longitude":-91.48354},{"id":53544,"name":"Municipio de Cabricán","latitude":15.10305,"longitude":-91.64918},{"id":53546,"name":"Municipio de Cantel","latitude":14.81659,"longitude":-91.43781},{"id":53555,"name":"Municipio de Coatepeque","latitude":14.64309,"longitude":-91.97926},{"id":53556,"name":"Municipio de Colomba","latitude":14.71002,"longitude":-91.74691},{"id":53557,"name":"Municipio de Concepción Chiquirichapa","latitude":14.84624,"longitude":-91.61854},{"id":53561,"name":"Municipio de Flores Costa Cuca","latitude":14.63238,"longitude":-91.86341},{"id":53586,"name":"Municipio de San Juan Ostuncalco","latitude":14.87477,"longitude":-91.68842},{"id":53610,"name":"Olintepeque","latitude":14.88605,"longitude":-91.51472},{"id":53613,"name":"Ostuncalco","latitude":14.86899,"longitude":-91.62137},{"id":53617,"name":"Palestina de los Altos","latitude":14.93338,"longitude":-91.69403},{"id":53638,"name":"Quetzaltenango","latitude":14.83472,"longitude":-91.51806},{"id":53646,"name":"Salcajá","latitude":14.87964,"longitude":-91.45699},{"id":53647,"name":"Samayac","latitude":14.58084,"longitude":-91.46135},{"id":53667,"name":"San Carlos Sija","latitude":14.98436,"longitude":-91.54912},{"id":53676,"name":"San Francisco la Unión","latitude":14.9235,"longitude":-91.54157},{"id":53711,"name":"San Martín Sacatepéquez","latitude":14.82443,"longitude":-91.64192},{"id":53713,"name":"San Mateo","latitude":14.858,"longitude":-91.59004},{"id":53720,"name":"San Miguel Sigüilá","latitude":14.89547,"longitude":-91.61457},{"id":53778,"name":"Sibilia","latitude":14.99391,"longitude":-91.62371},{"id":53805,"name":"Zunil","latitude":14.78463,"longitude":-91.48345}]