[{"id":52399,"name":"Acharnés","latitude":38.08333,"longitude":23.73333},{"id":52402,"name":"Aegina","latitude":37.74667,"longitude":23.4275},{"id":52403,"name":"Afidnés","latitude":38.20332,"longitude":23.83982},{"id":52406,"name":"Aghios Panteleímon","latitude":38.11643,"longitude":23.98182},{"id":52420,"name":"Agía Marína","latitude":37.82036,"longitude":23.84424},{"id":52421,"name":"Agía Paraskeví","latitude":38.01667,"longitude":23.83333},{"id":52426,"name":"Agía Varvára","latitude":37.98938,"longitude":23.66011},{"id":53370,"name":"Ágioi Anárgyroi","latitude":38.03013,"longitude":23.72379},{"id":52407,"name":"Agios Dimitrios","latitude":37.93333,"longitude":23.73333},{"id":52408,"name":"Agios Dimítrios Kropiás","latitude":37.80612,"longitude":23.85793},{"id":52410,"name":"Agios Ioannis Rentis","latitude":37.96491,"longitude":23.66511},{"id":53385,"name":"Ágios Stéfanos","latitude":38.14657,"longitude":23.85608},{"id":52433,"name":"Aiánteio","latitude":37.92135,"longitude":23.45877},{"id":52430,"name":"Aigáleo","latitude":37.98333,"longitude":23.68333},{"id":53387,"name":"Álimos","latitude":37.91033,"longitude":23.72361},{"id":52454,"name":"Ampelákia","latitude":37.95055,"longitude":23.52803},{"id":52478,"name":"Anávyssos","latitude":37.73414,"longitude":23.94389},{"id":53394,"name":"Áno Liósia","latitude":38.08333,"longitude":23.7},{"id":52468,"name":"Anoixi","latitude":38.13267,"longitude":23.85874},{"id":52470,"name":"Anthoúsa","latitude":38.02544,"longitude":23.87617},{"id":52487,"name":"Argithéa","latitude":37.97506,"longitude":23.88556},{"id":52490,"name":"Argyroúpoli","latitude":37.90594,"longitude":23.75035},{"id":52500,"name":"Artémida","latitude":37.96727,"longitude":23.99684},{"id":52508,"name":"Asprópyrgos","latitude":38.06134,"longitude":23.58971},{"id":52515,"name":"Athens","latitude":37.98376,"longitude":23.72784},{"id":52518,"name":"Avlónas","latitude":38.25149,"longitude":23.69554},{"id":53409,"name":"Áyioi Apóstoloi","latitude":38.29169,"longitude":23.91011},{"id":52532,"name":"Chaïdári","latitude":38.01135,"longitude":23.66597},{"id":52534,"name":"Cholargós","latitude":38.0,"longitude":23.8},{"id":52549,"name":"Dhafní","latitude":37.95002,"longitude":23.73437},{"id":52552,"name":"Dhráfi","latitude":38.02375,"longitude":23.90788},{"id":52557,"name":"Dióni","latitude":38.02328,"longitude":23.93286},{"id":52558,"name":"Diónysos","latitude":38.10458,"longitude":23.87938},{"id":52561,"name":"Drapetsóna","latitude":37.94988,"longitude":23.62309},{"id":52563,"name":"Drosiá","latitude":38.11977,"longitude":23.86428},{"id":52575,"name":"Ekáli","latitude":38.11035,"longitude":23.83505},{"id":52577,"name":"Elefsína","latitude":38.04135,"longitude":23.54295},{"id":52581,"name":"Ellinikó","latitude":37.89013,"longitude":23.74406},{"id":52591,"name":"Erythrés","latitude":38.21741,"longitude":23.32234},{"id":52604,"name":"Filothéi","latitude":38.02524,"longitude":23.78257},{"id":52613,"name":"Fylí","latitude":38.10235,"longitude":23.66901},{"id":52624,"name":"Galatás","latitude":37.49618,"longitude":23.44886},{"id":52627,"name":"Galátsi","latitude":38.01667,"longitude":23.75},{"id":52653,"name":"Gérakas","latitude":38.02277,"longitude":23.8576},{"id":52638,"name":"Glyfáda","latitude":37.86289,"longitude":23.75802},{"id":52644,"name":"Grammatikó","latitude":38.20251,"longitude":23.96504},{"id":53421,"name":"Ílion","latitude":38.03333,"longitude":23.7},{"id":52662,"name":"Ilioúpoli","latitude":37.93149,"longitude":23.76779},{"id":52665,"name":"Irákleio","latitude":38.05282,"longitude":23.76523},{"id":52674,"name":"Kaisarianí","latitude":37.9634,"longitude":23.76523},{"id":52802,"name":"Kálamos","latitude":38.28447,"longitude":23.86308},{"id":52681,"name":"Kallithéa","latitude":37.95,"longitude":23.7},{"id":52695,"name":"Kalývia Thorikoú","latitude":37.83894,"longitude":23.92505},{"id":52697,"name":"Kamaterón","latitude":38.05586,"longitude":23.70515},{"id":52705,"name":"Kapandríti","latitude":38.21579,"longitude":23.87938},{"id":52714,"name":"Karellás","latitude":37.93445,"longitude":23.86484},{"id":52817,"name":"Káto Soúlion","latitude":38.16803,"longitude":24.01628},{"id":52742,"name":"Keratéa","latitude":37.80585,"longitude":23.9774},{"id":52741,"name":"Keratsíni","latitude":37.9625,"longitude":23.61972},{"id":52744,"name":"Khalándrion","latitude":38.02369,"longitude":23.80068},{"id":52743,"name":"Khalkoútsion","latitude":38.33263,"longitude":23.73188},{"id":52746,"name":"Kifisiá","latitude":38.07438,"longitude":23.81106},{"id":52749,"name":"Kinéta","latitude":37.96843,"longitude":23.21351},{"id":52750,"name":"Kipséli","latitude":38.00288,"longitude":23.73755},{"id":52824,"name":"Kítsi","latitude":37.85181,"longitude":23.84068},{"id":52769,"name":"Koropí","latitude":37.89886,"longitude":23.87181},{"id":52770,"name":"Korydallós","latitude":37.98468,"longitude":23.64711},{"id":52779,"name":"Kouvarás","latitude":37.82711,"longitude":23.96715},{"id":52790,"name":"Kryonéri","latitude":38.13712,"longitude":23.83055},{"id":52799,"name":"Kypséli","latitude":37.76021,"longitude":23.45448},{"id":52830,"name":"Kýthira","latitude":36.14955,"longitude":22.98979},{"id":52877,"name":"Lávrio","latitude":37.71445,"longitude":24.05647},{"id":52844,"name":"Leondárion","latitude":37.987,"longitude":23.85518},{"id":52856,"name":"Limín Mesoyaías","latitude":37.89108,"longitude":24.00307},{"id":52871,"name":"Lykóvrysi","latitude":38.06933,"longitude":23.78223},{"id":52885,"name":"Magoúla","latitude":38.07989,"longitude":23.52108},{"id":52955,"name":"Mándra","latitude":38.06667,"longitude":23.5},{"id":52898,"name":"Marathónas","latitude":38.15317,"longitude":23.96278},{"id":52899,"name":"Markópoulo","latitude":37.88333,"longitude":23.93333},{"id":52900,"name":"Markópoulo Oropoú","latitude":38.2898,"longitude":23.82475},{"id":52902,"name":"Maroúsi","latitude":38.05,"longitude":23.8},{"id":52911,"name":"Megalochóri","latitude":37.71051,"longitude":23.34659},{"id":52956,"name":"Mégara","latitude":37.99471,"longitude":23.34324},{"id":52922,"name":"Melíssia","latitude":38.05,"longitude":23.83333},{"id":52931,"name":"Metamórfosi","latitude":38.06576,"longitude":23.76356},{"id":52943,"name":"Moskháton","latitude":37.94789,"longitude":23.6788},{"id":53004,"name":"Néa Chalkidóna","latitude":38.0271,"longitude":23.73051},{"id":53005,"name":"Néa Erythraía","latitude":38.0927,"longitude":23.82223},{"id":53006,"name":"Néa Filadélfeia","latitude":38.03491,"longitude":23.73811},{"id":53009,"name":"Néa Ionía","latitude":38.0357,"longitude":23.75733},{"id":53022,"name":"Néa Mákri","latitude":38.08733,"longitude":23.97642},{"id":53024,"name":"Néa Palátia","latitude":38.31942,"longitude":23.79649},{"id":53025,"name":"Néa Pentéli","latitude":38.06059,"longitude":23.85926},{"id":53030,"name":"Néa Péramos","latitude":38.00647,"longitude":23.42348},{"id":53034,"name":"Néa Smýrni","latitude":37.94504,"longitude":23.71416},{"id":53045,"name":"Néo Psychikó","latitude":38.00624,"longitude":23.78373},{"id":52970,"name":"Neos Voutzás","latitude":38.04312,"longitude":23.97749},{"id":53054,"name":"Níkaia","latitude":37.96667,"longitude":23.65},{"id":53065,"name":"Oropós","latitude":38.30326,"longitude":23.75549},{"id":53070,"name":"Paianía","latitude":37.95527,"longitude":23.85443},{"id":53076,"name":"Palaiá Fókaia","latitude":37.71998,"longitude":23.94792},{"id":53077,"name":"Palaió Fáliro","latitude":37.92812,"longitude":23.70105},{"id":53084,"name":"Pallíni","latitude":38.00514,"longitude":23.88302},{"id":53089,"name":"Papágou","latitude":37.98642,"longitude":23.79347},{"id":53171,"name":"Péfki","latitude":38.06019,"longitude":23.79264},{"id":53107,"name":"Pentéli","latitude":38.05,"longitude":23.86667},{"id":53175,"name":"Pérama","latitude":37.96775,"longitude":23.5721},{"id":53112,"name":"Peristéri","latitude":38.01539,"longitude":23.69187},{"id":53119,"name":"Petroúpolis","latitude":38.04187,"longitude":23.68494},{"id":53122,"name":"Pikérmi","latitude":38.00161,"longitude":23.94075},{"id":53123,"name":"Piraeus","latitude":37.94203,"longitude":23.64619},{"id":53132,"name":"Polydéndri","latitude":38.216,"longitude":23.86806},{"id":53180,"name":"Póros","latitude":37.49944,"longitude":23.45361},{"id":53155,"name":"Psychikó","latitude":38.01324,"longitude":23.77223},{"id":53186,"name":"Rafína","latitude":38.01812,"longitude":24.00599},{"id":53197,"name":"Rodópoli","latitude":38.11669,"longitude":23.87572},{"id":53204,"name":"Salamína","latitude":37.96427,"longitude":23.49649},{"id":53207,"name":"Saronída","latitude":37.74809,"longitude":23.91059},{"id":53211,"name":"Selínia","latitude":37.9332,"longitude":23.53147},{"id":53226,"name":"Skála Oropoú","latitude":38.31964,"longitude":23.78763},{"id":53220,"name":"Skarmagkás","latitude":38.01133,"longitude":23.60303},{"id":53242,"name":"Spáta","latitude":37.96163,"longitude":23.91514},{"id":53243,"name":"Spétses","latitude":37.26191,"longitude":23.15943},{"id":53245,"name":"Stamáta","latitude":38.12546,"longitude":23.88038},{"id":53300,"name":"Távros","latitude":37.97064,"longitude":23.69043},{"id":53280,"name":"Thrakomakedónes","latitude":38.12964,"longitude":23.75751},{"id":53340,"name":"Vári","latitude":37.8332,"longitude":23.80311},{"id":53308,"name":"Varnávas","latitude":38.22358,"longitude":23.92307},{"id":53311,"name":"Varybóbi","latitude":38.12723,"longitude":23.78729},{"id":53316,"name":"Vathý","latitude":37.7642,"longitude":23.48011},{"id":53344,"name":"Vília","latitude":38.16716,"longitude":23.33659},{"id":53325,"name":"Vlycháda","latitude":38.02734,"longitude":23.43663},{"id":53331,"name":"Voúla","latitude":37.84221,"longitude":23.77651},{"id":53329,"name":"Vouliagméni","latitude":37.81423,"longitude":23.77892},{"id":53334,"name":"Vraná","latitude":38.12497,"longitude":23.95198},{"id":53335,"name":"Vrilissia","latitude":38.03381,"longitude":23.82962},{"id":53347,"name":"Výronas","latitude":37.96105,"longitude":23.753},{"id":53424,"name":"Ýdra","latitude":37.34976,"longitude":23.4656},{"id":53355,"name":"Ymittos","latitude":37.95342,"longitude":23.74897},{"id":53360,"name":"Zefyri","latitude":38.06647,"longitude":23.71701},{"id":53363,"name":"Zográfos","latitude":37.97574,"longitude":23.76911}]