[{"id":55184,"name":"Algyő","latitude":46.33472,"longitude":20.20849},{"id":55192,"name":"Apátfalva","latitude":46.16667,"longitude":20.58333},{"id":56143,"name":"Ásotthalom","latitude":46.19875,"longitude":19.78334},{"id":55207,"name":"Baks","latitude":46.54297,"longitude":20.10213},{"id":55228,"name":"Balástya","latitude":46.42277,"longitude":20.00816},{"id":55257,"name":"Bordány","latitude":46.31843,"longitude":19.92306},{"id":55326,"name":"Csanádpalota","latitude":46.25,"longitude":20.73333},{"id":55324,"name":"Csanytelek","latitude":46.59501,"longitude":20.12342},{"id":55328,"name":"Csengele","latitude":46.54234,"longitude":19.86358},{"id":55337,"name":"Csongrád","latitude":46.71332,"longitude":20.14241},{"id":55338,"name":"Csongrádi Járás","latitude":46.66146,"longitude":20.08792},{"id":55359,"name":"Deszk","latitude":46.21802,"longitude":20.24322},{"id":55365,"name":"Domaszék","latitude":46.24917,"longitude":20.01111},{"id":55434,"name":"Fábiánsebestyén","latitude":46.68333,"longitude":20.46667},{"id":55438,"name":"Földeák","latitude":46.31667,"longitude":20.5},{"id":55432,"name":"Forráskút","latitude":46.36528,"longitude":19.90973},{"id":55521,"name":"Hódmezővásárhely","latitude":46.41667,"longitude":20.33333},{"id":55522,"name":"Hódmezővásárhelyi Járás","latitude":46.43301,"longitude":20.37598},{"id":55610,"name":"Kistelek","latitude":46.4725,"longitude":19.97972},{"id":55611,"name":"Kisteleki Járás","latitude":46.48835,"longitude":19.99568},{"id":55614,"name":"Kiszombor","latitude":46.18333,"longitude":20.43333},{"id":55677,"name":"Makó","latitude":46.21667,"longitude":20.48333},{"id":55678,"name":"Makói Járás","latitude":46.26698,"longitude":20.542},{"id":55681,"name":"Maroslele","latitude":46.26667,"longitude":20.35},{"id":55704,"name":"Mindszent","latitude":46.52362,"longitude":20.19038},{"id":55734,"name":"Mórahalmi Járás","latitude":46.2684,"longitude":19.82256},{"id":55735,"name":"Mórahalom","latitude":46.21806,"longitude":19.8851},{"id":56152,"name":"Ópusztaszer","latitude":46.48592,"longitude":20.08722},{"id":55835,"name":"Pusztaszer","latitude":46.55083,"longitude":19.98823},{"id":55881,"name":"Röszke","latitude":46.18796,"longitude":20.03372},{"id":55868,"name":"Ruzsa","latitude":46.28806,"longitude":19.74714},{"id":55980,"name":"Sándorfalva","latitude":46.36087,"longitude":20.09889},{"id":55923,"name":"Szatymaz","latitude":46.34306,"longitude":20.0402},{"id":55925,"name":"Szeged","latitude":46.253,"longitude":20.14824},{"id":55926,"name":"Szegedi Járás","latitude":46.29536,"longitude":20.13758},{"id":55929,"name":"Szegvár","latitude":46.5874,"longitude":20.22408},{"id":55976,"name":"Székkutas","latitude":46.5,"longitude":20.53333},{"id":55936,"name":"Szentes","latitude":46.65834,"longitude":20.2608},{"id":55937,"name":"Szentesi Járás","latitude":46.66005,"longitude":20.37314},{"id":56081,"name":"Tömörkény","latitude":46.61716,"longitude":20.04357},{"id":56167,"name":"Üllés","latitude":46.33611,"longitude":19.84454},{"id":56136,"name":"Zákányszék","latitude":46.27453,"longitude":19.88975},{"id":56130,"name":"Zsombó","latitude":46.32566,"longitude":19.97464}]