[{"id":97508,"name":"Afanas’yevskiy Rayon","latitude":58.83333,"longitude":53.25},{"id":97653,"name":"Arbazh","latitude":57.68041,"longitude":48.30647},{"id":97671,"name":"Arkul’","latitude":57.28085,"longitude":50.044},{"id":97843,"name":"Belaya Kholunitsa","latitude":58.84,"longitude":50.85278},{"id":97861,"name":"Belorechensk","latitude":58.77251,"longitude":52.29357},{"id":97973,"name":"Bogorodskoye","latitude":57.82849,"longitude":50.74856},{"id":98229,"name":"Chërnaya Kholunitsa","latitude":58.85115,"longitude":51.71545},{"id":98247,"name":"Darovskoy","latitude":58.76999,"longitude":47.95642},{"id":98263,"name":"Dem’yanovo","latitude":60.35111,"longitude":47.08417},{"id":98344,"name":"Dubrovka","latitude":59.22866,"longitude":51.15578},{"id":98412,"name":"Falënki","latitude":58.36127,"longitude":51.59461},{"id":98413,"name":"Falënskiy Rayon","latitude":58.33333,"longitude":51.58333},{"id":99037,"name":"Kiknur","latitude":57.30341,"longitude":47.20105},{"id":99038,"name":"Kiknurskiy Rayon","latitude":57.33333,"longitude":47.16667},{"id":99041,"name":"Kil’mez’","latitude":56.94389,"longitude":51.065},{"id":99059,"name":"Kirov","latitude":58.59665,"longitude":49.66007},{"id":99062,"name":"Kirovo-Chepetsk","latitude":58.55386,"longitude":50.03986},{"id":99063,"name":"Kirovo-Chepetskiy Rayon","latitude":58.5,"longitude":50.0},{"id":99073,"name":"Kirs","latitude":59.33882,"longitude":52.24467},{"id":99233,"name":"Kosino","latitude":58.41272,"longitude":51.27819},{"id":99239,"name":"Kostino","latitude":58.90966,"longitude":53.26907},{"id":99244,"name":"Kotel’nich","latitude":58.3089,"longitude":48.348},{"id":99282,"name":"Krasnaya Polyana","latitude":56.24204,"longitude":51.14425},{"id":99444,"name":"Kumëny","latitude":58.10887,"longitude":49.91614},{"id":99543,"name":"Lal’sk","latitude":60.74146,"longitude":47.58617},{"id":99577,"name":"Leninskoye","latitude":58.31637,"longitude":47.08856},{"id":99593,"name":"Lesnoy","latitude":59.781,"longitude":52.12838},{"id":99601,"name":"Lesnyye Polyany","latitude":59.00314,"longitude":52.41802},{"id":99695,"name":"Luza","latitude":60.63081,"longitude":47.25118},{"id":99699,"name":"Luzskiy Rayon","latitude":60.58333,"longitude":47.25},{"id":99704,"name":"Lyangasovo","latitude":58.51759,"longitude":49.44718},{"id":99760,"name":"Malmyzh","latitude":56.5205,"longitude":50.6818},{"id":99761,"name":"Malmyzhskiy Rayon","latitude":56.58333,"longitude":50.91667},{"id":99803,"name":"Maromitsa","latitude":59.86828,"longitude":48.01227},{"id":99844,"name":"Medvedok","latitude":57.38913,"longitude":50.0351},{"id":99925,"name":"Mirnyy","latitude":58.49333,"longitude":47.65389},{"id":100005,"name":"Murashi","latitude":59.3999,"longitude":48.9615},{"id":100006,"name":"Murashinskiy Rayon","latitude":59.33333,"longitude":48.75},{"id":100018,"name":"Murygino","latitude":58.73831,"longitude":49.45822},{"id":100048,"name":"Nagorsk","latitude":59.31722,"longitude":50.80778},{"id":100049,"name":"Nagorskiy Rayon","latitude":59.5,"longitude":50.83333},{"id":100099,"name":"Nema","latitude":57.50675,"longitude":50.50115},{"id":100103,"name":"Nemskiy Rayon","latitude":57.5,"longitude":50.66667},{"id":100154,"name":"Nizhneivkino","latitude":58.19398,"longitude":49.52137},{"id":100196,"name":"Nolinsk","latitude":57.55962,"longitude":49.93629},{"id":100197,"name":"Nolinskiy Rayon","latitude":57.58333,"longitude":49.91667},{"id":100445,"name":"Omutninsk","latitude":58.67001,"longitude":52.1932},{"id":100453,"name":"Oparino","latitude":59.85179,"longitude":48.27826},{"id":100467,"name":"Orichevskiy Rayon","latitude":58.25,"longitude":48.75},{"id":100468,"name":"Orichi","latitude":58.40356,"longitude":49.05719},{"id":100470,"name":"Orlov","latitude":58.53946,"longitude":48.89173},{"id":100475,"name":"Orlovskiy Rayon","latitude":58.66306,"longitude":48.74222},{"id":100559,"name":"Pasegovo","latitude":58.50602,"longitude":49.51383},{"id":100635,"name":"Peskovka","latitude":59.04478,"longitude":52.36057},{"id":100678,"name":"Pinyug","latitude":60.25095,"longitude":47.78425},{"id":100690,"name":"Pizhanka","latitude":57.46042,"longitude":48.542},{"id":100691,"name":"Pizhanskiy Rayon","latitude":57.41667,"longitude":48.5},{"id":100726,"name":"Podosinovets","latitude":60.27758,"longitude":47.06587},{"id":100727,"name":"Podosinovskiy Rayon","latitude":60.16667,"longitude":47.33333},{"id":100930,"name":"Raduzhnyy","latitude":58.49899,"longitude":49.64347},{"id":101022,"name":"Rudnichnyy","latitude":59.61702,"longitude":52.47033},{"id":101095,"name":"Sanchursk","latitude":56.94125,"longitude":47.24987},{"id":101096,"name":"Sanchurskiy Rayon","latitude":57.0,"longitude":47.33333},{"id":101228,"name":"Shabalinskiy Rayon","latitude":58.33333,"longitude":46.91667},{"id":101409,"name":"Slobodskoy","latitude":58.73222,"longitude":50.17722},{"id":101410,"name":"Slobodskoy Rayon","latitude":58.75,"longitude":50.25},{"id":101487,"name":"Sosnovka","latitude":56.25496,"longitude":51.28419},{"id":101503,"name":"Sovetsk","latitude":57.58475,"longitude":48.95844},{"id":101513,"name":"Sovetskiy Rayon","latitude":57.58333,"longitude":49.0},{"id":101521,"name":"Sozimskiy","latitude":59.74178,"longitude":52.24821},{"id":101629,"name":"Strizhi","latitude":58.45758,"longitude":49.28667},{"id":101637,"name":"Stulovo","latitude":58.7225,"longitude":50.14389},{"id":101662,"name":"Suna","latitude":57.83379,"longitude":50.05884},{"id":101663,"name":"Sunskiy Rayon","latitude":57.83333,"longitude":50.0},{"id":101696,"name":"Svecha","latitude":58.27849,"longitude":47.51636},{"id":101704,"name":"Svetlopolyansk","latitude":59.41836,"longitude":52.36045},{"id":101898,"name":"Torfyanoy","latitude":58.4916,"longitude":49.19786},{"id":101987,"name":"Tuzha","latitude":57.60615,"longitude":47.93597},{"id":102060,"name":"Uni","latitude":57.751,"longitude":51.4913},{"id":102061,"name":"Uninskiy Rayon","latitude":57.66667,"longitude":51.5},{"id":102094,"name":"Urzhum","latitude":57.11412,"longitude":49.99956},{"id":102177,"name":"Vakhrushi","latitude":58.68472,"longitude":50.02611},{"id":102276,"name":"Verkhoshizhem’ye","latitude":58.01097,"longitude":49.10384},{"id":102398,"name":"Vostochnyy","latitude":58.78811,"longitude":52.24513},{"id":102420,"name":"Vyatskiye Polyany","latitude":56.22602,"longitude":51.06557},{"id":102491,"name":"Yaransk","latitude":57.30331,"longitude":47.88611},{"id":102492,"name":"Yaranskiy Rayon","latitude":57.16667,"longitude":48.0},{"id":102602,"name":"Yur’yanskiy Rayon","latitude":59.0,"longitude":49.25},{"id":102777,"name":"Zuyevka","latitude":58.40503,"longitude":51.13355}]