[{"id":19280,"name":"Anjiang","latitude":27.31944,"longitude":110.10306},{"id":19283,"name":"Anping","latitude":27.86639,"longitude":110.11611},{"id":19289,"name":"Anxiang","latitude":29.4,"longitude":112.15},{"id":19305,"name":"Baisha","latitude":26.52222,"longitude":110.93111},{"id":19345,"name":"Biyong","latitude":27.18722,"longitude":109.51},{"id":19346,"name":"Bojia","latitude":26.46722,"longitude":111.96806},{"id":19350,"name":"Boyang","latitude":26.21167,"longitude":109.52056},{"id":19352,"name":"Bozhou","latitude":27.37889,"longitude":109.27778},{"id":19364,"name":"Changde","latitude":29.04638,"longitude":111.6783},{"id":19374,"name":"Changsha","latitude":28.19874,"longitude":112.97087},{"id":19375,"name":"Changsha Shi","latitude":28.14582,"longitude":113.22967},{"id":19384,"name":"Chatian","latitude":27.80222,"longitude":109.37361},{"id":19398,"name":"Chenzhou","latitude":25.8,"longitude":113.03333},{"id":19413,"name":"Dabaozi","latitude":26.69556,"longitude":109.44778},{"id":19445,"name":"Dehang","latitude":28.3071,"longitude":109.79668},{"id":19449,"name":"Dengjiapu","latitude":26.90444,"longitude":110.92},{"id":19451,"name":"Dengyuantai","latitude":26.68806,"longitude":110.54222},{"id":19474,"name":"Dongshan Dongzuxiang","latitude":26.595,"longitude":109.89667},{"id":19506,"name":"Fenghuang","latitude":27.93557,"longitude":109.59961},{"id":19534,"name":"Gangdong","latitude":27.91694,"longitude":110.83417},{"id":19544,"name":"Gaoqiao","latitude":26.63361,"longitude":110.9},{"id":19547,"name":"Gaoyi","latitude":26.95944,"longitude":110.01556},{"id":19565,"name":"Guankou","latitude":28.15861,"longitude":113.62709},{"id":19613,"name":"Hengbanqiao","latitude":27.17167,"longitude":110.86528},{"id":19615,"name":"Hengyang","latitude":26.88946,"longitude":112.61888},{"id":19619,"name":"Hexiangqiao","latitude":27.22028,"longitude":110.96333},{"id":19626,"name":"Hongjiang","latitude":27.11,"longitude":109.99556},{"id":19627,"name":"Hongqiao","latitude":26.76837,"longitude":112.10814},{"id":19639,"name":"Huaihua","latitude":27.56337,"longitude":110.00404},{"id":19648,"name":"Huangjinjing","latitude":27.58563,"longitude":110.89133},{"id":19649,"name":"Huanglong","latitude":26.54139,"longitude":110.93444},{"id":19650,"name":"Huangmaoyuan","latitude":27.40417,"longitude":110.47472},{"id":19655,"name":"Huangqiao","latitude":27.02194,"longitude":110.84056},{"id":19660,"name":"Huangtukuang","latitude":26.91528,"longitude":110.40778},{"id":19661,"name":"Huangxikou","latitude":27.71889,"longitude":110.385},{"id":19665,"name":"Huaqiao","latitude":27.70806,"longitude":110.14194},{"id":19668,"name":"Huayuan","latitude":26.91361,"longitude":110.53583},{"id":19684,"name":"Huomachong","latitude":27.88333,"longitude":110.23},{"id":19696,"name":"Jiangfang","latitude":26.50158,"longitude":110.3464},{"id":19698,"name":"Jiangkouxu","latitude":27.69417,"longitude":109.73583},{"id":19700,"name":"Jiangshi","latitude":27.12333,"longitude":109.73778},{"id":19739,"name":"Jinhe","latitude":27.71694,"longitude":109.60472},{"id":19748,"name":"Jinshi","latitude":29.60487,"longitude":111.87012},{"id":19749,"name":"Jinshiqiao","latitude":27.58425,"longitude":110.93634},{"id":19799,"name":"Lanli","latitude":27.88694,"longitude":109.91861},{"id":19808,"name":"Leiyang","latitude":26.40238,"longitude":112.85908},{"id":19809,"name":"Lengshuijiang","latitude":27.68806,"longitude":111.42944},{"id":19810,"name":"Lengshuitan","latitude":26.4111,"longitude":111.59559},{"id":19818,"name":"Liangyaping","latitude":27.71833,"longitude":110.67083},{"id":19824,"name":"Lianyuan","latitude":27.68833,"longitude":111.66417},{"id":19846,"name":"Linkou","latitude":26.24806,"longitude":109.86361},{"id":19859,"name":"Liuduzhai","latitude":27.36611,"longitude":110.935},{"id":19864,"name":"Lixiqiao","latitude":26.79472,"longitude":110.41806},{"id":19873,"name":"Longtan","latitude":27.41139,"longitude":110.53639},{"id":19874,"name":"Longtou’an","latitude":27.67028,"longitude":110.33611},{"id":19876,"name":"Loudi","latitude":27.73444,"longitude":111.99444},{"id":19885,"name":"Luojiu","latitude":27.51583,"longitude":109.80889},{"id":19893,"name":"Luyang","latitude":27.62389,"longitude":110.09889},{"id":19909,"name":"Ma’an","latitude":26.9775,"longitude":110.72111},{"id":19902,"name":"Malin","latitude":26.455,"longitude":110.64167},{"id":19905,"name":"Maoping","latitude":26.51972,"longitude":110.41194},{"id":19944,"name":"Nanmuping","latitude":27.31111,"longitude":109.67861},{"id":19952,"name":"Nanzhou","latitude":29.35955,"longitude":112.40243},{"id":19989,"name":"Prefecture of Chenzhou","latitude":25.84347,"longitude":113.05378},{"id":19993,"name":"Pukou","latitude":26.52222,"longitude":109.55583},{"id":20002,"name":"Puzi","latitude":26.98639,"longitude":109.77639},{"id":20006,"name":"Qiancheng","latitude":27.18501,"longitude":109.76543},{"id":20010,"name":"Qianzhou","latitude":28.31925,"longitude":109.73346},{"id":20011,"name":"Qiaojiang","latitude":27.93722,"longitude":110.67639},{"id":20018,"name":"Qingjiangqiao","latitude":26.60444,"longitude":110.98528},{"id":20024,"name":"Qingxi","latitude":26.43114,"longitude":110.35489},{"id":20033,"name":"Qionghu","latitude":28.84061,"longitude":112.37399},{"id":20047,"name":"Ruoshui","latitude":27.00194,"longitude":109.96667},{"id":20065,"name":"Shangmei","latitude":27.74278,"longitude":111.29556},{"id":20073,"name":"Shanmen","latitude":27.225,"longitude":110.69278},{"id":20094,"name":"Shijiang","latitude":27.08194,"longitude":110.79333},{"id":20116,"name":"Shuangjiang","latitude":26.15467,"longitude":109.7138},{"id":20117,"name":"Shuangxi","latitude":27.22833,"longitude":109.85583},{"id":20122,"name":"Shuiche","latitude":27.68694,"longitude":110.99972},{"id":20123,"name":"Shuidatian","latitude":27.85222,"longitude":109.60472},{"id":20128,"name":"Simenqian","latitude":27.48722,"longitude":110.88611},{"id":20167,"name":"Tangjiafang","latitude":26.84,"longitude":110.36472},{"id":20175,"name":"Tanwan","latitude":27.96639,"longitude":110.15028},{"id":20196,"name":"Tongwan","latitude":27.58111,"longitude":110.27722},{"id":20199,"name":"Tuokou","latitude":27.12472,"longitude":109.62472},{"id":20210,"name":"Wantouqiao","latitude":26.84111,"longitude":110.61944},{"id":20225,"name":"Wenxing","latitude":28.68208,"longitude":112.87864},{"id":20235,"name":"Wulingyuan","latitude":29.34936,"longitude":110.54407},{"id":20238,"name":"Wuxi","latitude":26.5844,"longitude":111.859},{"id":20242,"name":"Wuyang","latitude":26.74278,"longitude":110.32833},{"id":20255,"name":"Xiangtan","latitude":27.85,"longitude":112.9},{"id":20256,"name":"Xiangxi Tujiazu Miaozu Zizhizhou","latitude":28.70573,"longitude":109.73329},{"id":20257,"name":"Xiangxiang","latitude":27.73333,"longitude":112.53333},{"id":20264,"name":"Xianrenwan","latitude":27.75444,"longitude":110.32972},{"id":20267,"name":"Xianxi","latitude":26.33472,"longitude":109.64306},{"id":20270,"name":"Xiaohenglong","latitude":27.605,"longitude":110.51694},{"id":20272,"name":"Xiaolongmen","latitude":27.80194,"longitude":110.16056},{"id":20273,"name":"Xiaoshajiang","latitude":27.52139,"longitude":110.74806},{"id":20322,"name":"Xishan","latitude":27.66667,"longitude":113.5},{"id":20326,"name":"Xixi","latitude":27.69375,"longitude":110.95333},{"id":20328,"name":"Xiyan","latitude":26.61639,"longitude":110.47361},{"id":20353,"name":"Yanmen","latitude":27.855,"longitude":109.74028},{"id":20360,"name":"Yaoshi","latitude":26.29306,"longitude":110.78917},{"id":20363,"name":"Yatunpu","latitude":26.155,"longitude":109.62667},{"id":20384,"name":"Yiyang","latitude":28.58917,"longitude":112.32833},{"id":20386,"name":"Yongfeng","latitude":27.42829,"longitude":112.18338},{"id":20388,"name":"Yongzhou","latitude":26.44014,"longitude":111.6029},{"id":20396,"name":"Yueyang","latitude":29.37455,"longitude":113.09481},{"id":20397,"name":"Yueyang Shi","latitude":29.32472,"longitude":113.302},{"id":20408,"name":"Yutan","latitude":28.25831,"longitude":112.56048},{"id":20418,"name":"Zhaishi Miaozu Dongzuxiang","latitude":26.50083,"longitude":110.04444},{"id":20421,"name":"Zhangjiajie","latitude":29.12944,"longitude":110.47833},{"id":20449,"name":"Zhongfang","latitude":27.41139,"longitude":109.93194},{"id":20457,"name":"Zhongzhai","latitude":27.19528,"longitude":109.26861},{"id":20474,"name":"Zhushi","latitude":27.08778,"longitude":110.67694},{"id":20475,"name":"Zhuzhou","latitude":27.83333,"longitude":113.15},{"id":20476,"name":"Zhuzhou Shi","latitude":27.8245,"longitude":113.08228},{"id":20477,"name":"Zhuzhoujiang Miaozuxiang","latitude":26.67528,"longitude":110.07194}]