[{"id":102810,"name":"Adh Dhibiyah","latitude":26.027,"longitude":43.157},{"id":102817,"name":"Al Bukayrīyah","latitude":26.13915,"longitude":43.65782},{"id":102818,"name":"Al Fuwayliq","latitude":26.4436,"longitude":43.25164},{"id":102830,"name":"Al Mithnab","latitude":25.86012,"longitude":44.22228},{"id":148575,"name":"Al Thybiyah","latitude":26.027,"longitude":43.157},{"id":102841,"name":"Ar Rass","latitude":25.86944,"longitude":43.4973},{"id":148577,"name":"Buraidah","latitude":26.33333333,"longitude":43.96666667},{"id":102850,"name":"Buraydah","latitude":26.32599,"longitude":43.97497},{"id":148578,"name":"Dukhnah","latitude":25.35621,"longitude":43.62268},{"id":148580,"name":"Qiba","latitude":27.40285,"longitude":44.3277},{"id":102883,"name":"Tanūmah","latitude":27.1,"longitude":44.13333},{"id":102891,"name":"Wed Alnkil","latitude":25.4267,"longitude":42.8343}]