[{"id":1856,"name":"Donaustadt","latitude":48.2333,"longitude":16.46002},{"id":1963,"name":"Favoriten","latitude":48.16116,"longitude":16.38233},{"id":2002,"name":"Floridsdorf","latitude":48.25,"longitude":16.4},{"id":2272,"name":"Hernals","latitude":48.23333,"longitude":16.26667},{"id":2280,"name":"Hietzing","latitude":48.18623,"longitude":16.2965},{"id":2356,"name":"Innere Stadt","latitude":48.20906,"longitude":16.37135},{"id":2686,"name":"Meidling","latitude":48.16667,"longitude":16.33333},{"id":2909,"name":"Ottakring","latitude":48.21667,"longitude":16.3},{"id":3461,"name":"Simmering","latitude":48.18333,"longitude":16.43333},{"id":3681,"name":"Vienna","latitude":48.20849,"longitude":16.37208}]