[{"id":150710,"name":"Abgarm","latitude":35.7568728,"longitude":49.2773509},{"id":150708,"name":"Abyek","latitude":36.0471165,"longitude":50.5181835},{"id":134563,"name":"Alborz","latitude":36.18861,"longitude":50.07829},{"id":134565,"name":"Alvand","latitude":36.1893,"longitude":50.0643},{"id":150714,"name":"Ardagh","latitude":36.0514488,"longitude":49.8149943},{"id":134572,"name":"Avaj","latitude":35.57685,"longitude":49.22241},{"id":150711,"name":"Bidestan","latitude":36.2308422,"longitude":50.112183},{"id":134831,"name":"Buin Zahra","latitude":35.61667,"longitude":49.7},{"id":150715,"name":"Danesfahan","latitude":35.8157228,"longitude":49.724416},{"id":150722,"name":"Eqbaliyeh","latitude":36.2281747,"longitude":49.9067364},{"id":150718,"name":"Esfarvarin","latitude":35.9368405,"longitude":49.7401714},{"id":150709,"name":"Khakali","latitude":36.1299889,"longitude":50.1670825},{"id":150719,"name":"Khorramdasht","latitude":35.9280232,"longitude":49.5033646},{"id":150725,"name":"Kouhin","latitude":36.3722383,"longitude":49.6494161},{"id":150726,"name":"Mahmood Abad nemooneh","latitude":36.2923071,"longitude":49.8897931},{"id":150727,"name":"Moallem Kelayeh","latitude":36.448096,"longitude":50.467801},{"id":150713,"name":"Mohammadiyeh ","latitude":36.2225503,"longitude":50.1757406},{"id":150721,"name":"Narjeh","latitude":35.9959407,"longitude":49.6105455},{"id":134740,"name":"Qazvin","latitude":36.26877,"longitude":50.0041},{"id":150723,"name":"Razmian","latitude":36.5420269,"longitude":50.1983892},{"id":150716,"name":"Sagz Abad","latitude":35.7661254,"longitude":49.9188279},{"id":150717,"name":"Shal","latitude":35.8953665,"longitude":49.7510289},{"id":150712,"name":"Sharif Abad","latitude":36.2149943,"longitude":50.1427388},{"id":150724,"name":"Sirdan","latitude":36.6473235,"longitude":49.1887735},{"id":135134,"name":"Takestan","latitude":36.07057,"longitude":49.69571},{"id":150720,"name":"Ziaabad","latitude":35.993333,"longitude":49.447778}]