[{"id":105179,"name":"Amnat Charoen","latitude":15.85851,"longitude":104.62883},{"id":105286,"name":"Amphoe Chanuman","latitude":16.12553,"longitude":104.92279},{"id":105351,"name":"Amphoe Hua Taphan","latitude":15.67594,"longitude":104.52702},{"id":105495,"name":"Amphoe Lue Amnat","latitude":15.70781,"longitude":104.71118},{"id":105531,"name":"Amphoe Mueang Amnat Charoen","latitude":15.87864,"longitude":104.64284},{"id":105715,"name":"Amphoe Pathum Ratchawongsa","latitude":15.89542,"longitude":104.89611},{"id":105722,"name":"Amphoe Phana","latitude":15.66895,"longitude":104.85675},{"id":106208,"name":"Amphoe Senangkhanikhom","latitude":16.0513,"longitude":104.68441}]