[{"id":54469,"name":"Drnje","latitude":46.20694,"longitude":16.91694},{"id":55024,"name":"Đelekovec","latitude":46.24989,"longitude":16.87011},{"id":55027,"name":"Đurđevac","latitude":46.03972,"longitude":17.07168},{"id":54481,"name":"Ferdinandovac","latitude":46.05,"longitude":17.2},{"id":54492,"name":"Gola","latitude":46.19583,"longitude":17.05806},{"id":54496,"name":"Gornja Rijeka","latitude":46.10977,"longitude":16.39079},{"id":54524,"name":"Grad Koprivnica","latitude":46.16667,"longitude":16.83333},{"id":54527,"name":"Grad Križevci","latitude":46.03333,"longitude":16.56667},{"id":54594,"name":"Hlebine","latitude":46.15694,"longitude":16.96278},{"id":54626,"name":"Kalinovac","latitude":46.02944,"longitude":17.11556},{"id":54659,"name":"Koprivnica","latitude":46.16278,"longitude":16.8275},{"id":54660,"name":"Koprivnički Ivanec","latitude":46.19907,"longitude":16.81629},{"id":54670,"name":"Križevci","latitude":46.02194,"longitude":16.5425},{"id":54685,"name":"Legrad","latitude":46.2975,"longitude":16.85667},{"id":54738,"name":"Molve","latitude":46.10917,"longitude":17.03167},{"id":54765,"name":"Novo Virje","latitude":46.09834,"longitude":17.15215},{"id":54803,"name":"Peteranec","latitude":46.19222,"longitude":16.89167},{"id":54854,"name":"Rasinja","latitude":46.18389,"longitude":16.70667},{"id":54857,"name":"Reka","latitude":46.13028,"longitude":16.76694},{"id":54888,"name":"Sigetec","latitude":46.18833,"longitude":16.93583},{"id":54972,"name":"Virje","latitude":46.06722,"longitude":16.99}]