[{"id":77159,"name":"Boaco","latitude":12.47224,"longitude":-85.6586},{"id":77163,"name":"Camoapa","latitude":12.38383,"longitude":-85.51277},{"id":77260,"name":"San José de los Remates","latitude":12.5975,"longitude":-85.76174},{"id":77265,"name":"San Lorenzo","latitude":12.3783,"longitude":-85.66646},{"id":77273,"name":"Santa Lucía","latitude":12.53262,"longitude":-85.71074},{"id":77285,"name":"Teustepe","latitude":12.4203,"longitude":-85.79798}]