[{"id":67953,"name":"Chitipa","latitude":-9.70237,"longitude":33.26969},{"id":67954,"name":"Chitipa District","latitude":-9.92727,"longitude":33.42541},{"id":67959,"name":"Karonga","latitude":-9.93333,"longitude":33.93333},{"id":67960,"name":"Karonga District","latitude":-10.11153,"longitude":33.88151},{"id":67963,"name":"Likoma District","latitude":-12.06065,"longitude":34.73608},{"id":67966,"name":"Livingstonia","latitude":-10.60602,"longitude":34.10628},{"id":67981,"name":"Mzimba","latitude":-11.9,"longitude":33.6},{"id":67982,"name":"Mzimba District","latitude":-11.85428,"longitude":33.60778},{"id":67983,"name":"Mzuzu","latitude":-11.46556,"longitude":34.02071},{"id":67985,"name":"Nkhata Bay","latitude":-11.60659,"longitude":34.29073},{"id":67986,"name":"Nkhata Bay District","latitude":-11.65304,"longitude":34.05322},{"id":67997,"name":"Rumphi","latitude":-11.01863,"longitude":33.85746},{"id":67998,"name":"Rumphi District","latitude":-10.80292,"longitude":33.80524}]