[{"id":56361,"name":"Kabupaten Bintan","latitude":0.95,"longitude":104.61944},{"id":56441,"name":"Kabupaten Karimun","latitude":0.80764,"longitude":103.41911},{"id":56450,"name":"Kabupaten Kepulauan Anambas","latitude":3.0,"longitude":106.0},{"id":56495,"name":"Kabupaten Lingga","latitude":0.2,"longitude":104.61667},{"id":56554,"name":"Kabupaten Natuna","latitude":4.71417,"longitude":107.97639},{"id":56716,"name":"Kijang","latitude":0.9,"longitude":104.63333},{"id":56735,"name":"Kota Batam","latitude":1.05211,"longitude":104.02851},{"id":56808,"name":"Kota Tanjung Pinang","latitude":0.91683,"longitude":104.44329},{"id":57018,"name":"Tanjung Pinang","latitude":0.91667,"longitude":104.45833}]