[{"id":8458,"name":"Baniachang","latitude":24.51863,"longitude":91.35787},{"id":8479,"name":"Chhātak","latitude":25.03852,"longitude":91.66958},{"id":8498,"name":"Habiganj","latitude":24.43333,"longitude":91.41667},{"id":8501,"name":"Jahedpur","latitude":24.83333,"longitude":91.65},{"id":8533,"name":"Maulavi Bāzār","latitude":24.48888,"longitude":91.77075},{"id":8534,"name":"Maulvibazar","latitude":24.5,"longitude":91.83333},{"id":8595,"name":"Sunamganj","latitude":24.86667,"longitude":91.41667},{"id":8596,"name":"Sylhet","latitude":24.91667,"longitude":91.76667}]