[{"id":53835,"name":"Agalteca","latitude":14.45,"longitude":-87.26667},{"id":53848,"name":"Alubarén","latitude":13.78226,"longitude":-87.4699},{"id":53892,"name":"Cedros","latitude":14.50464,"longitude":-87.2168},{"id":53895,"name":"Cerro Grande","latitude":13.81667,"longitude":-87.25},{"id":53905,"name":"Cofradía","latitude":14.21667,"longitude":-87.18333},{"id":53928,"name":"Curarén","latitude":13.83,"longitude":-87.57},{"id":53933,"name":"Distrito Central","latitude":14.14975,"longitude":-87.24806},{"id":53945,"name":"El Chimbo","latitude":14.13333,"longitude":-87.11667},{"id":53951,"name":"El Escanito","latitude":14.66667,"longitude":-87.1},{"id":53952,"name":"El Escaño de Tepale","latitude":14.75,"longitude":-87.06667},{"id":53953,"name":"El Guante","latitude":14.55,"longitude":-87.1},{"id":53954,"name":"El Guantillo","latitude":14.6,"longitude":-87.3},{"id":53955,"name":"El Guapinol","latitude":13.76667,"longitude":-87.46667},{"id":53959,"name":"El Lolo","latitude":14.11667,"longitude":-87.26667},{"id":53972,"name":"El Pedernal","latitude":14.7,"longitude":-87.11667},{"id":53979,"name":"El Porvenir","latitude":14.72009,"longitude":-87.21039},{"id":53990,"name":"El Suyatal","latitude":14.51667,"longitude":-87.21667},{"id":53991,"name":"El Tablón","latitude":14.03333,"longitude":-87.16667},{"id":53992,"name":"El Terrero","latitude":14.06667,"longitude":-87.06667},{"id":54012,"name":"Guaimaca","latitude":14.53333,"longitude":-86.81667},{"id":54053,"name":"La Ermita","latitude":14.46667,"longitude":-87.06667},{"id":54069,"name":"La Libertad","latitude":13.70662,"longitude":-87.50421},{"id":54084,"name":"La Venta","latitude":13.73113,"longitude":-87.32874},{"id":54102,"name":"Lepaterique","latitude":14.0559,"longitude":-87.47908},{"id":54118,"name":"Maraita","latitude":13.87197,"longitude":-87.05633},{"id":54119,"name":"Marale","latitude":14.94113,"longitude":-87.09892},{"id":54123,"name":"Mata de Plátano","latitude":14.6,"longitude":-87.28333},{"id":54124,"name":"Mateo","latitude":14.08333,"longitude":-87.31667},{"id":54146,"name":"Nueva Armenia","latitude":13.75,"longitude":-87.15307},{"id":54155,"name":"Ojojona","latitude":13.93389,"longitude":-87.29583},{"id":54161,"name":"Orica","latitude":14.80645,"longitude":-86.9576},{"id":54193,"name":"Quebradas","latitude":14.5,"longitude":-87.35},{"id":54196,"name":"Reitoca","latitude":13.82583,"longitude":-87.46528},{"id":54198,"name":"Río Abajo","latitude":14.16667,"longitude":-87.21667},{"id":54204,"name":"Sabanagrande","latitude":13.80778,"longitude":-87.25917},{"id":54218,"name":"San Antonio de Oriente","latitude":14.03859,"longitude":-86.98951},{"id":54222,"name":"San Buenaventura","latitude":13.891,"longitude":-87.18554},{"id":54236,"name":"San Ignacio","latitude":14.73795,"longitude":-87.04759},{"id":54260,"name":"San Juan de Flores","latitude":14.26667,"longitude":-87.03333},{"id":54276,"name":"San Miguelito","latitude":13.74572,"longitude":-87.49233},{"id":54291,"name":"Santa Ana","latitude":13.94,"longitude":-87.21},{"id":54305,"name":"Santa Lucía","latitude":14.12595,"longitude":-87.09175},{"id":54325,"name":"Talanga","latitude":14.41393,"longitude":-87.06941},{"id":54350,"name":"Támara","latitude":14.15,"longitude":-87.33333},{"id":54329,"name":"Tatumbla","latitude":13.98467,"longitude":-87.06977},{"id":54333,"name":"Tegucigalpa","latitude":14.0818,"longitude":-87.20681},{"id":54354,"name":"Valle de Ángeles","latitude":14.15,"longitude":-87.03333},{"id":54356,"name":"Vallecillo","latitude":14.51313,"longitude":-87.40242},{"id":54361,"name":"Villa de San Francisco","latitude":14.16667,"longitude":-86.96667},{"id":54359,"name":"Villa Nueva","latitude":14.03333,"longitude":-87.13333},{"id":54367,"name":"Yaguacire","latitude":14.01667,"longitude":-87.21667},{"id":54377,"name":"Zambrano","latitude":14.26667,"longitude":-87.4}]