[{"id":104378,"name":"Bytča","latitude":49.22404,"longitude":18.55878},{"id":104587,"name":"Čadca","latitude":49.43503,"longitude":18.78895},{"id":104383,"name":"Dolný Kubín","latitude":49.20983,"longitude":19.30341},{"id":104401,"name":"Hybe","latitude":49.04439,"longitude":19.82895},{"id":104414,"name":"Krasňany","latitude":49.21491,"longitude":18.88718},{"id":104418,"name":"Kysucké Nové Mesto","latitude":49.3,"longitude":18.78333},{"id":104424,"name":"Liptovský Hrádok","latitude":49.03962,"longitude":19.72335},{"id":104425,"name":"Liptovský Mikuláš","latitude":49.08061,"longitude":19.62218},{"id":104427,"name":"Lúčky","latitude":49.12944,"longitude":19.40228},{"id":104430,"name":"Martin","latitude":49.06651,"longitude":18.92399},{"id":104446,"name":"Námestovo","latitude":49.4079,"longitude":19.48032},{"id":104439,"name":"Nižná","latitude":49.31046,"longitude":19.52428},{"id":104456,"name":"Okres Bytča","latitude":49.22267,"longitude":18.55844},{"id":104516,"name":"Okres Čadca","latitude":49.43333,"longitude":18.78333},{"id":104459,"name":"Okres Dolný Kubín","latitude":49.2,"longitude":19.3},{"id":104470,"name":"Okres Kysucké Nové Mesto","latitude":49.30206,"longitude":18.78603},{"id":104473,"name":"Okres Liptovský Mikuláš","latitude":49.08333,"longitude":19.61667},{"id":104476,"name":"Okres Martin","latitude":49.06667,"longitude":18.93333},{"id":104480,"name":"Okres Namestovo","latitude":49.40651,"longitude":19.4767},{"id":104495,"name":"Okres Ružomberok","latitude":49.07494,"longitude":19.30083},{"id":104510,"name":"Okres Turčianske Teplice","latitude":48.86283,"longitude":18.85759},{"id":104511,"name":"Okres Tvrdošín","latitude":49.33421,"longitude":19.55461},{"id":104520,"name":"Okres Žilina","latitude":49.22303,"longitude":18.74044},{"id":104521,"name":"Oravská Lesná","latitude":49.36672,"longitude":19.18093},{"id":104522,"name":"Oravský Podzámok","latitude":49.25939,"longitude":19.3569},{"id":104531,"name":"Pribylina","latitude":49.0995,"longitude":19.79427},{"id":104534,"name":"Rajec","latitude":49.08899,"longitude":18.64007},{"id":104538,"name":"Ružomberok","latitude":49.0748,"longitude":19.30751},{"id":104561,"name":"Terchová","latitude":49.25895,"longitude":19.02935},{"id":104569,"name":"Trstená","latitude":49.36101,"longitude":19.61249},{"id":104571,"name":"Turčianske Teplice","latitude":48.86225,"longitude":18.86048},{"id":104570,"name":"Turzovka","latitude":49.40429,"longitude":18.62258},{"id":104572,"name":"Tvrdošín","latitude":49.337,"longitude":19.556},{"id":104581,"name":"Vrútky","latitude":49.11328,"longitude":18.91714},{"id":104602,"name":"Žilina","latitude":49.22315,"longitude":18.73941}]