[{"id":55050,"name":"Aquin","latitude":18.27974,"longitude":-73.39433},{"id":55060,"name":"Arrondissement de Port-Salut","latitude":18.13333,"longitude":-73.9},{"id":55066,"name":"Arrondissement des Cayes","latitude":18.3,"longitude":-73.83333},{"id":55080,"name":"Cavaillon","latitude":18.29987,"longitude":-73.65455},{"id":55084,"name":"Chantal","latitude":18.20169,"longitude":-73.88957},{"id":55085,"name":"Chardonnière","latitude":18.27484,"longitude":-74.16613},{"id":55099,"name":"Fond des Blancs","latitude":18.27782,"longitude":-73.12733},{"id":55115,"name":"Koto","latitude":18.20601,"longitude":-74.04013},{"id":55120,"name":"Les Anglais","latitude":18.3054,"longitude":-74.21968},{"id":55121,"name":"Les Cayes","latitude":18.19331,"longitude":-73.74601},{"id":55148,"name":"Port-à-Piment","latitude":18.24963,"longitude":-74.0971},{"id":55152,"name":"Roche-à-Bateau","latitude":18.18182,"longitude":-74.00345},{"id":55154,"name":"Saint-Louis du Sud","latitude":18.26241,"longitude":-73.54603},{"id":55162,"name":"Tiburon","latitude":18.32589,"longitude":-74.39598},{"id":55164,"name":"Torbeck","latitude":18.16338,"longitude":-73.80949}]