[{"id":129902,"name":"Beruniy","latitude":41.69111,"longitude":60.7525},{"id":129944,"name":"Kegeyli Shahar","latitude":42.77667,"longitude":59.60778},{"id":129947,"name":"Khŭjayli","latitude":42.40043,"longitude":59.46005},{"id":129954,"name":"Manghit","latitude":42.11556,"longitude":60.05972},{"id":129959,"name":"Mŭynoq","latitude":43.76833,"longitude":59.02139},{"id":129963,"name":"Novyy Turtkul’","latitude":41.55,"longitude":61.01667},{"id":129964,"name":"Nukus","latitude":42.45306,"longitude":59.61028},{"id":129970,"name":"Oltinko‘l","latitude":43.06874,"longitude":58.90372}]