[{"id":52599,"name":"Farkadóna","latitude":39.6,"longitude":22.06667},{"id":52617,"name":"Fíki","latitude":39.51602,"longitude":21.65556},{"id":52655,"name":"Gómfoi","latitude":39.46413,"longitude":21.69342},{"id":52647,"name":"Grizáno","latitude":39.63192,"longitude":22.05258},{"id":52678,"name":"Kalampáka","latitude":39.70444,"longitude":21.62694},{"id":52725,"name":"Kastráki","latitude":39.71692,"longitude":21.61865},{"id":52913,"name":"Megála Kalývia","latitude":39.49693,"longitude":21.78802},{"id":52910,"name":"Megalochóri","latitude":39.55982,"longitude":21.84195},{"id":53056,"name":"Oichalía","latitude":39.60827,"longitude":21.97996},{"id":53074,"name":"Palaiomonástiro","latitude":39.46269,"longitude":21.65793},{"id":53080,"name":"Palaiópyrgos","latitude":39.60845,"longitude":21.8172},{"id":53121,"name":"Pigí","latitude":39.51061,"longitude":21.70103},{"id":53182,"name":"Pýli","latitude":39.45806,"longitude":21.61889},{"id":53160,"name":"Pyrgetós","latitude":39.55276,"longitude":21.74846},{"id":53202,"name":"Rízoma","latitude":39.66432,"longitude":21.73541},{"id":53274,"name":"Taxiárches","latitude":39.57565,"longitude":21.89245},{"id":53291,"name":"Tríkala","latitude":39.55493,"longitude":21.76837},{"id":53313,"name":"Vasilikí","latitude":39.63984,"longitude":21.70448},{"id":53366,"name":"Zárkos","latitude":39.6086,"longitude":22.12336}]