[{"id":31044,"name":"Cayetano Germosén","latitude":19.34285,"longitude":-70.47573},{"id":31075,"name":"Gaspar Hernández","latitude":19.62748,"longitude":-70.27772},{"id":31089,"name":"Jamao al Norte","latitude":19.63552,"longitude":-70.44664},{"id":31095,"name":"Joba Arriba","latitude":19.56667,"longitude":-70.26667},{"id":31097,"name":"Juan López Abajo","latitude":19.43333,"longitude":-70.5},{"id":31132,"name":"Moca","latitude":19.5,"longitude":-70.5},{"id":31193,"name":"San Víctor Arriba","latitude":19.47741,"longitude":-70.53585},{"id":31209,"name":"Veragua Arriba","latitude":19.58333,"longitude":-70.33333}]