[{"id":66000,"name":"Belle Vue","latitude":13.8051,"longitude":-61.03615},{"id":66023,"name":"Bois Dinde","latitude":13.80463,"longitude":-61.04952},{"id":66036,"name":"Caffiere","latitude":13.78409,"longitude":-61.03554},{"id":66061,"name":"Cedars/Chu Tigre","latitude":13.76995,"longitude":-61.04716},{"id":66069,"name":"Choiseul","latitude":13.77273,"longitude":-61.04931},{"id":66071,"name":"Christian Hill","latitude":13.77354,"longitude":-61.04694},{"id":66090,"name":"Dacretin","latitude":13.79617,"longitude":-61.03574},{"id":66094,"name":"Debreuil","latitude":13.79033,"longitude":-61.02585},{"id":66097,"name":"Delcer","latitude":13.80121,"longitude":-61.05892},{"id":66113,"name":"Derriere Morne","latitude":13.80916,"longitude":-61.05101},{"id":66125,"name":"Dugard","latitude":13.80386,"longitude":-61.02831},{"id":66127,"name":"Dupre","latitude":13.79435,"longitude":-61.02947},{"id":66136,"name":"Esperance","latitude":13.80775,"longitude":-61.05331},{"id":66155,"name":"Franciou","latitude":13.804,"longitude":-61.05448},{"id":66197,"name":"Industry","latitude":13.79127,"longitude":-61.05992},{"id":66213,"name":"La Fargue","latitude":13.77197,"longitude":-61.04124},{"id":66223,"name":"La Pointe","latitude":13.79443,"longitude":-61.06497},{"id":66234,"name":"Lamaze","latitude":13.80649,"longitude":-61.01906},{"id":66236,"name":"Le Riche","latitude":13.78365,"longitude":-61.04815},{"id":66246,"name":"Mailly Motete","latitude":13.81788,"longitude":-61.02772},{"id":66259,"name":"Martin","latitude":13.78941,"longitude":-61.04542},{"id":66286,"name":"Mongouge","latitude":13.80301,"longitude":-61.04524},{"id":66289,"name":"Monzie","latitude":13.80669,"longitude":-61.02297},{"id":66299,"name":"Morne Jacques","latitude":13.81162,"longitude":-61.03165},{"id":66306,"name":"Morne Sion","latitude":13.79246,"longitude":-61.05467},{"id":66309,"name":"Motete","latitude":13.81325,"longitude":-61.0232},{"id":66314,"name":"New Field/Fiette","latitude":13.78815,"longitude":-61.05216},{"id":66340,"name":"Ponyon","latitude":13.79639,"longitude":-61.0436},{"id":66345,"name":"Raveneau","latitude":13.81018,"longitude":-61.04642},{"id":66354,"name":"Reunion","latitude":13.77861,"longitude":-61.04531},{"id":66358,"name":"River Doree","latitude":13.76769,"longitude":-61.03646},{"id":66360,"name":"Roblot","latitude":13.80323,"longitude":-61.02297},{"id":66374,"name":"Sauzay","latitude":13.77743,"longitude":-61.03368},{"id":66376,"name":"Savannesgeorge/Constitution","latitude":13.77855,"longitude":-61.05139},{"id":66418,"name":"Victoria","latitude":13.81116,"longitude":-61.03963},{"id":66424,"name":"Village","latitude":13.77464,"longitude":-61.0502}]