[{"id":9163,"name":"Bogandé","latitude":12.9704,"longitude":-0.14953},{"id":9168,"name":"Diapaga","latitude":12.07305,"longitude":1.78838},{"id":9173,"name":"Fada N'gourma","latitude":12.06157,"longitude":0.35843},{"id":9175,"name":"Gayéri","latitude":12.64824,"longitude":0.49314},{"id":9176,"name":"Gnagna Province","latitude":12.9188,"longitude":0.0392},{"id":9197,"name":"Pama","latitude":11.24972,"longitude":0.7075},{"id":9201,"name":"Province de la Komandjoari","latitude":12.66667,"longitude":0.66667},{"id":9202,"name":"Province de la Kompienga","latitude":11.41667,"longitude":0.91667},{"id":9206,"name":"Province de la Tapoa","latitude":12.0,"longitude":1.75},{"id":9214,"name":"Province du Gourma","latitude":12.08333,"longitude":0.5}]