[{"id":107154,"name":"Alucra İlçesi","latitude":40.31924,"longitude":38.76528},{"id":107404,"name":"Bulancak","latitude":40.93805,"longitude":38.23148},{"id":108772,"name":"Çamoluk İlçesi","latitude":40.13418,"longitude":38.73389},{"id":108776,"name":"Çanakçı","latitude":40.86,"longitude":39.05},{"id":107475,"name":"Dereli","latitude":40.613,"longitude":38.39},{"id":107516,"name":"Doğankent","latitude":40.8075,"longitude":38.91722},{"id":107609,"name":"Espiye","latitude":40.94705,"longitude":38.70299},{"id":107619,"name":"Eynesil","latitude":41.06436,"longitude":39.14274},{"id":107675,"name":"Giresun","latitude":40.91698,"longitude":38.38741},{"id":107713,"name":"Görele","latitude":41.03083,"longitude":39.00306},{"id":107724,"name":"Güce İlçesi","latitude":40.89368,"longitude":38.80855},{"id":107994,"name":"Keşap","latitude":40.91387,"longitude":38.51442},{"id":108184,"name":"Merkez","latitude":40.8266,"longitude":38.36085},{"id":108343,"name":"Piraziz","latitude":40.92244,"longitude":38.12458},{"id":108942,"name":"Şebin Karahisar","latitude":40.28833,"longitude":38.42361},{"id":108579,"name":"Tirebolu","latitude":41.00633,"longitude":38.8498},{"id":108687,"name":"Yağlıdere İlçesi","latitude":40.85711,"longitude":38.63242}]