[{"id":10058,"name":"Abaiara","latitude":-7.33642,"longitude":-39.06129},{"id":10070,"name":"Acarape","latitude":-4.20565,"longitude":-38.6916},{"id":10071,"name":"Acaraú","latitude":-2.95424,"longitude":-40.08597},{"id":10076,"name":"Acopiara","latitude":-6.11312,"longitude":-39.51756},{"id":10104,"name":"Aiuaba","latitude":-6.58896,"longitude":-40.23948},{"id":10120,"name":"Alcântaras","latitude":-3.58733,"longitude":-40.55517},{"id":10156,"name":"Altaneira","latitude":-6.98737,"longitude":-39.7274},{"id":10183,"name":"Alto Santo","latitude":-5.5241,"longitude":-38.20916},{"id":10216,"name":"Amontada","latitude":-3.27941,"longitude":-39.80582},{"id":10270,"name":"Antonina do Norte","latitude":-6.73622,"longitude":-39.97882},{"id":10302,"name":"Apuiarés","latitude":-3.95004,"longitude":-39.30373},{"id":10306,"name":"Aquiraz","latitude":-3.90157,"longitude":-38.39127},{"id":10309,"name":"Aracati","latitude":-4.56513,"longitude":-37.76688},{"id":10313,"name":"Aracoiaba","latitude":-4.49045,"longitude":-38.67765},{"id":10351,"name":"Ararendá","latitude":-4.77058,"longitude":-40.75389},{"id":10354,"name":"Araripe","latitude":-7.20462,"longitude":-40.11426},{"id":10361,"name":"Aratuba","latitude":-4.41898,"longitude":-39.04818},{"id":10403,"name":"Arneiroz","latitude":-6.23607,"longitude":-40.094},{"id":10425,"name":"Assaré","latitude":-6.89746,"longitude":-39.82906},{"id":10450,"name":"Aurora","latitude":-7.00011,"longitude":-38.97042},{"id":10478,"name":"Baixio","latitude":-6.70726,"longitude":-38.75748},{"id":10494,"name":"Banabuiú","latitude":-5.23555,"longitude":-38.87457},{"id":10508,"name":"Barbalha","latitude":-7.43604,"longitude":-39.35273},{"id":10550,"name":"Barreira","latitude":-4.37049,"longitude":-38.61021},{"id":10559,"name":"Barro","latitude":-7.13537,"longitude":-38.73373},{"id":10566,"name":"Barroquinha","latitude":-3.01889,"longitude":-41.13611},{"id":10585,"name":"Baturité","latitude":-4.37308,"longitude":-38.85915},{"id":10591,"name":"Beberibe","latitude":-4.17972,"longitude":-38.13056},{"id":10593,"name":"Bela Cruz","latitude":-3.05056,"longitude":-40.16778},{"id":10666,"name":"Boa Viagem","latitude":-5.02536,"longitude":-39.84169},{"id":10792,"name":"Brejo Santo","latitude":-7.62229,"longitude":-38.88195},{"id":10953,"name":"Camocim","latitude":-2.90222,"longitude":-40.84111},{"id":11015,"name":"Campos Sales","latitude":-6.92527,"longitude":-40.22188},{"id":11046,"name":"Canindé","latitude":-4.40473,"longitude":-39.41746},{"id":11079,"name":"Capistrano","latitude":-4.4623,"longitude":-38.92072},{"id":11129,"name":"Caridade","latitude":-4.201,"longitude":-39.14149},{"id":11135,"name":"Cariré","latitude":-3.93586,"longitude":-40.54679},{"id":11134,"name":"Caririaçu","latitude":-7.0417,"longitude":-39.25423},{"id":11136,"name":"Cariús","latitude":-6.65619,"longitude":-39.47496},{"id":11155,"name":"Carnaubal","latitude":-4.12097,"longitude":-41.01368},{"id":11177,"name":"Cascavel","latitude":-4.27004,"longitude":-38.27377},{"id":11198,"name":"Catarina","latitude":-6.25016,"longitude":-39.9487},{"id":11208,"name":"Catunda","latitude":-4.60469,"longitude":-40.1863},{"id":11214,"name":"Caucaia","latitude":-3.73611,"longitude":-38.65306},{"id":11230,"name":"Cedro","latitude":-6.59104,"longitude":-39.12042},{"id":11273,"name":"Chaval","latitude":-3.07497,"longitude":-41.23723},{"id":11281,"name":"Choró","latitude":-4.77277,"longitude":-39.17779},{"id":11279,"name":"Chorozinho","latitude":-4.29181,"longitude":-38.48895},{"id":11405,"name":"Coreaú","latitude":-3.68827,"longitude":-40.72725},{"id":11460,"name":"Crateús","latitude":-5.25084,"longitude":-40.74335},{"id":11461,"name":"Crato","latitude":-7.14714,"longitude":-39.47132},{"id":11485,"name":"Croatá","latitude":-4.39092,"longitude":-40.86795},{"id":11488,"name":"Cruz","latitude":-2.89619,"longitude":-40.33573},{"id":11574,"name":"Deputado Irapuan Pinheiro","latitude":-5.88737,"longitude":-39.25923},{"id":11717,"name":"Ererê","latitude":-5.99731,"longitude":-38.3118},{"id":11764,"name":"Eusébio","latitude":-3.8695,"longitude":-38.45545},{"id":11775,"name":"Farias Brito","latitude":-6.88662,"longitude":-39.53406},{"id":11861,"name":"Forquilha","latitude":-3.83354,"longitude":-40.23431},{"id":11863,"name":"Fortaleza","latitude":-3.71722,"longitude":-38.54306},{"id":11868,"name":"Fortim","latitude":-4.44714,"longitude":-37.85289},{"id":11888,"name":"Frecheirinha","latitude":-3.72816,"longitude":-40.82027},{"id":11939,"name":"General Sampaio","latitude":-4.05016,"longitude":-39.44451},{"id":12003,"name":"Graça","latitude":-4.06621,"longitude":-40.79501},{"id":11998,"name":"Granja","latitude":-3.12028,"longitude":-40.82611},{"id":11999,"name":"Granjeiro","latitude":-6.91745,"longitude":-39.27944},{"id":12005,"name":"Groaíras","latitude":-3.92113,"longitude":-40.37696},{"id":12017,"name":"Guaiúba","latitude":-4.03972,"longitude":-38.63722},{"id":12039,"name":"Guaraciaba do Norte","latitude":-4.16694,"longitude":-40.7475},{"id":12041,"name":"Guaramiranga","latitude":-4.22177,"longitude":-38.96451},{"id":12101,"name":"Hidrolândia","latitude":-4.40806,"longitude":-40.43778},{"id":12105,"name":"Horizonte","latitude":-4.11458,"longitude":-38.51498},{"id":12122,"name":"Ibaretama","latitude":-4.75045,"longitude":-38.66571},{"id":12129,"name":"Ibiapina","latitude":-3.93574,"longitude":-40.92758},{"id":12137,"name":"Ibicuitinga","latitude":-4.96187,"longitude":-38.52019},{"id":12167,"name":"Icapuí","latitude":-4.72337,"longitude":-37.41335},{"id":12174,"name":"Icó","latitude":-6.35186,"longitude":-38.75674},{"id":12201,"name":"Iguatu","latitude":-6.3555,"longitude":-39.27683},{"id":12234,"name":"Independência","latitude":-5.47187,"longitude":-40.32314},{"id":12263,"name":"Ipaporanga","latitude":-4.84741,"longitude":-40.81027},{"id":12265,"name":"Ipaumirim","latitude":-6.80882,"longitude":-38.73227},{"id":12288,"name":"Ipu","latitude":-4.34934,"longitude":-40.65931},{"id":12293,"name":"Ipueiras","latitude":-4.62127,"longitude":-40.82192},{"id":12300,"name":"Iracema","latitude":-5.81274,"longitude":-38.35285},{"id":12314,"name":"Irauçuba","latitude":-3.74611,"longitude":-39.78333},{"id":12364,"name":"Itaiçaba","latitude":-4.70171,"longitude":-37.82908},{"id":12362,"name":"Itaitinga","latitude":-3.96944,"longitude":-38.52806},{"id":12400,"name":"Itapagé","latitude":-3.68667,"longitude":-39.58611},{"id":12401,"name":"Itapajé","latitude":-3.73339,"longitude":-39.56508},{"id":12419,"name":"Itapipoca","latitude":-3.49444,"longitude":-39.57861},{"id":12428,"name":"Itapiúna","latitude":-4.61918,"longitude":-38.9313},{"id":12450,"name":"Itarema","latitude":-3.08336,"longitude":-39.89698},{"id":12460,"name":"Itatira","latitude":-4.56784,"longitude":-39.5782},{"id":12540,"name":"Jaguaretama","latitude":-5.4833,"longitude":-38.75595},{"id":12543,"name":"Jaguaribara","latitude":-5.65027,"longitude":-38.51031},{"id":12544,"name":"Jaguaribe","latitude":-5.97256,"longitude":-38.68571},{"id":12547,"name":"Jaguaruana","latitude":-4.81405,"longitude":-37.79248},{"id":12584,"name":"Jardim","latitude":-7.63821,"longitude":-39.24037},{"id":12601,"name":"Jati","latitude":-7.7047,"longitude":-38.94361},{"id":12631,"name":"Jijoca de Jericoacoara","latitude":-2.87137,"longitude":-40.49161},{"id":12714,"name":"Juá dos Vieiras","latitude":-3.53333,"longitude":-41.3},{"id":12674,"name":"Juazeiro do Norte","latitude":-7.21306,"longitude":-39.31528},{"id":12679,"name":"Jucás","latitude":-6.44677,"longitude":-39.62005},{"id":12809,"name":"Lavras da Mangabeira","latitude":-6.75333,"longitude":-38.96444},{"id":12834,"name":"Limoeiro do Norte","latitude":-5.17406,"longitude":-38.02656},{"id":12905,"name":"Madalena","latitude":-4.87622,"longitude":-39.47587},{"id":12968,"name":"Maracanaú","latitude":-3.87667,"longitude":-38.62556},{"id":12977,"name":"Maranguape","latitude":-3.99581,"longitude":-38.72969},{"id":12995,"name":"Marco","latitude":-3.18943,"longitude":-40.26283},{"id":13034,"name":"Martinópole","latitude":-3.19761,"longitude":-40.60948},{"id":13041,"name":"Massapê","latitude":-3.50912,"longitude":-40.36655},{"id":13082,"name":"Mauriti","latitude":-7.38806,"longitude":-38.63645},{"id":13103,"name":"Meruoca","latitude":-3.58604,"longitude":-40.4673},{"id":13114,"name":"Milagres","latitude":-7.26057,"longitude":-38.96244},{"id":13117,"name":"Milhã","latitude":-5.66904,"longitude":-39.22525},{"id":13154,"name":"Miraíma","latitude":-3.56511,"longitude":-39.9039},{"id":13158,"name":"Missão Velha","latitude":-7.23707,"longitude":-39.11196},{"id":13172,"name":"Mombaça","latitude":-5.79217,"longitude":-39.77985},{"id":13180,"name":"Monsenhor Tabosa","latitude":-4.96764,"longitude":-40.06725},{"id":13227,"name":"Morada Nova","latitude":-5.10667,"longitude":-38.3725},{"id":13229,"name":"Moraújo","latitude":-3.46006,"longitude":-40.69958},{"id":13236,"name":"Morrinhos","latitude":-3.28421,"longitude":-40.09125},{"id":13260,"name":"Mucambo","latitude":-3.9078,"longitude":-40.76944},{"id":13267,"name":"Mulungu","latitude":-4.30636,"longitude":-38.98955},{"id":13411,"name":"Nova Olinda","latitude":-7.08567,"longitude":-39.67195},{"id":13430,"name":"Nova Russas","latitude":-4.72277,"longitude":-40.59553},{"id":13471,"name":"Novo Oriente","latitude":-5.58278,"longitude":-40.74014},{"id":13488,"name":"Ocara","latitude":-4.49083,"longitude":-38.59667},{"id":13526,"name":"Orós","latitude":-6.25502,"longitude":-38.96761},{"id":13555,"name":"Pacajus","latitude":-4.1725,"longitude":-38.46056},{"id":13557,"name":"Pacatuba","latitude":-3.97623,"longitude":-38.62922},{"id":13559,"name":"Pacoti","latitude":-4.19575,"longitude":-38.90252},{"id":13560,"name":"Pacujá","latitude":-3.96747,"longitude":-40.67686},{"id":13579,"name":"Palhano","latitude":-4.66056,"longitude":-38.04453},{"id":13609,"name":"Palmácia","latitude":-4.12964,"longitude":-38.84258},{"id":13625,"name":"Paracuru","latitude":-3.41,"longitude":-39.03056},{"id":13631,"name":"Paraipaba","latitude":-3.43944,"longitude":-39.14833},{"id":13633,"name":"Parambu","latitude":-6.25405,"longitude":-40.60876},{"id":13635,"name":"Paramoti","latitude":-4.14739,"longitude":-39.36219},{"id":13749,"name":"Pedra Branca","latitude":-5.49336,"longitude":-39.85259},{"id":13792,"name":"Penaforte","latitude":-7.80046,"longitude":-39.04704},{"id":13797,"name":"Pentecoste","latitude":-3.85116,"longitude":-39.1985},{"id":13807,"name":"Pereiro","latitude":-6.04085,"longitude":-38.48892},{"id":13856,"name":"Pindoretama","latitude":-4.06156,"longitude":-38.2945},{"id":13881,"name":"Piquet Carneiro","latitude":-5.86038,"longitude":-39.4558},{"id":13915,"name":"Pires Ferreira","latitude":-4.25485,"longitude":-40.59869},{"id":13981,"name":"Poranga","latitude":-4.76103,"longitude":-40.93222},{"id":13987,"name":"Porteiras","latitude":-7.59509,"longitude":-39.07443},{"id":14032,"name":"Potengi","latitude":-7.03279,"longitude":-40.04012},{"id":14036,"name":"Potiretama","latitude":-5.75401,"longitude":-38.18249},{"id":14157,"name":"Quiterianópolis","latitude":-5.88995,"longitude":-40.72808},{"id":14161,"name":"Quixadá","latitude":-4.97056,"longitude":-39.01812},{"id":14162,"name":"Quixelô","latitude":-6.15064,"longitude":-39.11702},{"id":14163,"name":"Quixeramobim","latitude":-5.13424,"longitude":-39.33459},{"id":14164,"name":"Quixeré","latitude":-5.07417,"longitude":-37.98861},{"id":14183,"name":"Redenção","latitude":-4.22583,"longitude":-38.73056},{"id":14196,"name":"Reriutaba","latitude":-4.13835,"longitude":-40.61603},{"id":14363,"name":"Russas","latitude":-4.8399,"longitude":-38.19597},{"id":14369,"name":"Saboeiro","latitude":-6.47813,"longitude":-39.88569},{"id":14390,"name":"Salitre","latitude":-7.13795,"longitude":-40.28978},{"id":14522,"name":"Santa Quitéria","latitude":-4.33194,"longitude":-40.15667},{"id":14577,"name":"Santana do Acaraú","latitude":-3.46056,"longitude":-40.21222},{"id":14579,"name":"Santana do Cariri","latitude":-7.17968,"longitude":-39.78451},{"id":14831,"name":"São Benedito","latitude":-4.04957,"longitude":-40.94585},{"id":14918,"name":"São Gonçalo do Amarante","latitude":-3.60722,"longitude":-38.96833},{"id":15031,"name":"São João do Jaguaribe","latitude":-5.31884,"longitude":-38.26878},{"id":15048,"name":"São João dos Inhamuns","latitude":-6.0,"longitude":-40.28333},{"id":15066,"name":"São Luís do Curu","latitude":-3.64119,"longitude":-39.24877},{"id":14705,"name":"Senador Pompeu","latitude":-5.58806,"longitude":-39.37167},{"id":14708,"name":"Senador Sá","latitude":-3.27654,"longitude":-40.44418},{"id":14798,"name":"Sobral","latitude":-3.85932,"longitude":-40.04376},{"id":14806,"name":"Solonópole","latitude":-5.87073,"longitude":-39.0121},{"id":15192,"name":"Tabuleiro do Norte","latitude":-5.29109,"longitude":-38.07247},{"id":15212,"name":"Tamboril","latitude":-4.83222,"longitude":-40.32056},{"id":15254,"name":"Tarrafas","latitude":-6.73736,"longitude":-39.72329},{"id":15261,"name":"Tauá","latitude":-5.90848,"longitude":-40.27279},{"id":15271,"name":"Tejuçuoca","latitude":-3.93547,"longitude":-39.64972},{"id":15303,"name":"Tianguá","latitude":-3.67295,"longitude":-40.99014},{"id":15348,"name":"Trairi","latitude":-3.33156,"longitude":-39.38032},{"id":15415,"name":"Tururu","latitude":-3.53335,"longitude":-39.37556},{"id":15426,"name":"Ubajara","latitude":-3.8402,"longitude":-40.93422},{"id":15444,"name":"Umari","latitude":-6.60924,"longitude":-38.71952},{"id":15450,"name":"Umirim","latitude":-3.70599,"longitude":-39.39689},{"id":15474,"name":"Uruburetama","latitude":-3.62829,"longitude":-39.5476},{"id":15480,"name":"Uruoca","latitude":-3.31983,"longitude":-40.7217},{"id":15518,"name":"Varjota","latitude":-4.19444,"longitude":-40.47667},{"id":15615,"name":"Várzea Alegre","latitude":-5.35,"longitude":-40.38333},{"id":15608,"name":"Viçosa do Ceará","latitude":-3.56222,"longitude":-41.09222}]