[{"id":63227,"name":"Akaiwa Shi","latitude":34.83767,"longitude":134.01792},{"id":63262,"name":"Asakuchi Shi","latitude":34.53607,"longitude":133.59456},{"id":63286,"name":"Bizen Shi","latitude":34.79504,"longitude":134.2351},{"id":63531,"name":"Ibara","latitude":34.6,"longitude":133.46667},{"id":63532,"name":"Ibara Shi","latitude":34.65033,"longitude":133.47371},{"id":63701,"name":"Kamogatachō-kamogata","latitude":34.53745,"longitude":133.58967},{"id":63730,"name":"Kasaoka","latitude":34.50597,"longitude":133.50391},{"id":63731,"name":"Kasaoka Shi","latitude":34.5152,"longitude":133.50618},{"id":63865,"name":"Kurashiki","latitude":34.58333,"longitude":133.76667},{"id":63866,"name":"Kurashiki Shi","latitude":34.55466,"longitude":133.74826},{"id":63920,"name":"Maniwa-shi","latitude":35.13549,"longitude":133.69358},{"id":63957,"name":"Mimasaka-shi","latitude":35.04419,"longitude":134.23052},{"id":64133,"name":"Niimi","latitude":34.98333,"longitude":133.46667},{"id":64134,"name":"Niimi Shi","latitude":35.01571,"longitude":133.449},{"id":64195,"name":"Okayama","latitude":34.65,"longitude":133.93333},{"id":64196,"name":"Okayama Shi","latitude":34.71251,"longitude":133.92329},{"id":64306,"name":"Setouchi Shi","latitude":34.66539,"longitude":134.14161},{"id":64398,"name":"Sōja","latitude":34.67534,"longitude":133.75091},{"id":64399,"name":"Sōja Shi","latitude":34.70269,"longitude":133.70218},{"id":64422,"name":"Takahashi","latitude":34.78333,"longitude":133.61667},{"id":64423,"name":"Takahashi Shi","latitude":34.82103,"longitude":133.52435},{"id":64459,"name":"Tamano","latitude":34.51745,"longitude":133.94574},{"id":64460,"name":"Tamano Shi","latitude":34.52507,"longitude":133.93769},{"id":64563,"name":"Tsuyama","latitude":35.05215,"longitude":133.99885},{"id":64564,"name":"Tsuyama-shi","latitude":35.14048,"longitude":134.03181}]