[{"id":131013,"name":"‘Amrān","latitude":15.6594,"longitude":43.94385},{"id":130679,"name":"Al Ashah","latitude":16.324,"longitude":43.7874},{"id":130709,"name":"Al Madan","latitude":16.2328,"longitude":43.639},{"id":130745,"name":"Al Qaflah","latitude":16.33859,"longitude":43.70361},{"id":130779,"name":"As Sawd","latitude":15.8134,"longitude":43.777},{"id":130784,"name":"As Sudah","latitude":15.9664,"longitude":43.7756},{"id":130818,"name":"Bani Suraim","latitude":16.1253,"longitude":43.9602},{"id":130836,"name":"Dhi Bin","latitude":16.0276,"longitude":44.1515},{"id":130847,"name":"Habur Zulaymah","latitude":16.035,"longitude":43.7338},{"id":130855,"name":"Harf Sufyan","latitude":16.41389,"longitude":43.98571},{"id":130866,"name":"Hooth","latitude":16.28397,"longitude":43.97811},{"id":130872,"name":"Iyal Surayh","latitude":15.7146,"longitude":43.9974},{"id":130875,"name":"Jabal Iyal Yazid","latitude":15.7717,"longitude":43.9051},{"id":130886,"name":"Khamir","latitude":15.97653,"longitude":43.93371},{"id":130889,"name":"Kharif","latitude":15.847,"longitude":44.0822},{"id":130915,"name":"Maswar","latitude":15.5986,"longitude":43.6925},{"id":130953,"name":"Raydah","latitude":15.74056,"longitude":44.05634},{"id":130975,"name":"Shahārah","latitude":16.18,"longitude":43.70942},{"id":130983,"name":"Suwayr","latitude":16.0611,"longitude":43.6212},{"id":130990,"name":"Thula","latitude":15.601,"longitude":43.8252}]