[{"id":97875,"name":"Belozërskoye","latitude":55.82139,"longitude":65.58417},{"id":98236,"name":"Dalmatovo","latitude":56.26,"longitude":62.9362},{"id":98504,"name":"Glyadyanskoye","latitude":54.9075,"longitude":65.08833},{"id":98639,"name":"Ikovka","latitude":55.60889,"longitude":64.9375},{"id":98908,"name":"Kataysk","latitude":56.289,"longitude":62.5841},{"id":98945,"name":"Ketovo","latitude":55.355,"longitude":65.32583},{"id":99371,"name":"Krasnyy Oktyabr’","latitude":55.65667,"longitude":64.81333},{"id":99459,"name":"Kurgan","latitude":55.45,"longitude":65.33333},{"id":99477,"name":"Kurtamysh","latitude":54.91028,"longitude":64.43194},{"id":99557,"name":"Lebyazh’ye","latitude":55.26889,"longitude":66.49472},{"id":99558,"name":"Lebyazh’yevskiy Rayon","latitude":55.33333,"longitude":66.5},{"id":99592,"name":"Lesnikovo","latitude":55.28222,"longitude":65.3175},{"id":99748,"name":"Makushino","latitude":55.21028,"longitude":67.24417},{"id":99929,"name":"Mishkino","latitude":55.33889,"longitude":63.9175},{"id":99944,"name":"Mokrousovo","latitude":55.81028,"longitude":66.76528},{"id":99945,"name":"Mokrousovskiy Rayon","latitude":55.75,"longitude":67.0},{"id":100666,"name":"Petukhovo","latitude":55.06917,"longitude":67.90194},{"id":100758,"name":"Polovinnoye","latitude":54.79139,"longitude":65.98639},{"id":100870,"name":"Prosvet","latitude":55.57028,"longitude":65.0825},{"id":101067,"name":"Safakulevo","latitude":54.9901,"longitude":62.5442},{"id":101068,"name":"Safakulevskiy Rayon","latitude":54.91667,"longitude":62.5},{"id":101233,"name":"Shadrinsk","latitude":56.0852,"longitude":63.6335},{"id":101270,"name":"Shatrovo","latitude":56.5197,"longitude":64.632},{"id":101349,"name":"Shumikha","latitude":55.22611,"longitude":63.29611},{"id":101351,"name":"Shumikhinskiy Rayon","latitude":55.25,"longitude":63.25},{"id":101939,"name":"Tselinnoye","latitude":54.50111,"longitude":63.67361},{"id":102189,"name":"Vargashi","latitude":55.35556,"longitude":65.84667},{"id":102190,"name":"Vargashinskiy Rayon","latitude":55.33333,"longitude":65.91667},{"id":102418,"name":"Vvedenskoye","latitude":55.47426,"longitude":65.08449},{"id":102594,"name":"Yurgamysh","latitude":55.37454,"longitude":64.46222},{"id":102782,"name":"Zverinogolovskoye","latitude":54.45397,"longitude":64.85242}]