[{"id":31275,"name":"Biskra","latitude":34.85038,"longitude":5.72805},{"id":31405,"name":"Oumache","latitude":34.69292,"longitude":5.68092},{"id":31427,"name":"Sidi Khaled","latitude":34.387,"longitude":4.98785},{"id":31430,"name":"Sidi Okba","latitude":34.74512,"longitude":5.89833},{"id":31461,"name":"Tolga","latitude":34.72224,"longitude":5.37845},{"id":31466,"name":"Zeribet el Oued","latitude":34.68284,"longitude":6.51109}]