[{"id":130666,"name":"Ad Dis","latitude":15.0949,"longitude":50.0159},{"id":130668,"name":"Ad Dīs ash Sharqīyah","latitude":14.9084,"longitude":49.94847},{"id":130670,"name":"Adh Dhlia'ah","latitude":15.0139,"longitude":47.8972},{"id":130678,"name":"Al Abr","latitude":15.9137,"longitude":47.2288},{"id":130755,"name":"Al Ḩamdī","latitude":15.94727,"longitude":48.77965},{"id":130737,"name":"Al Mukalla","latitude":14.7292,"longitude":48.9199},{"id":130738,"name":"Al Mukalla City","latitude":14.62033,"longitude":49.248},{"id":130744,"name":"Al Qaf","latitude":17.4287,"longitude":48.9405},{"id":130749,"name":"Al Qatn","latitude":15.9232,"longitude":48.2146},{"id":130763,"name":"Amd","latitude":15.3486,"longitude":47.9286},{"id":130767,"name":"Ar Raydah Wa Qusayar","latitude":15.1841,"longitude":50.3133},{"id":130780,"name":"As Sawm","latitude":15.998,"longitude":49.6686},{"id":130793,"name":"Ash Shihr","latitude":14.9723,"longitude":49.5526},{"id":130797,"name":"At Taḩāluf","latitude":15.93786,"longitude":48.78641},{"id":130827,"name":"Brom Mayfa","latitude":14.3423,"longitude":48.7281},{"id":130832,"name":"Daw'an","latitude":15.0507,"longitude":48.3072},{"id":130843,"name":"Ghayl Ba Wazir","latitude":14.8778,"longitude":49.0245},{"id":130844,"name":"Ghayl Bin Yamin","latitude":15.3896,"longitude":49.2854},{"id":130849,"name":"Hagr As Sai'ar","latitude":16.3056,"longitude":47.9537},{"id":130851,"name":"Hajr","latitude":14.4708,"longitude":48.2774},{"id":130869,"name":"Huraidhah","latitude":15.55425,"longitude":48.17505},{"id":130893,"name":"Kilmia","latitude":12.18576,"longitude":52.23332},{"id":130929,"name":"Mukalla","latitude":14.54248,"longitude":49.12424},{"id":130951,"name":"Rakhyah","latitude":15.4618,"longitude":47.7728},{"id":130955,"name":"Rumah","latitude":17.8145,"longitude":51.0759},{"id":130961,"name":"Sah","latitude":15.5342,"longitude":48.8955},{"id":130969,"name":"Sayun","latitude":15.9831,"longitude":48.8315},{"id":130979,"name":"Shibam","latitude":15.8703,"longitude":48.6534},{"id":130984,"name":"Suḩayl Shibām","latitude":15.91448,"longitude":48.63864},{"id":130986,"name":"Tarim","latitude":16.066,"longitude":49.0229},{"id":130989,"name":"Thamud","latitude":17.6031,"longitude":49.7361},{"id":130997,"name":"Wadi Al Ayn","latitude":15.74033,"longitude":48.14747},{"id":131002,"name":"Yabuth","latitude":14.7182,"longitude":47.7358},{"id":131007,"name":"Zamakh wa Manwakh","latitude":17.2032,"longitude":47.7033}]