[{"id":105364,"name":"Amphoe Kaeng Hang Maeo","latitude":13.0969,"longitude":101.88543},{"id":105394,"name":"Amphoe Khao Khitchakut","latitude":12.93726,"longitude":102.09762},{"id":105413,"name":"Amphoe Khlung","latitude":12.57246,"longitude":102.30783},{"id":105471,"name":"Amphoe Laem Sing","latitude":12.45689,"longitude":102.14262},{"id":105523,"name":"Amphoe Makham","latitude":12.73333,"longitude":102.21667},{"id":105538,"name":"Amphoe Mueang Chanthaburi","latitude":12.59542,"longitude":102.12263},{"id":105627,"name":"Amphoe Na Yai Am","latitude":12.73833,"longitude":101.87502},{"id":105792,"name":"Amphoe Pong Nam Ron","latitude":12.93467,"longitude":102.37189},{"id":106242,"name":"Amphoe Soi Dao","latitude":13.17034,"longitude":102.22796},{"id":106277,"name":"Amphoe Tha Mai","latitude":12.73848,"longitude":101.97696},{"id":106467,"name":"Chanthaburi","latitude":12.60961,"longitude":102.10447},{"id":106529,"name":"Khlung","latitude":12.45467,"longitude":102.22142},{"id":106547,"name":"Laem Sing","latitude":12.48164,"longitude":102.07375},{"id":106653,"name":"Pong Nam Ron","latitude":12.90575,"longitude":102.26225},{"id":106721,"name":"Tha Mai","latitude":12.62137,"longitude":102.00481}]