[{"id":20,"name":"Al Fujairah City","latitude":25.11641,"longitude":56.34141},{"id":21,"name":"Al Fujairah Municipality","latitude":25.13557,"longitude":56.33279},{"id":28,"name":"Dibba Al Fujairah Municipality","latitude":25.5858,"longitude":56.24792},{"id":30,"name":"Dibba Al-Fujairah","latitude":25.59246,"longitude":56.26176},{"id":31,"name":"Dibba Al-Hisn","latitude":25.61955,"longitude":56.27291},{"id":45,"name":"Reef Al Fujairah City","latitude":25.14479,"longitude":56.24764}]