[{"id":131404,"name":"Bikita District","latitude":-20.13752,"longitude":31.93156},{"id":131422,"name":"Chiredzi","latitude":-21.05,"longitude":31.66667},{"id":131423,"name":"Chiredzi District","latitude":-21.28585,"longitude":31.77039},{"id":131427,"name":"Chivi District","latitude":-20.5,"longitude":30.58333},{"id":131438,"name":"Gutu District","latitude":-19.60884,"longitude":31.25059},{"id":131468,"name":"Mashava","latitude":-20.03665,"longitude":30.48225},{"id":131469,"name":"Masvingo","latitude":-20.06373,"longitude":30.82766},{"id":131470,"name":"Masvingo District","latitude":-20.31481,"longitude":30.90008},{"id":131486,"name":"Mwenezi District","latitude":-21.35838,"longitude":30.70668},{"id":131507,"name":"Zvishavane","latitude":-20.32674,"longitude":30.06648}]