[{"id":103985,"name":"Älmhult","latitude":56.55146,"longitude":14.13827},{"id":102995,"name":"Alvesta","latitude":56.89935,"longitude":14.55559},{"id":104018,"name":"Åseda","latitude":57.1701,"longitude":15.3443},{"id":103082,"name":"Braås","latitude":57.06667,"longitude":15.05},{"id":103205,"name":"Gemla","latitude":56.86753,"longitude":14.64379},{"id":103301,"name":"Hovmantorp","latitude":56.78685,"longitude":15.14023},{"id":103346,"name":"Ingelstad","latitude":56.75,"longitude":14.91667},{"id":103446,"name":"Lagan","latitude":56.91667,"longitude":13.98333},{"id":103449,"name":"Lammhult","latitude":57.16667,"longitude":14.58333},{"id":103458,"name":"Lenhovda","latitude":57.0,"longitude":15.28333},{"id":103461,"name":"Lessebo","latitude":56.75185,"longitude":15.26969},{"id":103478,"name":"Ljungby","latitude":56.83324,"longitude":13.94082},{"id":103531,"name":"Markaryd","latitude":56.46135,"longitude":13.59644},{"id":103543,"name":"Moheda","latitude":57.0,"longitude":14.56667},{"id":103659,"name":"Rottne","latitude":57.01667,"longitude":14.9},{"id":103660,"name":"Ryd","latitude":56.46667,"longitude":14.68333},{"id":103774,"name":"Strömsnäsbruk","latitude":56.55,"longitude":13.71667},{"id":103852,"name":"Tingsryd","latitude":56.5247,"longitude":14.97902},{"id":103975,"name":"Växjö","latitude":56.87767,"longitude":14.80906},{"id":103959,"name":"Vislanda","latitude":56.78333,"longitude":14.45}]