[{"id":105185,"name":"Amphoe Ba Cho","latitude":6.54591,"longitude":101.64923},{"id":105283,"name":"Amphoe Chanae","latitude":6.04591,"longitude":101.61765},{"id":105301,"name":"Amphoe Cho-airong","latitude":6.23011,"longitude":101.84721},{"id":105560,"name":"Amphoe Mueang Narathiwat","latitude":6.39391,"longitude":101.81316},{"id":105802,"name":"Amphoe Ra-ngae","latitude":6.25504,"longitude":101.70496},{"id":105815,"name":"Amphoe Rueso","latitude":6.3745,"longitude":101.51491},{"id":106222,"name":"Amphoe Si Sakhon","latitude":6.1936,"longitude":101.51257},{"id":106251,"name":"Amphoe Su-ngai Kolok","latitude":6.07674,"longitude":101.99818},{"id":106252,"name":"Amphoe Su-ngai Padi","latitude":6.10425,"longitude":101.89333},{"id":106255,"name":"Amphoe Sukhirin","latitude":5.91513,"longitude":101.73811},{"id":106261,"name":"Amphoe Tak Bai","latitude":6.23748,"longitude":102.00238},{"id":106330,"name":"Amphoe Waeng","latitude":5.90042,"longitude":101.86195},{"id":106379,"name":"Amphoe Yi-ngo","latitude":6.41655,"longitude":101.70035},{"id":106414,"name":"Ban Su-ngai Pa Di","latitude":6.07239,"longitude":101.87172},{"id":106590,"name":"Narathiwat","latitude":6.42639,"longitude":101.82308},{"id":106660,"name":"Ra-ngae","latitude":6.29678,"longitude":101.72844},{"id":106705,"name":"Su-ngai Kolok","latitude":6.02977,"longitude":101.96586},{"id":106714,"name":"Tak Bai","latitude":6.25947,"longitude":102.05461}]