[{"id":31316,"name":"Djamaa","latitude":33.53388,"longitude":5.99306},{"id":31335,"name":"El Hadjira","latitude":32.61336,"longitude":5.51259},{"id":31353,"name":"Hassi Messaoud","latitude":31.68041,"longitude":6.07286},{"id":31378,"name":"Megarine","latitude":33.19195,"longitude":6.08695},{"id":31396,"name":"Ouargla","latitude":31.94932,"longitude":5.32502},{"id":31414,"name":"Rouissat","latitude":31.92427,"longitude":5.35018},{"id":31425,"name":"Sidi Amrane","latitude":33.49885,"longitude":6.00803},{"id":31445,"name":"Tebesbest","latitude":33.11667,"longitude":6.08333},{"id":31462,"name":"Touggourt","latitude":33.10527,"longitude":6.05796}]