[{"id":52038,"name":"Agara","latitude":42.03761,"longitude":43.82382},{"id":52070,"name":"Gori","latitude":41.98422,"longitude":44.11578},{"id":52071,"name":"Goris Munitsip’alit’et’i","latitude":42.06667,"longitude":44.11667},{"id":52077,"name":"Kaspi","latitude":41.9252,"longitude":44.42568},{"id":52080,"name":"Khashuri","latitude":41.99414,"longitude":43.59994},{"id":52125,"name":"Surami","latitude":42.02431,"longitude":43.55556},{"id":52139,"name":"Ts’khinvali","latitude":42.22764,"longitude":43.96861}]