[{"id":62322,"name":"Askenish","latitude":18.38492,"longitude":-78.1491},{"id":62409,"name":"Cacoon","latitude":18.41642,"longitude":-78.2073},{"id":62410,"name":"Cacoon Castle","latitude":18.40247,"longitude":-78.01336},{"id":62422,"name":"Cascade","latitude":18.39747,"longitude":-78.10337},{"id":62425,"name":"Cash Hill","latitude":18.3692,"longitude":-78.10938},{"id":62432,"name":"Cauldwell","latitude":18.38583,"longitude":-78.2411},{"id":62443,"name":"Chambers Pen","latitude":18.4052,"longitude":-78.15975},{"id":62452,"name":"Chester Castle","latitude":18.33822,"longitude":-77.94722},{"id":62479,"name":"Copse","latitude":18.39466,"longitude":-77.97678},{"id":62484,"name":"Cousins Cove","latitude":18.42425,"longitude":-78.23752},{"id":62512,"name":"Dias","latitude":18.39379,"longitude":-78.18562},{"id":62608,"name":"Great Valley","latitude":18.41169,"longitude":-78.05023},{"id":62610,"name":"Green Island","latitude":18.38399,"longitude":-78.27015},{"id":62620,"name":"Haddington","latitude":18.42043,"longitude":-78.00383},{"id":62657,"name":"Hopewell","latitude":18.44321,"longitude":-78.02636},{"id":62672,"name":"Jericho","latitude":18.43744,"longitude":-78.13028},{"id":62685,"name":"Kendal","latitude":18.36287,"longitude":-78.2272},{"id":62693,"name":"Kingsvale","latitude":18.38087,"longitude":-78.20523},{"id":62702,"name":"Lances Bay","latitude":18.43819,"longitude":-78.21442},{"id":62723,"name":"Logwood","latitude":18.34878,"longitude":-78.2962},{"id":62731,"name":"Lucea","latitude":18.45095,"longitude":-78.17356},{"id":62732,"name":"Lucea East","latitude":18.42198,"longitude":-78.16675},{"id":62733,"name":"Lucea West","latitude":18.44238,"longitude":-78.18663},{"id":62752,"name":"March Town","latitude":18.32951,"longitude":-78.27656},{"id":62758,"name":"Maryland","latitude":18.38679,"longitude":-78.12825},{"id":62799,"name":"Mount Peto","latitude":18.35747,"longitude":-78.02289},{"id":62844,"name":"Orange Bay","latitude":18.34266,"longitude":-78.32005},{"id":62873,"name":"Pell River","latitude":18.37886,"longitude":-78.21904},{"id":62890,"name":"Pondside","latitude":18.40222,"longitude":-78.07344},{"id":62913,"name":"Ramble","latitude":18.34674,"longitude":-77.98802},{"id":62945,"name":"Rock Spring","latitude":18.34797,"longitude":-78.24392},{"id":62968,"name":"Sandy Bay","latitude":18.4375,"longitude":-78.08383},{"id":62972,"name":"Santoy","latitude":18.35875,"longitude":-78.28386},{"id":63038,"name":"Success","latitude":18.37729,"longitude":-78.05105},{"id":63120,"name":"Woodlands","latitude":18.44555,"longitude":-77.99963},{"id":63123,"name":"Woodsville","latitude":18.3695,"longitude":-78.07217}]