[{"id":57638,"name":"Aldona","latitude":15.59337,"longitude":73.87482},{"id":57727,"name":"Arambol","latitude":15.68681,"longitude":73.70449},{"id":57795,"name":"Baga","latitude":15.56517,"longitude":73.75517},{"id":57836,"name":"Bambolim","latitude":15.46361,"longitude":73.8531},{"id":57845,"name":"Bandora","latitude":15.40823,"longitude":73.98129},{"id":57932,"name":"Benaulim","latitude":15.26435,"longitude":73.92812},{"id":58165,"name":"Calangute","latitude":15.5439,"longitude":73.7553},{"id":58167,"name":"Candolim","latitude":15.51807,"longitude":73.76259},{"id":58169,"name":"Carapur","latitude":15.56588,"longitude":73.98713},{"id":58170,"name":"Cavelossim","latitude":15.17255,"longitude":73.94194},{"id":131542,"name":"Chicalim","latitude":15.39835,"longitude":73.84216},{"id":131559,"name":"Chinchinim","latitude":15.21447,"longitude":73.97555},{"id":131622,"name":"Colovale","latitude":15.63522,"longitude":73.82426},{"id":131623,"name":"Colva","latitude":15.27976,"longitude":73.92285},{"id":131625,"name":"Cortalim","latitude":15.40247,"longitude":73.90881},{"id":131630,"name":"Cuncolim","latitude":15.1773,"longitude":73.99392},{"id":131631,"name":"Curchorem","latitude":15.26349,"longitude":74.10875},{"id":131632,"name":"Curti","latitude":15.41667,"longitude":74.01667},{"id":131672,"name":"Davorlim","latitude":15.27221,"longitude":73.99242},{"id":131764,"name":"Dicholi","latitude":15.59319,"longitude":73.94571},{"id":131960,"name":"Goa Velha","latitude":15.44384,"longitude":73.88572},{"id":132015,"name":"Guirim","latitude":15.57552,"longitude":73.80722},{"id":132297,"name":"Jua","latitude":15.5307,"longitude":73.95047},{"id":132705,"name":"Kankon","latitude":15.02698,"longitude":74.04617},{"id":132811,"name":"Madgaon","latitude":15.27501,"longitude":73.95786},{"id":133086,"name":"Mapuca","latitude":15.59154,"longitude":73.80898},{"id":132997,"name":"Morjim","latitude":15.63097,"longitude":73.73903},{"id":132998,"name":"Mormugao","latitude":15.38914,"longitude":73.81491},{"id":133185,"name":"Navelim","latitude":15.53333,"longitude":73.98333},{"id":133238,"name":"North Goa","latitude":15.53397,"longitude":73.96408},{"id":133330,"name":"Palle","latitude":15.46667,"longitude":74.08333},{"id":133342,"name":"Panaji","latitude":15.49574,"longitude":73.82624},{"id":133422,"name":"Pernem","latitude":15.723,"longitude":73.79511},{"id":133471,"name":"Ponda","latitude":15.40341,"longitude":74.01519},{"id":133572,"name":"Quepem","latitude":15.2128,"longitude":74.0772},{"id":133573,"name":"Queula","latitude":15.39011,"longitude":73.98557},{"id":133585,"name":"Raia","latitude":15.30499,"longitude":73.97096},{"id":133764,"name":"Saligao","latitude":15.55359,"longitude":73.79036},{"id":133777,"name":"Sancoale","latitude":15.37794,"longitude":73.90352},{"id":133786,"name":"Sanguem","latitude":15.22901,"longitude":74.15149},{"id":133791,"name":"Sanquelim","latitude":15.56422,"longitude":74.00799},{"id":133795,"name":"Sanvordem","latitude":15.26269,"longitude":74.11965},{"id":133850,"name":"Serula","latitude":15.54774,"longitude":73.84329},{"id":133987,"name":"Solim","latitude":15.61521,"longitude":73.7674},{"id":134010,"name":"South Goa","latitude":15.20425,"longitude":74.16733},{"id":134101,"name":"Taleigao","latitude":15.46915,"longitude":73.83285},{"id":134311,"name":"Vagator","latitude":15.59766,"longitude":73.74496},{"id":134321,"name":"Valpoy","latitude":15.53239,"longitude":74.13671},{"id":134329,"name":"Varca","latitude":15.23237,"longitude":73.94311},{"id":134333,"name":"Vasco da Gama","latitude":15.39585,"longitude":73.81568}]