[{"id":77165,"name":"Chichigalpa","latitude":12.57758,"longitude":-87.02705},{"id":77166,"name":"Chinandega","latitude":12.62937,"longitude":-87.13105},{"id":77167,"name":"Cinco Pinos","latitude":13.22956,"longitude":-86.86808},{"id":77172,"name":"Corinto","latitude":12.4825,"longitude":-87.17304},{"id":77186,"name":"El Realejo","latitude":12.54333,"longitude":-87.16517},{"id":77190,"name":"El Viejo","latitude":12.66348,"longitude":-87.16663},{"id":77196,"name":"Jiquilillo","latitude":12.74593,"longitude":-87.4516},{"id":77232,"name":"Municipio de San Francisco del Norte","latitude":13.21187,"longitude":-86.77107},{"id":77246,"name":"Posoltega","latitude":12.54422,"longitude":-86.97982},{"id":77251,"name":"Puerto Morazán","latitude":12.85042,"longitude":-87.17167},{"id":77278,"name":"Santo Tomás del Norte","latitude":13.1861,"longitude":-86.92267},{"id":77280,"name":"Somotillo","latitude":13.04387,"longitude":-86.90506}]