[{"id":55168,"name":"Aba","latitude":47.02907,"longitude":18.52172},{"id":55175,"name":"Adony","latitude":47.1194,"longitude":18.86493},{"id":55181,"name":"Alap","latitude":46.79915,"longitude":18.68938},{"id":55205,"name":"Bakonycsernye","latitude":47.32395,"longitude":18.07509},{"id":55229,"name":"Baracs","latitude":46.88202,"longitude":18.90658},{"id":55230,"name":"Baracska","latitude":47.28225,"longitude":18.75853},{"id":55246,"name":"Bicske","latitude":47.48419,"longitude":18.64404},{"id":55247,"name":"Bicskei Járás","latitude":47.4338,"longitude":18.56757},{"id":55250,"name":"Bodajk","latitude":47.32352,"longitude":18.23312},{"id":55314,"name":"Cece","latitude":46.77056,"longitude":18.62826},{"id":55345,"name":"Csákvár","latitude":47.39184,"longitude":18.46501},{"id":55387,"name":"Dég","latitude":46.86807,"longitude":18.45042},{"id":56139,"name":"dunaújváros","latitude":46.96737,"longitude":18.93288},{"id":55382,"name":"Dunaújvárosi Járás","latitude":47.02801,"longitude":18.82997},{"id":55403,"name":"Előszállás","latitude":46.83094,"longitude":18.83481},{"id":55408,"name":"Enying","latitude":46.93046,"longitude":18.24202},{"id":55409,"name":"Enyingi Járás","latitude":46.8724,"longitude":18.30975},{"id":55410,"name":"Ercsi","latitude":47.25194,"longitude":18.89623},{"id":55414,"name":"Etyek","latitude":47.44794,"longitude":18.75328},{"id":55422,"name":"Fehérvárcsurgó","latitude":47.29349,"longitude":18.2646},{"id":55471,"name":"Gárdony","latitude":47.20942,"longitude":18.63607},{"id":55472,"name":"Gárdonyi Járás","latitude":47.22785,"longitude":18.63622},{"id":55530,"name":"Iváncsa","latitude":47.1567,"longitude":18.8203},{"id":55638,"name":"Káloz","latitude":46.95464,"longitude":18.48259},{"id":55640,"name":"Kápolnásnyék","latitude":47.24004,"longitude":18.67564},{"id":55593,"name":"Kincsesbánya","latitude":47.26444,"longitude":18.2779},{"id":55604,"name":"Kisláng","latitude":46.95744,"longitude":18.38813},{"id":55653,"name":"Lajoskomárom","latitude":46.84201,"longitude":18.33763},{"id":55659,"name":"Lepsény","latitude":46.99036,"longitude":18.24357},{"id":55665,"name":"Lovasberény","latitude":47.30997,"longitude":18.55177},{"id":55722,"name":"Mány","latitude":47.53352,"longitude":18.65627},{"id":55682,"name":"Martonvásár","latitude":47.31601,"longitude":18.79045},{"id":55683,"name":"Martonvásári Járás","latitude":47.2904,"longitude":18.79945},{"id":55691,"name":"Mezőfalva","latitude":46.93184,"longitude":18.77177},{"id":55698,"name":"Mezőszilas","latitude":46.81109,"longitude":18.47789},{"id":55733,"name":"Mór","latitude":47.37787,"longitude":18.20353},{"id":55736,"name":"Móri Járás","latitude":47.34685,"longitude":18.19838},{"id":55839,"name":"Pákozd","latitude":47.21369,"longitude":18.53306},{"id":55848,"name":"Pázmánd","latitude":47.28755,"longitude":18.65356},{"id":55814,"name":"Perkáta","latitude":47.04701,"longitude":18.78734},{"id":55828,"name":"Polgárdi","latitude":47.06099,"longitude":18.302},{"id":55834,"name":"Pusztaszabolcs","latitude":47.13718,"longitude":18.76704},{"id":55836,"name":"Pusztavám","latitude":47.42948,"longitude":18.22648},{"id":55870,"name":"Rácalmás","latitude":47.02263,"longitude":18.94056},{"id":55871,"name":"Ráckeresztúr","latitude":47.2736,"longitude":18.83343},{"id":55981,"name":"Sárbogárd","latitude":46.88692,"longitude":18.62041},{"id":55982,"name":"Sárbogárdi Járás","latitude":46.84036,"longitude":18.60723},{"id":55983,"name":"Sárkeresztúr","latitude":47.0054,"longitude":18.54391},{"id":55985,"name":"Sárosd","latitude":47.04273,"longitude":18.64357},{"id":55989,"name":"Sárszentmihály","latitude":47.15321,"longitude":18.33879},{"id":55896,"name":"Seregélyes","latitude":47.1105,"longitude":18.565},{"id":55908,"name":"Soponya","latitude":47.01485,"longitude":18.45343},{"id":55911,"name":"Szabadbattyán","latitude":47.11902,"longitude":18.36823},{"id":55969,"name":"Szárliget","latitude":47.51581,"longitude":18.4948},{"id":55974,"name":"Székesfehérvár","latitude":47.18995,"longitude":18.41034},{"id":55975,"name":"Székesfehérvári Járás","latitude":47.16531,"longitude":18.41349},{"id":56108,"name":"Vál","latitude":47.36264,"longitude":18.67931},{"id":56096,"name":"Velence","latitude":47.23855,"longitude":18.65484},{"id":56137,"name":"Zámoly","latitude":47.31667,"longitude":18.4081}]