[{"id":97857,"name":"Belomorsk","latitude":64.52322,"longitude":34.7668},{"id":98038,"name":"Borovoy","latitude":64.6121,"longitude":32.24968},{"id":98223,"name":"Chupa","latitude":66.27001,"longitude":33.05486},{"id":98405,"name":"Essoyla","latitude":61.86983,"longitude":33.14901},{"id":98492,"name":"Girvas","latitude":62.47962,"longitude":33.68482},{"id":98782,"name":"Kalevala","latitude":65.19873,"longitude":31.18999},{"id":98939,"name":"Kem’","latitude":64.95546,"longitude":34.57929},{"id":98965,"name":"Kharlu","latitude":61.8,"longitude":30.95},{"id":98978,"name":"Khelyulya","latitude":61.749,"longitude":30.66473},{"id":99181,"name":"Kondopoga","latitude":62.20565,"longitude":34.26138},{"id":99240,"name":"Kostomuksha","latitude":64.571,"longitude":30.57667},{"id":99515,"name":"Kvartsitnyy","latitude":61.49321,"longitude":35.02888},{"id":99538,"name":"Lakhdenpokh’ya","latitude":61.51981,"longitude":30.19917},{"id":99560,"name":"Ledmozero","latitude":64.25444,"longitude":32.02789},{"id":99671,"name":"Loukhi","latitude":66.07616,"longitude":33.04745},{"id":99706,"name":"Lyaskelya","latitude":61.76322,"longitude":31.00616},{"id":99814,"name":"Matrosy","latitude":61.78042,"longitude":33.81283},{"id":99848,"name":"Medvezh’yegorsk","latitude":62.91713,"longitude":34.45689},{"id":100023,"name":"Muyezerskiy","latitude":63.95758,"longitude":31.98738},{"id":100042,"name":"Nadvoitsy","latitude":63.86667,"longitude":34.31667},{"id":100424,"name":"Olonets","latitude":60.98475,"longitude":32.96976},{"id":100665,"name":"Petrozavodsk","latitude":61.78491,"longitude":34.34691},{"id":100674,"name":"Pindushi","latitude":62.91519,"longitude":34.57996},{"id":100688,"name":"Pitkyaranta","latitude":61.5734,"longitude":31.47915},{"id":100689,"name":"Pitkyarantskiy Rayon","latitude":61.58333,"longitude":31.5},{"id":100780,"name":"Porosozero","latitude":62.71912,"longitude":32.72703},{"id":100792,"name":"Povenets","latitude":62.8487,"longitude":34.82621},{"id":100837,"name":"Prionezhskiy Rayon","latitude":61.5,"longitude":34.33333},{"id":100876,"name":"Pryazha","latitude":61.69258,"longitude":33.62159},{"id":100888,"name":"Pudozh","latitude":61.80415,"longitude":36.5277},{"id":100908,"name":"Pyaozerskiy","latitude":65.7687,"longitude":31.08925},{"id":100920,"name":"Rabocheostrovsk","latitude":64.98547,"longitude":34.76611},{"id":101028,"name":"Ruskeala","latitude":61.93333,"longitude":30.58333},{"id":101080,"name":"Salmi","latitude":61.36971,"longitude":31.85185},{"id":101149,"name":"Segezha","latitude":63.74147,"longitude":34.32218},{"id":101250,"name":"Shal’skiy","latitude":61.79698,"longitude":36.0168},{"id":101294,"name":"Sheltozero","latitude":61.36667,"longitude":35.36667},{"id":101353,"name":"Shun’ga","latitude":62.60263,"longitude":34.9468},{"id":101361,"name":"Shuya","latitude":61.95251,"longitude":34.23271},{"id":101481,"name":"Sortaval’skiy Rayon","latitude":61.75,"longitude":30.66667},{"id":101480,"name":"Sortavala","latitude":61.71233,"longitude":30.70953},{"id":101656,"name":"Sukkozero","latitude":63.17018,"longitude":32.34436},{"id":101669,"name":"Suoyarvi","latitude":62.08333,"longitude":32.35},{"id":101670,"name":"Suoyarvskiy Rayon","latitude":62.25,"longitude":32.25},{"id":102419,"name":"Vyartsilya","latitude":62.17645,"longitude":30.69296},{"id":102485,"name":"Yanis’yarvi","latitude":61.89127,"longitude":30.94849},{"id":102484,"name":"Yanishpole","latitude":62.11095,"longitude":34.27013},{"id":102608,"name":"Yushkozero","latitude":64.75162,"longitude":32.10255}]