[{"id":107123,"name":"Alanyurt","latitude":40.10881,"longitude":29.51871},{"id":107269,"name":"Balarim","latitude":40.37381,"longitude":29.59025},{"id":107374,"name":"Boyalıca","latitude":40.48194,"longitude":29.56083},{"id":107414,"name":"Bursa","latitude":40.19559,"longitude":29.06013},{"id":107419,"name":"Büyükorhan İlçesi","latitude":39.78223,"longitude":28.89338},{"id":108757,"name":"Çakırca","latitude":40.47056,"longitude":29.66333},{"id":108758,"name":"Çakırlı","latitude":40.51806,"longitude":29.45222},{"id":107426,"name":"Cerrah","latitude":40.07124,"longitude":29.44661},{"id":107464,"name":"Demirtaş","latitude":40.27194,"longitude":29.09833},{"id":107560,"name":"Elbeyli","latitude":40.48611,"longitude":29.72472},{"id":107660,"name":"Gemlik","latitude":40.4351,"longitude":29.14943},{"id":107756,"name":"Gürsu","latitude":40.25498,"longitude":29.21183},{"id":107785,"name":"Hamzabey","latitude":40.13583,"longitude":29.52639},{"id":107795,"name":"Harmancık İlçesi","latitude":39.67743,"longitude":29.15523},{"id":108901,"name":"İnegol","latitude":40.07806,"longitude":29.51333},{"id":108925,"name":"İznik","latitude":40.42861,"longitude":29.72111},{"id":107890,"name":"Karacabey","latitude":40.21323,"longitude":28.3612},{"id":107935,"name":"Karıncalı","latitude":39.97118,"longitude":28.85894},{"id":107967,"name":"Keles","latitude":39.91361,"longitude":29.22944},{"id":107987,"name":"Kestel","latitude":40.19828,"longitude":29.21237},{"id":108001,"name":"Kirazlı","latitude":40.09964,"longitude":29.04163},{"id":108094,"name":"Küçükkumla","latitude":40.47047,"longitude":29.10152},{"id":108059,"name":"Kurşunlu","latitude":40.03712,"longitude":29.65972},{"id":108217,"name":"Mudanya","latitude":40.33342,"longitude":28.77218},{"id":108230,"name":"Mustafakemalpaşa","latitude":40.03815,"longitude":28.40866},{"id":108239,"name":"Narlıca","latitude":40.38583,"longitude":29.48111},{"id":108249,"name":"Nilüfer","latitude":40.21375,"longitude":28.98464},{"id":108272,"name":"Orhaneli","latitude":39.90333,"longitude":28.99056},{"id":108274,"name":"Orhangazi","latitude":40.48917,"longitude":29.30889},{"id":108293,"name":"Osmangazi","latitude":40.15644,"longitude":29.08753},{"id":108517,"name":"Sölöz","latitude":40.3948,"longitude":29.41559},{"id":108529,"name":"Tacir","latitude":40.52556,"longitude":29.73972},{"id":108530,"name":"Tahtaköprü","latitude":39.95,"longitude":29.65},{"id":108537,"name":"Tatkavaklı","latitude":40.03333,"longitude":28.36667},{"id":108632,"name":"Umurbey","latitude":40.41472,"longitude":29.18306},{"id":108692,"name":"Yenice","latitude":40.08778,"longitude":29.42194},{"id":108702,"name":"Yeniköy","latitude":40.53568,"longitude":29.35364},{"id":108714,"name":"Yenişehir","latitude":40.26444,"longitude":29.65306},{"id":108746,"name":"Yıldırım İlçesi","latitude":40.19567,"longitude":29.0364}]