[{"id":109311,"name":"Alchevs’k","latitude":48.46893,"longitude":38.81669},{"id":109312,"name":"Alchevs’ka Mis’krada","latitude":48.48029,"longitude":38.7969},{"id":109323,"name":"Antratsyt","latitude":48.11503,"longitude":39.09128},{"id":109324,"name":"Antratsytivs’kyy Rayon","latitude":48.1245,"longitude":39.05683},{"id":109329,"name":"Artemivs’k","latitude":48.44061,"longitude":38.732},{"id":109359,"name":"Bayrachky","latitude":48.392,"longitude":38.60174},{"id":109395,"name":"Bile","latitude":48.49523,"longitude":39.05051},{"id":109400,"name":"Bilohorivka","latitude":48.92503,"longitude":38.24822},{"id":109401,"name":"Bilokurakyne","latitude":49.5341,"longitude":38.73067},{"id":109403,"name":"Bilovods'k","latitude":49.20846,"longitude":39.58975},{"id":109408,"name":"Biryukove","latitude":47.95631,"longitude":39.73843},{"id":109453,"name":"Bryanka","latitude":48.511,"longitude":38.67222},{"id":109460,"name":"Buran","latitude":48.30003,"longitude":39.61526},{"id":109502,"name":"Chervonopartyzans’k","latitude":48.07613,"longitude":39.79618},{"id":109515,"name":"Chornukhyne","latitude":48.32339,"longitude":38.52272},{"id":109574,"name":"Dovzhanskyy Rayon","latitude":48.0,"longitude":39.66667},{"id":109630,"name":"Hirs’ke","latitude":48.73468,"longitude":38.49541},{"id":109693,"name":"Kadiyivka","latitude":48.56818,"longitude":38.64352},{"id":109754,"name":"Kirovs’k","latitude":48.63751,"longitude":38.6428},{"id":109755,"name":"Kirovs’ka Mis’krada","latitude":48.63485,"longitude":38.64753},{"id":109760,"name":"Klenovyy","latitude":48.11934,"longitude":39.4588},{"id":109853,"name":"Krasnyy Kut","latitude":48.20138,"longitude":38.79765},{"id":109854,"name":"Krasnyy Luch","latitude":48.13954,"longitude":38.93715},{"id":109860,"name":"Kreminna","latitude":49.0495,"longitude":38.21792},{"id":109864,"name":"Kripens’kyy","latitude":48.07709,"longitude":39.058},{"id":109911,"name":"Lenina","latitude":48.42944,"longitude":39.14556},{"id":109931,"name":"Lozno-Oleksandrivka","latitude":49.8391,"longitude":38.74098},{"id":109939,"name":"Luhans’ka Mis’krada","latitude":48.58083,"longitude":39.35478},{"id":109938,"name":"Luhansk","latitude":48.56705,"longitude":39.31706},{"id":109945,"name":"Lutuhyne","latitude":48.40507,"longitude":39.22675},{"id":109946,"name":"Lutuhyns’kyy Rayon","latitude":48.38509,"longitude":39.21209},{"id":109960,"name":"Lysychans’k","latitude":48.90485,"longitude":38.44207},{"id":109974,"name":"Makariv Yar","latitude":48.57768,"longitude":39.71944},{"id":110001,"name":"Markivka","latitude":49.5229,"longitude":39.57055},{"id":110030,"name":"Millerovo","latitude":48.16829,"longitude":39.16537},{"id":110031,"name":"Milove","latitude":49.37528,"longitude":40.13222},{"id":110038,"name":"Miusyns’k","latitude":48.0775,"longitude":38.90364},{"id":110049,"name":"Molodohvardiys’k","latitude":48.34511,"longitude":39.65244},{"id":110143,"name":"Novopskov","latitude":49.5464,"longitude":39.08987},{"id":110166,"name":"Nyzhnya Duvanka","latitude":49.58464,"longitude":38.17429},{"id":110231,"name":"Pavlivka","latitude":49.60864,"longitude":38.70917},{"id":110244,"name":"Pereval’s’k","latitude":48.43779,"longitude":38.84384},{"id":110250,"name":"Pervomays’k","latitude":48.62988,"longitude":38.54806},{"id":110300,"name":"Popasna","latitude":48.63328,"longitude":38.37804},{"id":110324,"name":"Pryvillya","latitude":49.01501,"longitude":38.30457},{"id":110374,"name":"Roven’ky","latitude":48.08331,"longitude":39.37764},{"id":110384,"name":"Rozkishne","latitude":48.48959,"longitude":39.27881},{"id":110387,"name":"Rubizhans’ka Mis’krada","latitude":49.0146,"longitude":38.38909},{"id":110388,"name":"Rubizhne","latitude":49.01229,"longitude":38.37967},{"id":110433,"name":"Shchastya","latitude":48.73963,"longitude":39.2323},{"id":110460,"name":"Simeykyne","latitude":48.32643,"longitude":39.53366},{"id":110485,"name":"Slov`yanoserbsk","latitude":48.69779,"longitude":38.98133},{"id":110514,"name":"Sorokyne","latitude":48.29235,"longitude":39.73921},{"id":110515,"name":"Sorokyns'kyi Rayon","latitude":48.33333,"longitude":39.75},{"id":110526,"name":"Stanytsya Luhans’ka","latitude":48.65433,"longitude":39.47943},{"id":110532,"name":"Starobil’s’k","latitude":49.27832,"longitude":38.91069},{"id":110572,"name":"Svatove","latitude":49.41029,"longitude":38.15035},{"id":110573,"name":"Sverdlovs’k","latitude":48.08964,"longitude":39.65243},{"id":110574,"name":"Sverdlovs’ka Mis’krada","latitude":48.0685,"longitude":39.58057},{"id":110582,"name":"Syevyerodonets’k","latitude":48.94832,"longitude":38.49166},{"id":110597,"name":"Teple","latitude":48.31245,"longitude":39.56284},{"id":110618,"name":"Toshkivka","latitude":48.77914,"longitude":38.57903},{"id":110625,"name":"Tr’okhizbenka","latitude":48.75751,"longitude":38.96333},{"id":110657,"name":"Uralo-Kavkaz","latitude":48.3211,"longitude":39.80302},{"id":110661,"name":"Uspenka","latitude":48.39077,"longitude":39.16284},{"id":110812,"name":"Zalesnoye","latitude":48.03104,"longitude":38.80934},{"id":110866,"name":"Zoryns’k","latitude":48.41194,"longitude":38.62361},{"id":110871,"name":"Zymohiria","latitude":48.58528,"longitude":38.9375}]