[{"id":21799,"name":"Ángeles","latitude":9.99591,"longitude":-84.05126},{"id":21649,"name":"Barva","latitude":10.08333,"longitude":-84.1},{"id":21652,"name":"Belén","latitude":9.98333,"longitude":-84.16667},{"id":21679,"name":"Flores","latitude":10.0,"longitude":-84.15},{"id":21690,"name":"Heredia","latitude":10.00236,"longitude":-84.11651},{"id":21696,"name":"La Asunción","latitude":9.97961,"longitude":-84.17281},{"id":21704,"name":"Llorente","latitude":9.99844,"longitude":-84.15448},{"id":21708,"name":"Mercedes","latitude":10.00695,"longitude":-84.13396},{"id":21746,"name":"San Antonio","latitude":9.98333,"longitude":-84.18333},{"id":21750,"name":"San Francisco","latitude":9.99299,"longitude":-84.12934},{"id":21753,"name":"San Isidro","latitude":10.03333,"longitude":-84.03333},{"id":21754,"name":"San Josecito","latitude":10.01667,"longitude":-84.1},{"id":21763,"name":"San Pablo","latitude":10.0,"longitude":-84.08333},{"id":21767,"name":"San Rafael","latitude":10.05,"longitude":-84.06667},{"id":21775,"name":"Santa Bárbara","latitude":10.08333,"longitude":-84.15},{"id":21779,"name":"Santo Domingo","latitude":10.06389,"longitude":-84.15499},{"id":21780,"name":"Sarapiquí","latitude":10.5,"longitude":-84.0}]