[{"id":9834,"name":"Bermejo","latitude":-22.73206,"longitude":-64.33724},{"id":9862,"name":"Entre Ríos","latitude":-21.52661,"longitude":-64.17299},{"id":9903,"name":"Provincia Arce","latitude":-22.16667,"longitude":-64.33333},{"id":9907,"name":"Provincia Avilez","latitude":-21.66667,"longitude":-65.0},{"id":9919,"name":"Provincia Cercado","latitude":-21.58333,"longitude":-64.58333},{"id":9934,"name":"Provincia Gran Chaco","latitude":-21.66667,"longitude":-63.0},{"id":9959,"name":"Provincia Méndez","latitude":-21.16667,"longitude":-64.91667},{"id":9967,"name":"Provincia O’Connor","latitude":-21.58333,"longitude":-64.16667},{"id":10035,"name":"Tarija","latitude":-21.53549,"longitude":-64.72956},{"id":10047,"name":"Villamontes","latitude":-21.26235,"longitude":-63.46903},{"id":10051,"name":"Yacuiba","latitude":-22.01643,"longitude":-63.67753}]