[{"id":141,"name":"‘Alāqahdārī Dīshū","latitude":30.43206,"longitude":63.29802},{"id":70,"name":"Gereshk","latitude":31.82089,"longitude":64.57005},{"id":93,"name":"Lashkar Gāh","latitude":31.59382,"longitude":64.37161},{"id":95,"name":"Markaz-e Ḩukūmat-e Darwēshān","latitude":31.13231,"longitude":64.1934},{"id":118,"name":"Sangīn","latitude":32.07275,"longitude":64.8359}]