[{"id":52223,"name":"Baro Kunda","latitude":13.48333,"longitude":-15.26667},{"id":52229,"name":"Bureng","latitude":13.41667,"longitude":-15.28333},{"id":52253,"name":"Jali","latitude":13.35,"longitude":-15.96667},{"id":52255,"name":"Jarra Central","latitude":13.41667,"longitude":-15.41667},{"id":52256,"name":"Jarra East","latitude":13.41667,"longitude":-15.25},{"id":52257,"name":"Jarra West","latitude":13.41667,"longitude":-15.53333},{"id":52259,"name":"Jenoi","latitude":13.48333,"longitude":-15.56667},{"id":52260,"name":"Jifarong","latitude":13.3,"longitude":-15.86667},{"id":52262,"name":"Kaiaf","latitude":13.4,"longitude":-15.61667},{"id":52264,"name":"Karantaba","latitude":13.43333,"longitude":-15.51667},{"id":52268,"name":"Keneba","latitude":13.32889,"longitude":-16.015},{"id":52270,"name":"Kiang Central","latitude":13.4,"longitude":-15.75},{"id":52271,"name":"Kiang East","latitude":13.41667,"longitude":-15.63333},{"id":52272,"name":"Kiang West District","latitude":13.33333,"longitude":-16.0},{"id":52286,"name":"Mansa Konko","latitude":13.44325,"longitude":-15.5357},{"id":52291,"name":"Nioro","latitude":13.35,"longitude":-15.75},{"id":52301,"name":"Sankwia","latitude":13.46667,"longitude":-15.51667},{"id":52305,"name":"Si Kunda","latitude":13.43333,"longitude":-15.56667},{"id":52306,"name":"Soma","latitude":13.43333,"longitude":-15.53333},{"id":52313,"name":"Sutukung","latitude":13.46667,"longitude":-15.26667},{"id":52314,"name":"Toniataba","latitude":13.43333,"longitude":-15.58333},{"id":52319,"name":"Wellingara Ba","latitude":13.41667,"longitude":-15.4}]