[{"id":8207,"name":"Çatax","latitude":40.72622,"longitude":45.55919},{"id":8209,"name":"Çobansığnaq","latitude":40.75244,"longitude":45.70645},{"id":8076,"name":"Dondar Quşçu","latitude":40.9539,"longitude":45.61942},{"id":8139,"name":"Qaraxanlı","latitude":41.04358,"longitude":45.65527},{"id":8183,"name":"Tovuz","latitude":40.99249,"longitude":45.62838},{"id":8193,"name":"Yanıqlı","latitude":40.8432,"longitude":45.6803}]