[{"id":17388,"name":"Altdorf","latitude":46.88042,"longitude":8.64441},{"id":17397,"name":"Andermatt","latitude":46.63565,"longitude":8.59388},{"id":17416,"name":"Attinghausen","latitude":46.86255,"longitude":8.63036},{"id":17444,"name":"Bauen","latitude":46.93559,"longitude":8.57836},{"id":17602,"name":"Bürglen","latitude":46.87565,"longitude":8.66539},{"id":17768,"name":"Erstfeld","latitude":46.81885,"longitude":8.65052},{"id":17796,"name":"Flüelen","latitude":46.90478,"longitude":8.62396},{"id":18458,"name":"Schattdorf","latitude":46.8655,"longitude":8.65465},{"id":18492,"name":"Seedorf","latitude":46.88199,"longitude":8.61611},{"id":18521,"name":"Silenen","latitude":46.7891,"longitude":8.67325}]