[{"id":97892,"name":"Berendeyevo","latitude":56.60078,"longitude":39.02173},{"id":98006,"name":"Bol’shesel’skiy Rayon","latitude":57.66667,"longitude":39.0},{"id":98016,"name":"Bol’shoye Selo","latitude":57.71774,"longitude":38.93341},{"id":98025,"name":"Borisoglebskiy","latitude":57.2586,"longitude":39.1508},{"id":98026,"name":"Borisoglebskiy Rayon","latitude":57.33333,"longitude":39.0},{"id":98033,"name":"Borok","latitude":58.06532,"longitude":38.2362},{"id":98055,"name":"Breytovo","latitude":58.29925,"longitude":37.86172},{"id":98056,"name":"Breytovskiy Rayon","latitude":58.25,"longitude":37.75},{"id":98084,"name":"Burmakino","latitude":57.41663,"longitude":40.23687},{"id":98241,"name":"Danilov","latitude":58.1908,"longitude":40.17171},{"id":98242,"name":"Danilovskiy Rayon","latitude":58.16667,"longitude":40.08333},{"id":98336,"name":"Dubki","latitude":57.3,"longitude":40.25},{"id":98462,"name":"Gavrilov-Yam","latitude":57.30185,"longitude":39.85331},{"id":98463,"name":"Gavrilov-Yamskiy Rayon","latitude":57.33333,"longitude":39.75},{"id":98709,"name":"Ishnya","latitude":57.1907,"longitude":39.36004},{"id":99192,"name":"Konstantinovskiy","latitude":57.83005,"longitude":39.58989},{"id":99372,"name":"Krasnyy Profintern","latitude":57.74459,"longitude":40.43501},{"id":99384,"name":"Krasnyye Tkachi","latitude":57.49259,"longitude":39.75629},{"id":99427,"name":"Kukoboy","latitude":58.70089,"longitude":39.91427},{"id":99455,"name":"Kurba","latitude":57.56097,"longitude":39.4981},{"id":99611,"name":"Levashevo","latitude":57.64451,"longitude":40.52401},{"id":99715,"name":"Lyubim","latitude":58.3625,"longitude":40.68433},{"id":99716,"name":"Lyubimskiy Rayon","latitude":58.33333,"longitude":40.75},{"id":100030,"name":"Myshkin","latitude":57.78973,"longitude":38.45448},{"id":100031,"name":"Myshkinskiy Rayon","latitude":57.83333,"longitude":38.41667},{"id":100090,"name":"Nekouzskiy Rayon","latitude":58.0,"longitude":38.0},{"id":100095,"name":"Nekrasovskiy Rayon","latitude":57.66667,"longitude":40.41667},{"id":100096,"name":"Nekrasovskoye","latitude":57.67663,"longitude":40.36567},{"id":100347,"name":"Novyy Nekouz","latitude":57.90286,"longitude":38.07004},{"id":100604,"name":"Pereslavl’-Zalesskiy","latitude":56.73934,"longitude":38.85626},{"id":100605,"name":"Pereslavskiy Rayon","latitude":56.75,"longitude":38.83333},{"id":100622,"name":"Pervomayskiy Rayon","latitude":58.66667,"longitude":39.75},{"id":100636,"name":"Pesochnoye","latitude":58.00597,"longitude":39.17717},{"id":100659,"name":"Petrovsk","latitude":57.01039,"longitude":39.26928},{"id":100774,"name":"Porech’ye-Rybnoye","latitude":57.09805,"longitude":39.38354},{"id":100785,"name":"Poshekhon’ye","latitude":58.49928,"longitude":39.13531},{"id":100784,"name":"Poshekhonskiy Rayon","latitude":58.66667,"longitude":39.08333},{"id":100807,"name":"Prechistoye","latitude":58.42068,"longitude":40.34017},{"id":101006,"name":"Rostov","latitude":57.1914,"longitude":39.41394},{"id":101009,"name":"Rostovskiy Rayon","latitude":57.16667,"longitude":39.5},{"id":101048,"name":"Rybinsk","latitude":58.0446,"longitude":38.84259},{"id":101049,"name":"Rybinskiy Rayon","latitude":58.0,"longitude":39.0},{"id":101162,"name":"Semibratovo","latitude":57.30461,"longitude":39.53688},{"id":101646,"name":"Sudoverf’","latitude":58.11696,"longitude":38.64175},{"id":101971,"name":"Tunoshna","latitude":57.54589,"longitude":40.12543},{"id":101984,"name":"Tutayev","latitude":57.88529,"longitude":39.5406},{"id":101985,"name":"Tutayevskiy Rayon","latitude":57.91667,"longitude":39.58333},{"id":102034,"name":"Uglich","latitude":57.5275,"longitude":38.33167},{"id":102035,"name":"Uglichskiy Rayon","latitude":57.5,"longitude":38.41667},{"id":102342,"name":"Volga","latitude":57.95157,"longitude":38.38785},{"id":102499,"name":"Yaroslavl","latitude":57.62987,"longitude":39.87368},{"id":102503,"name":"Yaroslavskiy Rayon","latitude":57.58333,"longitude":40.0}]