[{"id":77164,"name":"Catarina","latitude":11.91197,"longitude":-86.07383},{"id":77200,"name":"La Concepción","latitude":11.93711,"longitude":-86.18976},{"id":77215,"name":"Masatepe","latitude":11.91445,"longitude":-86.14458},{"id":77216,"name":"Masaya","latitude":11.97444,"longitude":-86.09417},{"id":77226,"name":"Municipio de Masatepe","latitude":11.90567,"longitude":-86.14946},{"id":77228,"name":"Municipio de Nandasmo","latitude":11.93333,"longitude":-86.11667},{"id":77229,"name":"Municipio de Niquinohomo","latitude":11.88228,"longitude":-86.10035},{"id":77234,"name":"Municipio de San Juan de Oriente","latitude":11.90517,"longitude":-86.0746},{"id":77241,"name":"Nandasmo","latitude":11.92411,"longitude":-86.12072},{"id":77242,"name":"Nindirí","latitude":12.00386,"longitude":-86.12128},{"id":77243,"name":"Niquinohomo","latitude":11.90518,"longitude":-86.09446},{"id":77262,"name":"San Juan de Oriente","latitude":11.90624,"longitude":-86.07343},{"id":77288,"name":"Tisma","latitude":12.08194,"longitude":-86.01739}]