[{"id":9255,"name":"Antonovo","latitude":43.15,"longitude":26.16667},{"id":9415,"name":"Obshtina Antonovo","latitude":43.11667,"longitude":26.2},{"id":9543,"name":"Obshtina Omurtag","latitude":43.08333,"longitude":26.48333},{"id":9544,"name":"Obshtina Opaka","latitude":43.46667,"longitude":26.15},{"id":9561,"name":"Obshtina Popovo","latitude":43.35,"longitude":26.23333},{"id":9610,"name":"Obshtina Targovishte","latitude":43.25,"longitude":26.56667},{"id":9641,"name":"Omurtag","latitude":43.1,"longitude":26.41667},{"id":9642,"name":"Opaka","latitude":43.45,"longitude":26.16667},{"id":9659,"name":"Popovo","latitude":43.35,"longitude":26.23333},{"id":9719,"name":"Targovishte","latitude":43.2512,"longitude":26.57215}]