[{"id":8044,"name":"Arıqdam","latitude":40.59313,"longitude":45.799},{"id":8045,"name":"Arıqıran","latitude":40.53971,"longitude":45.61414},{"id":8067,"name":"Böyük Qaramurad","latitude":40.57626,"longitude":45.63727},{"id":8105,"name":"Kyadabek","latitude":40.57055,"longitude":45.81229},{"id":8124,"name":"Novosaratovka","latitude":40.59811,"longitude":45.60079}]