[{"id":67588,"name":"Banamba","latitude":13.54773,"longitude":-7.44808},{"id":67606,"name":"Kangaba","latitude":11.93333,"longitude":-8.41667},{"id":67607,"name":"Kati","latitude":12.74409,"longitude":-8.07257},{"id":67613,"name":"Kolokani","latitude":13.5728,"longitude":-8.0339},{"id":67615,"name":"Koulikoro","latitude":12.86273,"longitude":-7.55985}]