[{"id":76758,"name":"Ago Are","latitude":8.5,"longitude":3.41667},{"id":76766,"name":"Alapa","latitude":8.61667,"longitude":4.38333},{"id":76868,"name":"Fiditi","latitude":7.71361,"longitude":3.91722},{"id":76906,"name":"Ibadan","latitude":7.37756,"longitude":3.90591},{"id":76918,"name":"Igbeti","latitude":8.74921,"longitude":4.13113},{"id":76919,"name":"Igbo-Ora","latitude":7.43383,"longitude":3.28788},{"id":76921,"name":"Igboho","latitude":8.83784,"longitude":3.75628},{"id":76984,"name":"Kisi","latitude":9.08297,"longitude":3.85196},{"id":77004,"name":"Lalupon","latitude":7.46791,"longitude":4.06594},{"id":77053,"name":"Ogbomoso","latitude":8.13373,"longitude":4.24014},{"id":77060,"name":"Okeho","latitude":8.03386,"longitude":3.34759},{"id":77072,"name":"Orita Eruwa","latitude":7.55,"longitude":3.43333},{"id":77082,"name":"Oyo","latitude":7.85257,"longitude":3.93125},{"id":77096,"name":"Saki","latitude":8.66762,"longitude":3.39393}]