[{"id":89718,"name":"Altos","latitude":-25.26263,"longitude":-57.25443},{"id":89722,"name":"Arroyos y Esteros","latitude":-25.05478,"longitude":-57.09873},{"id":89723,"name":"Atyrá","latitude":-25.27876,"longitude":-57.17192},{"id":89729,"name":"Caacupé","latitude":-25.38575,"longitude":-57.14217},{"id":89738,"name":"Caraguatay","latitude":-25.23844,"longitude":-56.82693},{"id":89762,"name":"Emboscada","latitude":-25.15,"longitude":-57.35},{"id":89764,"name":"Eusebio Ayala","latitude":-25.38276,"longitude":-56.96088},{"id":89779,"name":"Isla Pucú","latitude":-25.30853,"longitude":-56.89986},{"id":89780,"name":"Itacurubí de la Cordillera","latitude":-25.46158,"longitude":-56.85333},{"id":89811,"name":"Piribebuy","latitude":-25.46498,"longitude":-57.04183},{"id":89820,"name":"San Bernardino","latitude":-25.31067,"longitude":-57.29628},{"id":89833,"name":"Santa Elena","latitude":-25.41327,"longitude":-56.79708},{"id":89840,"name":"Tobatí","latitude":-25.26111,"longitude":-57.08329}]