[{"id":21641,"name":"Abangares","latitude":10.21667,"longitude":-85.0},{"id":21648,"name":"Bagaces","latitude":10.5,"longitude":-85.25},{"id":21651,"name":"Belén","latitude":10.40789,"longitude":-85.58836},{"id":21660,"name":"Cañas","latitude":10.48005,"longitude":-85.11349},{"id":21657,"name":"Carrillo","latitude":10.41667,"longitude":-85.58333},{"id":21680,"name":"Fortuna","latitude":10.67384,"longitude":-85.19984},{"id":21691,"name":"Hojancha","latitude":9.96667,"longitude":-85.41667},{"id":21695,"name":"Juntas","latitude":10.28089,"longitude":-84.95951},{"id":21697,"name":"La Cruz","latitude":11.0,"longitude":-85.58333},{"id":21702,"name":"Liberia","latitude":10.63504,"longitude":-85.43772},{"id":21714,"name":"Nandayure","latitude":9.91667,"longitude":-85.28333},{"id":21716,"name":"Nicoya","latitude":10.08333,"longitude":-85.5},{"id":21784,"name":"Sámara","latitude":9.88147,"longitude":-85.52809},{"id":21776,"name":"Santa Cruz","latitude":10.25,"longitude":-85.66667},{"id":21781,"name":"Sardinal","latitude":10.51674,"longitude":-85.64748},{"id":21789,"name":"Tilarán","latitude":10.45878,"longitude":-84.97513}]