[{"id":109070,"name":"Geiro","latitude":-6.15,"longitude":36.86667},{"id":109073,"name":"Ifakara","latitude":-8.13333,"longitude":36.68333},{"id":109106,"name":"Kidatu","latitude":-7.69916,"longitude":36.95722},{"id":109107,"name":"Kidodi","latitude":-7.60361,"longitude":37.00438},{"id":109115,"name":"Kilosa","latitude":-6.83333,"longitude":36.98333},{"id":109116,"name":"Kimamba","latitude":-6.78333,"longitude":37.13333},{"id":109123,"name":"Kisanga","latitude":-7.43622,"longitude":37.70337},{"id":109149,"name":"Lupiro","latitude":-8.38333,"longitude":36.66667},{"id":109155,"name":"Magole","latitude":-6.37697,"longitude":37.37373},{"id":109160,"name":"Mahenge","latitude":-8.68333,"longitude":36.71667},{"id":109170,"name":"Malinyi","latitude":-8.93333,"longitude":36.13333},{"id":109197,"name":"Mikumi","latitude":-7.40409,"longitude":36.98309},{"id":109206,"name":"Mlimba","latitude":-8.8,"longitude":35.81667},{"id":109208,"name":"Morogoro","latitude":-6.82102,"longitude":37.66122},{"id":109213,"name":"Msowero","latitude":-6.53333,"longitude":37.2},{"id":109216,"name":"Mtimbira","latitude":-8.78333,"longitude":36.35},{"id":109228,"name":"Mvomero District","latitude":-6.3,"longitude":37.45},{"id":109252,"name":"Ngerengere","latitude":-6.75,"longitude":38.11667}]