[{"id":76744,"name":"Aba","latitude":5.10658,"longitude":7.36667},{"id":76769,"name":"Amaigbo","latitude":5.78917,"longitude":7.83829},{"id":76779,"name":"Arochukwu","latitude":5.38941,"longitude":7.91235},{"id":76799,"name":"Bende","latitude":5.55874,"longitude":7.63359},{"id":77057,"name":"Ohafia-Ifigh","latitude":5.61455,"longitude":7.81191},{"id":77125,"name":"Umuahia","latitude":5.52491,"longitude":7.49461}]