[{"id":104017,"name":"Åsbro","latitude":59.0,"longitude":15.05},{"id":103019,"name":"Askersund","latitude":58.87988,"longitude":14.9023},{"id":103115,"name":"Degerfors","latitude":59.23797,"longitude":14.43077},{"id":103131,"name":"Ekeby-Almby","latitude":59.26,"longitude":15.33},{"id":103163,"name":"Fellingsbro","latitude":59.43333,"longitude":15.58333},{"id":103170,"name":"Fjugesta","latitude":59.17375,"longitude":14.87227},{"id":103187,"name":"Frövi","latitude":59.46667,"longitude":15.36667},{"id":103204,"name":"Garphyttan","latitude":59.30429,"longitude":14.94623},{"id":103316,"name":"Hällabrottet","latitude":59.11667,"longitude":15.2},{"id":103318,"name":"Hällefors","latitude":59.78388,"longitude":14.52197},{"id":103253,"name":"Hallsberg","latitude":59.06463,"longitude":15.10993},{"id":103302,"name":"Hovsta","latitude":59.35,"longitude":15.21667},{"id":103379,"name":"Karlskoga","latitude":59.32667,"longitude":14.52386},{"id":103409,"name":"Kopparberg","latitude":59.87597,"longitude":14.99436},{"id":103420,"name":"Kumla","latitude":59.1277,"longitude":15.14341},{"id":103453,"name":"Laxå","latitude":58.9863,"longitude":14.61904},{"id":103469,"name":"Lindesberg","latitude":59.59202,"longitude":15.2304},{"id":103577,"name":"Nora","latitude":59.51926,"longitude":15.03979},{"id":103609,"name":"Odensbacken","latitude":59.16667,"longitude":15.53333},{"id":104034,"name":"Örebro","latitude":59.27412,"longitude":15.2066},{"id":103640,"name":"Pålsboda","latitude":59.06565,"longitude":15.33747},{"id":103723,"name":"Sköllersta","latitude":59.13738,"longitude":15.3394},{"id":103770,"name":"Storå","latitude":59.71409,"longitude":15.13169},{"id":103955,"name":"Vintrosa","latitude":59.25,"longitude":14.95}]