[{"id":66602,"name":"Gelgaudiškis","latitude":55.07688,"longitude":22.97699},{"id":66612,"name":"Kalvarija","latitude":54.417,"longitude":23.223},{"id":66613,"name":"Kalvarija Municipality","latitude":54.41468,"longitude":23.22484},{"id":66617,"name":"Kazlų Rūda","latitude":54.749,"longitude":23.49},{"id":66618,"name":"Kazlų Rūda Municipality","latitude":54.74751,"longitude":23.49272},{"id":66623,"name":"Kudirkos Naumiestis","latitude":54.77353,"longitude":22.86138},{"id":66628,"name":"Kybartai","latitude":54.63858,"longitude":22.76316},{"id":66634,"name":"Marijampolė","latitude":54.55991,"longitude":23.35412},{"id":66635,"name":"Marijampolė Municipality","latitude":54.56667,"longitude":23.35},{"id":66672,"name":"Sakiai","latitude":54.95,"longitude":23.05},{"id":66699,"name":"Vilkaviskis","latitude":54.65167,"longitude":23.03222},{"id":66700,"name":"Vilkaviškis District Municipality","latitude":54.65,"longitude":23.03333},{"id":66705,"name":"Virbalis","latitude":54.62858,"longitude":22.82272}]