[{"id":88953,"name":"Alter do Chão","latitude":39.23098,"longitude":-7.7443},{"id":88995,"name":"Arronches","latitude":39.12242,"longitude":-7.28619},{"id":88999,"name":"Atalaia","latitude":39.45551,"longitude":-7.87295},{"id":89008,"name":"Avis","latitude":39.06448,"longitude":-7.8956},{"id":89078,"name":"Campo Maior","latitude":39.02935,"longitude":-7.06479},{"id":89107,"name":"Castelo de Vide","latitude":39.41624,"longitude":-7.4568},{"id":89134,"name":"Crato","latitude":39.28657,"longitude":-7.64408},{"id":89142,"name":"Elvas","latitude":38.8815,"longitude":-7.16282},{"id":89195,"name":"Fronteira","latitude":39.07179,"longitude":-7.61052},{"id":89208,"name":"Gavião","latitude":39.44462,"longitude":-7.89532},{"id":89282,"name":"Marvão","latitude":39.39377,"longitude":-7.37663},{"id":89314,"name":"Monforte","latitude":39.0496,"longitude":-7.44428},{"id":89319,"name":"Montargil","latitude":39.07771,"longitude":-8.17044},{"id":89347,"name":"Nisa","latitude":39.51828,"longitude":-7.67496},{"id":89418,"name":"Ponte de Sor","latitude":39.21441,"longitude":-8.0542},{"id":89422,"name":"Portalegre","latitude":39.2974,"longitude":-7.41538},{"id":89513,"name":"Santo André","latitude":39.05532,"longitude":-8.24414},{"id":89553,"name":"Sousel","latitude":38.96685,"longitude":-7.71788},{"id":89624,"name":"Vale da Amoreira","latitude":39.06969,"longitude":-7.69849}]