[{"id":10072,"name":"Acari","latitude":-6.38547,"longitude":-36.63908},{"id":10464,"name":"Açu","latitude":-5.57667,"longitude":-36.90861},{"id":10086,"name":"Afonso Bezerra","latitude":-5.43183,"longitude":-36.65619},{"id":15662,"name":"Água Nova","latitude":-6.21312,"longitude":-38.30634},{"id":10128,"name":"Alexandria","latitude":-6.39998,"longitude":-37.96862},{"id":10143,"name":"Almino Afonso","latitude":-6.16686,"longitude":-37.77116},{"id":10185,"name":"Alto do Rodrigues","latitude":-5.34902,"longitude":-36.79683},{"id":10256,"name":"Angicos","latitude":-5.67403,"longitude":-36.54881},{"id":10278,"name":"Antônio Martins","latitude":-6.20609,"longitude":-37.92136},{"id":10297,"name":"Apodi","latitude":-5.6669,"longitude":-37.92339},{"id":10384,"name":"Areia Branca","latitude":-4.95611,"longitude":-37.13694},{"id":10422,"name":"Arês","latitude":-6.19444,"longitude":-35.16028},{"id":10445,"name":"Augusto Severo","latitude":-5.90516,"longitude":-37.30121},{"id":10588,"name":"Baía Formosa","latitude":-6.43006,"longitude":-35.0505},{"id":10506,"name":"Baraúna","latitude":-4.97189,"longitude":-37.52234},{"id":10512,"name":"Barcelona","latitude":-5.94268,"longitude":-35.92019},{"id":10628,"name":"Bento Fernandes","latitude":-5.63426,"longitude":-35.81702},{"id":10687,"name":"Bodó","latitude":-5.9339,"longitude":-36.39716},{"id":10699,"name":"Bom Jesus","latitude":-6.00882,"longitude":-35.58384},{"id":10785,"name":"Brejinho","latitude":-6.19083,"longitude":-35.35667},{"id":10909,"name":"Caiçara do Norte","latitude":-5.1753,"longitude":-36.08369},{"id":10910,"name":"Caiçara do Rio do Vento","latitude":-5.80605,"longitude":-36.02549},{"id":10903,"name":"Caicó","latitude":-6.45833,"longitude":-37.09778},{"id":11002,"name":"Campo Redondo","latitude":-6.24582,"longitude":-36.21969},{"id":11042,"name":"Canguaretama","latitude":-6.38,"longitude":-35.12889},{"id":11117,"name":"Caraúbas","latitude":-5.7925,"longitude":-37.55667},{"id":11158,"name":"Carnaúba dos Dantas","latitude":-6.56162,"longitude":-36.52903},{"id":11154,"name":"Carnaubais","latitude":-5.26459,"longitude":-36.79459},{"id":11226,"name":"Ceará Mirim","latitude":-5.63444,"longitude":-35.42556},{"id":11227,"name":"Ceará-Mirim","latitude":-5.55046,"longitude":-35.37667},{"id":11251,"name":"Cerro Corá","latitude":-6.04556,"longitude":-36.34583},{"id":11418,"name":"Coronel Ezequiel","latitude":-6.31992,"longitude":-36.22997},{"id":11422,"name":"Coronel João Pessoa","latitude":-6.26217,"longitude":-38.4173},{"id":11501,"name":"Cruzeta","latitude":-6.32021,"longitude":-36.84725},{"id":11528,"name":"Currais Novos","latitude":-6.21399,"longitude":-36.484},{"id":11659,"name":"Doutor Severiano","latitude":-6.11208,"longitude":-38.3966},{"id":11695,"name":"Encanto","latitude":-6.11638,"longitude":-38.31133},{"id":11714,"name":"Equador","latitude":-6.88585,"longitude":-36.66174},{"id":11739,"name":"Espírito Santo","latitude":-6.28385,"longitude":-35.32578},{"id":11768,"name":"Extremoz","latitude":-5.69421,"longitude":-35.25248},{"id":11795,"name":"Felipe Guerra","latitude":-5.53917,"longitude":-37.64271},{"id":11805,"name":"Fernando Pedroza","latitude":-5.7202,"longitude":-36.39743},{"id":11844,"name":"Florânia","latitude":-6.15287,"longitude":-36.80058},{"id":11880,"name":"Francisco Dantas","latitude":-6.01644,"longitude":-38.12624},{"id":11903,"name":"Frutuoso Gomes","latitude":-6.16261,"longitude":-37.8443},{"id":11913,"name":"Galinhos","latitude":-5.12167,"longitude":-36.26313},{"id":11959,"name":"Goianinha","latitude":-6.26977,"longitude":-35.18265},{"id":11980,"name":"Governador Dix Sept Rosado","latitude":-5.45889,"longitude":-37.52083},{"id":11981,"name":"Governador Dix-Sept Rosado","latitude":-5.40874,"longitude":-37.51194},{"id":12006,"name":"Grossos","latitude":-4.95242,"longitude":-37.20023},{"id":12022,"name":"Guamaré","latitude":-5.13423,"longitude":-36.31854},{"id":12175,"name":"Ielmo Marinho","latitude":-5.76778,"longitude":-35.52812},{"id":12262,"name":"Ipanguaçu","latitude":-5.49833,"longitude":-36.855},{"id":12291,"name":"Ipueira","latitude":-6.78038,"longitude":-37.14971},{"id":12372,"name":"Itajá","latitude":-5.69944,"longitude":-36.79373},{"id":12468,"name":"Itaú","latitude":-5.8419,"longitude":-37.9249},{"id":12607,"name":"Jaçanã","latitude":-6.41673,"longitude":-36.19402},{"id":12558,"name":"Jandaíra","latitude":-5.37894,"longitude":-36.09833},{"id":12561,"name":"Janduís","latitude":-5.93587,"longitude":-37.51496},{"id":12565,"name":"Januário Cicco","latitude":-6.15714,"longitude":-35.61758},{"id":12570,"name":"Japi","latitude":-6.43798,"longitude":-35.92194},{"id":12588,"name":"Jardim de Angicos","latitude":-5.63861,"longitude":-35.95027},{"id":12589,"name":"Jardim de Piranhas","latitude":-6.37861,"longitude":-37.35194},{"id":12591,"name":"Jardim do Seridó","latitude":-6.58444,"longitude":-36.77444},{"id":12659,"name":"João Câmara","latitude":-5.56075,"longitude":-35.81502},{"id":12660,"name":"João Dias","latitude":-6.28506,"longitude":-37.79365},{"id":12654,"name":"José da Penha","latitude":-6.32865,"longitude":-38.3203},{"id":12677,"name":"Jucurutu","latitude":-6.03389,"longitude":-37.02028},{"id":12687,"name":"Jundiá","latitude":-6.25532,"longitude":-35.34358},{"id":12748,"name":"Lagoa d'Anta","latitude":-6.37037,"longitude":-35.63637},{"id":12754,"name":"Lagoa de Pedras","latitude":-6.16608,"longitude":-35.45319},{"id":12756,"name":"Lagoa de Velhos","latitude":-6.00816,"longitude":-35.82312},{"id":12741,"name":"Lagoa Nova","latitude":-6.1102,"longitude":-36.54607},{"id":12743,"name":"Lagoa Salgada","latitude":-6.12321,"longitude":-35.49513},{"id":12784,"name":"Lajes","latitude":-5.78338,"longitude":-36.17286},{"id":12785,"name":"Lajes Pintadas","latitude":-6.12734,"longitude":-36.12516},{"id":12861,"name":"Lucrécia","latitude":-6.10358,"longitude":-37.82437},{"id":12882,"name":"Luís Gomes","latitude":-6.38626,"longitude":-38.41895},{"id":12893,"name":"Macaíba","latitude":-5.94094,"longitude":-35.39833},{"id":12890,"name":"Macau","latitude":-5.115,"longitude":-36.63444},{"id":12922,"name":"Major Sales","latitude":-6.40617,"longitude":-38.30965},{"id":12992,"name":"Marcelino Vieira","latitude":-6.32176,"longitude":-38.14275},{"id":13032,"name":"Martins","latitude":-6.09212,"longitude":-37.92472},{"id":13086,"name":"Maxaranguape","latitude":-5.46874,"longitude":-35.35657},{"id":13107,"name":"Messias Targino","latitude":-6.08097,"longitude":-37.48508},{"id":13184,"name":"Montanhas","latitude":-6.48583,"longitude":-35.2875},{"id":13186,"name":"Monte Alegre","latitude":-5.88972,"longitude":-36.30139},{"id":13213,"name":"Monte das Gameleiras","latitude":-6.43448,"longitude":-35.79888},{"id":13254,"name":"Mossoró","latitude":-5.1875,"longitude":-37.34417},{"id":13299,"name":"Natal","latitude":-5.8101,"longitude":-35.22674},{"id":13487,"name":"Nísia Floresta","latitude":-6.09111,"longitude":-35.20861},{"id":13371,"name":"Nova Cruz","latitude":-6.46807,"longitude":-35.45455},{"id":13500,"name":"Olho-d'Água do Borges","latitude":-5.99658,"longitude":-37.73631},{"id":13538,"name":"Ouro Branco","latitude":-6.65601,"longitude":-36.91455},{"id":13648,"name":"Paraná","latitude":-6.44702,"longitude":-38.2998},{"id":13665,"name":"Paraú","latitude":-5.73216,"longitude":-37.13664},{"id":13656,"name":"Parazinho","latitude":-5.27717,"longitude":-35.93239},{"id":13670,"name":"Parelhas","latitude":-6.68778,"longitude":-36.6575},{"id":13680,"name":"Parnamirim","latitude":-5.92446,"longitude":-35.20566},{"id":13688,"name":"Passa e Fica","latitude":-6.45302,"longitude":-35.62625},{"id":13691,"name":"Passagem","latitude":-6.27254,"longitude":-35.39534},{"id":13712,"name":"Patu","latitude":-6.12305,"longitude":-37.62573},{"id":13718,"name":"Pau dos Ferros","latitude":-6.11628,"longitude":-38.19653},{"id":13753,"name":"Pedra Grande","latitude":-5.09384,"longitude":-35.85092},{"id":13756,"name":"Pedra Preta","latitude":-5.52791,"longitude":-36.07481},{"id":13774,"name":"Pedro Avelino","latitude":-5.44022,"longitude":-36.3459},{"id":13783,"name":"Pedro Velho","latitude":-6.43917,"longitude":-35.22139},{"id":13794,"name":"Pendências","latitude":-5.26,"longitude":-36.72222},{"id":13842,"name":"Pilões","latitude":-6.28833,"longitude":-38.01911},{"id":14045,"name":"Poço Branco","latitude":-5.62278,"longitude":-35.66278},{"id":13986,"name":"Portalegre","latitude":-6.00548,"longitude":-38.00212},{"id":14027,"name":"Porto do Mangue","latitude":-5.07778,"longitude":-36.78375},{"id":14116,"name":"Pureza","latitude":-5.42517,"longitude":-35.59285},{"id":14165,"name":"Rafael Fernandes","latitude":-6.19713,"longitude":-38.19794},{"id":14166,"name":"Rafael Godeiro","latitude":-6.04885,"longitude":-37.73693},{"id":14211,"name":"Riacho da Cruz","latitude":-5.92628,"longitude":-37.97556},{"id":14214,"name":"Riacho de Santana","latitude":-6.28279,"longitude":-38.33135},{"id":14219,"name":"Riachuelo","latitude":-5.83598,"longitude":-35.88131},{"id":14312,"name":"Rio do Fogo","latitude":-5.38232,"longitude":-35.38379},{"id":14332,"name":"Rodolfo Fernandes","latitude":-5.85656,"longitude":-38.09336},{"id":14365,"name":"Ruy Barbosa","latitude":-5.88561,"longitude":-35.91551},{"id":14438,"name":"Santa Cruz","latitude":-6.22944,"longitude":-36.02278},{"id":14503,"name":"Santa Maria","latitude":-5.84531,"longitude":-35.71995},{"id":14588,"name":"Santana do Matos","latitude":-5.9575,"longitude":-36.65556},{"id":14593,"name":"Santana do Seridó","latitude":-6.75207,"longitude":-36.76599},{"id":14610,"name":"Santo Antônio","latitude":-6.31056,"longitude":-35.47889},{"id":14838,"name":"São Bento do Norte","latitude":-5.14414,"longitude":-35.9891},{"id":14842,"name":"São Bento do Trairí","latitude":-6.39968,"longitude":-36.0592},{"id":14877,"name":"São Fernando","latitude":-6.29726,"longitude":-37.13895},{"id":14895,"name":"São Francisco do Oeste","latitude":-5.96836,"longitude":-38.16251},{"id":14919,"name":"São Gonçalo do Amarante","latitude":-5.77241,"longitude":-35.33245},{"id":15043,"name":"São João do Sabugi","latitude":-6.6965,"longitude":-37.15433},{"id":14954,"name":"São José de Mipibu","latitude":-6.04284,"longitude":-35.30608},{"id":14965,"name":"São José do Campestre","latitude":-6.31556,"longitude":-35.71389},{"id":14987,"name":"São José do Seridó","latitude":-6.50251,"longitude":-36.85104},{"id":15078,"name":"São Miguel","latitude":-5.46667,"longitude":-35.36667},{"id":15089,"name":"São Miguel do Gostoso","latitude":-5.18658,"longitude":-35.71303},{"id":15104,"name":"São Paulo do Potengi","latitude":-5.88988,"longitude":-35.75325},{"id":15107,"name":"São Pedro","latitude":-5.85598,"longitude":-35.62554},{"id":15125,"name":"São Rafael","latitude":-5.85664,"longitude":-36.8952},{"id":15161,"name":"São Tomé","latitude":-5.9725,"longitude":-36.07528},{"id":15169,"name":"São Vicente","latitude":-6.2238,"longitude":-36.65694},{"id":14697,"name":"Senador Elói de Souza","latitude":-6.04008,"longitude":-35.65731},{"id":14699,"name":"Senador Georgino Avelino","latitude":-6.14835,"longitude":-35.13347},{"id":14726,"name":"Serra Caiada","latitude":-6.14234,"longitude":-35.66845},{"id":14737,"name":"Serra de São Bento","latitude":-6.43702,"longitude":-35.71194},{"id":14738,"name":"Serra do Mel","latitude":-5.12203,"longitude":-37.03121},{"id":14730,"name":"Serra Negra do Norte","latitude":-6.57598,"longitude":-37.39418},{"id":14752,"name":"Serrinha","latitude":-6.25327,"longitude":-35.59475},{"id":14753,"name":"Serrinha dos Pintos","latitude":-6.15256,"longitude":-37.9886},{"id":14769,"name":"Severiano Melo","latitude":-5.77722,"longitude":-37.95778},{"id":15177,"name":"Sítio Novo","latitude":-6.12604,"longitude":-35.97108},{"id":15189,"name":"Taboleiro Grande","latitude":-5.92608,"longitude":-38.05352},{"id":15204,"name":"Taipu","latitude":-5.51936,"longitude":-35.5813},{"id":15215,"name":"Tangará","latitude":-6.23847,"longitude":-35.79625},{"id":15274,"name":"Tenente Ananias","latitude":-6.46946,"longitude":-38.16177},{"id":15275,"name":"Tenente Laurentino Cruz","latitude":-6.14845,"longitude":-36.7224},{"id":15305,"name":"Tibau","latitude":-4.9115,"longitude":-37.31347},{"id":15306,"name":"Tibau do Sul","latitude":-6.18641,"longitude":-35.0905},{"id":15312,"name":"Timbaúba dos Batistas","latitude":-6.48262,"longitude":-37.23278},{"id":15343,"name":"Touros","latitude":-5.26111,"longitude":-35.60459},{"id":15365,"name":"Triunfo Potiguar","latitude":-5.94356,"longitude":-37.13994},{"id":15445,"name":"Umarizal","latitude":-6.00593,"longitude":-37.80698},{"id":15464,"name":"Upanema","latitude":-5.69921,"longitude":-37.26798},{"id":15614,"name":"Várzea","latitude":-6.35146,"longitude":-35.36839},{"id":15527,"name":"Venha-Ver","latitude":-6.34075,"longitude":-38.53731},{"id":15532,"name":"Vera Cruz","latitude":-6.03261,"longitude":-35.44416},{"id":15605,"name":"Viçosa","latitude":-5.9911,"longitude":-37.96495},{"id":15567,"name":"Vila Flor","latitude":-6.29375,"longitude":-35.08453}]