[{"id":52,"name":"Ashkāsham","latitude":36.68333,"longitude":71.53333},{"id":68,"name":"Fayzabad","latitude":37.11664,"longitude":70.58002},{"id":78,"name":"Jurm","latitude":36.86477,"longitude":70.83421},{"id":84,"name":"Khandūd","latitude":36.95127,"longitude":72.318},{"id":115,"name":"Rāghistān","latitude":37.66079,"longitude":70.67346},{"id":131,"name":"Wākhān","latitude":37.0571,"longitude":73.34928}]