[{"id":31929,"name":"Adamuz","latitude":38.02674,"longitude":-4.52231},{"id":151367,"name":"Aguilar de la Frontera","latitude":0.0,"longitude":0.0},{"id":32087,"name":"Alcaracejos","latitude":38.38333,"longitude":-4.96667},{"id":32277,"name":"Almedinilla","latitude":37.43902,"longitude":-4.09052},{"id":32295,"name":"Almodóvar del Río","latitude":37.8107,"longitude":-5.02037},{"id":32596,"name":"Añora","latitude":38.41667,"longitude":-4.9},{"id":32607,"name":"Baena","latitude":37.6167,"longitude":-4.32245},{"id":32734,"name":"Belalcázar","latitude":38.57566,"longitude":-5.16653},{"id":33059,"name":"Bélmez","latitude":38.26667,"longitude":-5.2},{"id":32771,"name":"Benamejí","latitude":37.26833,"longitude":-4.54123},{"id":151368,"name":"Blázquez Los","latitude":0.0,"longitude":0.0},{"id":33014,"name":"Bujalance","latitude":37.89556,"longitude":-4.38074},{"id":33098,"name":"Cabra","latitude":37.47249,"longitude":-4.44206},{"id":33540,"name":"Cañete de las Torres","latitude":37.86717,"longitude":-4.31835},{"id":33290,"name":"Carcabuey","latitude":37.4442,"longitude":-4.27471},{"id":33298,"name":"Cardeña","latitude":38.27023,"longitude":-4.32358},{"id":151369,"name":"Carlota La","latitude":0.0,"longitude":0.0},{"id":151370,"name":"Carpio El","latitude":0.0,"longitude":0.0},{"id":33491,"name":"Castro del Río","latitude":37.69125,"longitude":-4.48058},{"id":33762,"name":"Conquista","latitude":38.4,"longitude":-4.5},{"id":33904,"name":"Córdoba","latitude":37.89155,"longitude":-4.77275},{"id":33954,"name":"Doña Mencía","latitude":37.55346,"longitude":-4.35602},{"id":33950,"name":"Dos Torres","latitude":38.45,"longitude":-4.9},{"id":34047,"name":"Encinas Reales","latitude":37.27419,"longitude":-4.48828},{"id":34112,"name":"Espejo","latitude":37.6798,"longitude":-4.55355},{"id":34116,"name":"Espiel","latitude":38.2,"longitude":-5.01667},{"id":34175,"name":"Fernán-Núñez","latitude":37.67044,"longitude":-4.7264},{"id":34304,"name":"Fuente la Lancha","latitude":38.41667,"longitude":-5.03333},{"id":34292,"name":"Fuente Obejuna","latitude":38.26667,"longitude":-5.41667},{"id":34293,"name":"Fuente Palmera","latitude":37.70494,"longitude":-5.09965},{"id":34306,"name":"Fuente-Tójar","latitude":37.51095,"longitude":-4.14631},{"id":151371,"name":"Granjuela La","latitude":0.0,"longitude":0.0},{"id":34523,"name":"Guadalcázar","latitude":37.75738,"longitude":-4.94387},{"id":151372,"name":"Guijo El","latitude":0.0,"longitude":0.0},{"id":34627,"name":"Hinojosa del Duque","latitude":38.50057,"longitude":-5.14651},{"id":34660,"name":"Hornachuelos","latitude":37.83333,"longitude":-5.23333},{"id":34782,"name":"Iznájar","latitude":37.25766,"longitude":-4.30836},{"id":35149,"name":"Lucena","latitude":37.40881,"longitude":-4.48522},{"id":35169,"name":"Luque","latitude":37.55797,"longitude":-4.27974},{"id":35533,"name":"Montalbán de Córdoba","latitude":37.57996,"longitude":-4.74935},{"id":35558,"name":"Montemayor","latitude":37.6479,"longitude":-4.69779},{"id":35577,"name":"Montilla","latitude":37.58627,"longitude":-4.63805},{"id":35583,"name":"Montoro","latitude":38.02409,"longitude":-4.3834},{"id":35585,"name":"Monturque","latitude":37.47186,"longitude":-4.58164},{"id":35629,"name":"Moriles","latitude":37.4367,"longitude":-4.60761},{"id":151373,"name":"Nueva Carteya","latitude":0.0,"longitude":0.0},{"id":35853,"name":"Obejo","latitude":38.13265,"longitude":-4.80018},{"id":36024,"name":"Palenciana","latitude":37.24851,"longitude":-4.58261},{"id":36029,"name":"Palma del Río","latitude":37.70024,"longitude":-5.28121},{"id":36098,"name":"Pedro Abad","latitude":37.96686,"longitude":-4.4556},{"id":36102,"name":"Pedroche","latitude":38.42848,"longitude":-4.76325},{"id":36174,"name":"Peñarroya-Pueblonuevo","latitude":38.3,"longitude":-5.26667},{"id":36303,"name":"Posadas","latitude":37.80205,"longitude":-5.10726},{"id":36323,"name":"Pozoblanco","latitude":38.37906,"longitude":-4.84827},{"id":36354,"name":"Priego de Córdoba","latitude":37.43807,"longitude":-4.19523},{"id":151374,"name":"Puente Genil","latitude":0.0,"longitude":0.0},{"id":151375,"name":"Rambla La","latitude":0.0,"longitude":0.0},{"id":36706,"name":"Rute","latitude":37.3269,"longitude":-4.36827},{"id":36921,"name":"San Sebastián de los Ballesteros","latitude":37.65376,"longitude":-4.82409},{"id":37049,"name":"Santa Eufemia","latitude":38.6,"longitude":-4.9},{"id":37104,"name":"Santaella","latitude":37.56294,"longitude":-4.84362},{"id":37513,"name":"Torrecampo","latitude":38.46667,"longitude":-4.66667},{"id":37823,"name":"Valenzuela","latitude":37.7756,"longitude":-4.22038},{"id":151376,"name":"Valsequillo","latitude":0.0,"longitude":0.0},{"id":151377,"name":"Victoria La","latitude":0.0,"longitude":0.0},{"id":38014,"name":"Villa del Río","latitude":37.98108,"longitude":-4.29003},{"id":38056,"name":"Villafranca de Córdoba","latitude":37.96257,"longitude":-4.54547},{"id":38081,"name":"Villaharta","latitude":38.13333,"longitude":-4.9},{"id":38180,"name":"Villanueva de Córdoba","latitude":38.32277,"longitude":-4.62873},{"id":38217,"name":"Villanueva del Duque","latitude":38.38333,"longitude":-5.0},{"id":151378,"name":"Villanueva del Rey","latitude":0.0,"longitude":0.0},{"id":38264,"name":"Villaralto","latitude":38.45,"longitude":-4.98333},{"id":38356,"name":"Villaviciosa de Córdoba","latitude":38.08333,"longitude":-5.01667},{"id":151379,"name":"Viso El","latitude":0.0,"longitude":0.0},{"id":38507,"name":"Zuheros","latitude":37.54332,"longitude":-4.31531}]