[{"id":31480,"name":"Alfredo Baquerizo Moreno","latitude":-1.91667,"longitude":-79.51667},{"id":31488,"name":"Baláo","latitude":-2.911,"longitude":-79.81441},{"id":31487,"name":"Balzar","latitude":-1.36501,"longitude":-79.90494},{"id":31498,"name":"Colimes","latitude":-1.54553,"longitude":-80.01165},{"id":31499,"name":"Coronel Marcelino Maridueña","latitude":-2.20924,"longitude":-79.43248},{"id":31502,"name":"El Triunfo","latitude":-1.93333,"longitude":-79.96667},{"id":31504,"name":"Eloy Alfaro","latitude":-2.17579,"longitude":-79.85519},{"id":31511,"name":"Guayaquil","latitude":-2.19616,"longitude":-79.88621},{"id":31522,"name":"Lomas de Sargentillo","latitude":-1.88333,"longitude":-80.08333},{"id":31528,"name":"Milagro","latitude":-2.13404,"longitude":-79.59415},{"id":31532,"name":"Naranjal","latitude":-2.67364,"longitude":-79.6183},{"id":31533,"name":"Naranjito","latitude":-2.16671,"longitude":-79.4654},{"id":31539,"name":"Palestina","latitude":-1.93709,"longitude":-79.71396},{"id":31544,"name":"Pedro Carbo","latitude":-1.81563,"longitude":-80.23309},{"id":31548,"name":"Playas","latitude":-2.63199,"longitude":-80.38808},{"id":31566,"name":"Samborondón","latitude":-1.96276,"longitude":-79.72402},{"id":31575,"name":"Santa Lucía","latitude":-2.18333,"longitude":-80.0},{"id":31586,"name":"Velasco Ibarra","latitude":-1.04376,"longitude":-79.63837},{"id":31589,"name":"Yaguachi Nuevo","latitude":-2.0968,"longitude":-79.69485}]