[{"id":66455,"name":"Battaramulla South","latitude":6.8964,"longitude":79.9181},{"id":66459,"name":"Beruwala","latitude":6.4788,"longitude":79.9828},{"id":66461,"name":"Colombo","latitude":6.93548,"longitude":79.84868},{"id":66462,"name":"Colombo District","latitude":6.8664,"longitude":80.0166},{"id":66470,"name":"Gampaha","latitude":7.0897,"longitude":79.9925},{"id":66471,"name":"Gampaha District","latitude":7.1333,"longitude":80.0},{"id":66474,"name":"Hanwella Ihala","latitude":6.9012,"longitude":80.0852},{"id":66477,"name":"Hendala","latitude":6.9909,"longitude":79.883},{"id":66480,"name":"Horana South","latitude":6.7159,"longitude":80.0626},{"id":66481,"name":"Horawala Junction","latitude":6.48088,"longitude":80.12708},{"id":66482,"name":"Ja Ela","latitude":7.0744,"longitude":79.8919},{"id":66487,"name":"Kalutara","latitude":6.5831,"longitude":79.9593},{"id":66488,"name":"Kandana","latitude":7.048,"longitude":79.8937},{"id":66492,"name":"Katunayaka","latitude":7.16992,"longitude":79.88837},{"id":66495,"name":"Kelaniya","latitude":6.9553,"longitude":79.922},{"id":66500,"name":"Kotikawatta","latitude":6.9269,"longitude":79.9095},{"id":66510,"name":"Minuwangoda","latitude":7.1663,"longitude":79.9533},{"id":66515,"name":"Mulleriyawa","latitude":6.933,"longitude":79.9297},{"id":66516,"name":"Negombo","latitude":7.2083,"longitude":79.8358},{"id":66519,"name":"Panadura","latitude":6.7132,"longitude":79.9026},{"id":66520,"name":"Peliyagoda","latitude":6.9685,"longitude":79.8836},{"id":66521,"name":"Pita Kotte","latitude":6.8905,"longitude":79.9015},{"id":66530,"name":"Sri Jayewardenepura Kotte","latitude":6.88297,"longitude":79.90708},{"id":66541,"name":"Wattala","latitude":6.98918,"longitude":79.89167},{"id":66544,"name":"Welisara","latitude":7.0281,"longitude":79.9014}]