[{"id":79705,"name":"Banepā","latitude":27.63245,"longitude":85.52192},{"id":79707,"name":"Bharatpur","latitude":27.6768,"longitude":84.43589},{"id":79713,"name":"Birgañj","latitude":27.01709,"longitude":84.8808},{"id":79722,"name":"Dhulikhel","latitude":27.6221,"longitude":85.54281},{"id":79726,"name":"Gaur","latitude":26.76448,"longitude":85.27841},{"id":79728,"name":"Hari Bdr Tamang House","latitude":27.6289,"longitude":85.45893},{"id":79729,"name":"Hetauda","latitude":27.42839,"longitude":85.03219},{"id":79732,"name":"Jaleshwar","latitude":26.64921,"longitude":85.80017},{"id":79733,"name":"Janakpur","latitude":26.72882,"longitude":85.92628},{"id":79759,"name":"kankrabari Dovan","latitude":27.62881,"longitude":85.45934},{"id":79735,"name":"Kathmandu","latitude":27.70169,"longitude":85.3206},{"id":79737,"name":"Kirtipur","latitude":27.67872,"longitude":85.2775},{"id":79740,"name":"Madhyapur Thimi","latitude":27.68056,"longitude":85.3875},{"id":79742,"name":"Malaṅgawā","latitude":26.85658,"longitude":85.5594},{"id":79743,"name":"Nagarkot","latitude":27.71522,"longitude":85.52075},{"id":79746,"name":"Panauti","latitude":27.58466,"longitude":85.52122},{"id":79749,"name":"Pātan","latitude":27.67658,"longitude":85.31417},{"id":79751,"name":"Rāmechhāp","latitude":27.3256,"longitude":86.08768}]