[{"id":107085,"name":"Akkuş","latitude":40.81,"longitude":36.96},{"id":107144,"name":"Altınordu","latitude":40.94879,"longitude":37.79572},{"id":107219,"name":"Aybastı İlçesi","latitude":40.6969,"longitude":37.40794},{"id":108765,"name":"Çamaş","latitude":40.902,"longitude":37.52786},{"id":108790,"name":"Çatalpınar İlçesi","latitude":40.88678,"longitude":37.44329},{"id":108797,"name":"Çaybaşı İlçesi","latitude":41.02532,"longitude":37.10867},{"id":107633,"name":"Fatsa","latitude":41.02778,"longitude":37.50139},{"id":107697,"name":"Gölköy İlçesi","latitude":40.68726,"longitude":37.6166},{"id":107733,"name":"Gülyalı İlçesi","latitude":40.96682,"longitude":38.05679},{"id":107749,"name":"Gürgentepe","latitude":40.78567,"longitude":37.58969},{"id":108887,"name":"İkizce","latitude":41.05833,"longitude":37.08028},{"id":107855,"name":"Kabadüz","latitude":40.86096,"longitude":37.8847},{"id":107858,"name":"Kabataş","latitude":40.75,"longitude":37.45},{"id":108018,"name":"Korgan","latitude":40.82472,"longitude":37.34667},{"id":108052,"name":"Kumru","latitude":40.87444,"longitude":37.26389},{"id":108201,"name":"Mesudiye","latitude":40.45446,"longitude":37.77353},{"id":108271,"name":"Ordu","latitude":40.97782,"longitude":37.89047},{"id":108341,"name":"Perşembe","latitude":41.06556,"longitude":37.77139},{"id":108344,"name":"Piraziz İlçesi","latitude":40.95643,"longitude":38.11667},{"id":108622,"name":"Ulubey","latitude":40.86863,"longitude":37.75405},{"id":108872,"name":"Ünye İlçesi","latitude":41.13921,"longitude":37.27246}]