[{"id":149667,"name":"Ács","latitude":47.71,"longitude":18.01555556},{"id":149601,"name":"Aka","latitude":47.40206944,"longitude":18.07163056},{"id":149602,"name":"Almásfüzitő","latitude":47.7287,"longitude":18.25538889},{"id":149668,"name":"Ászár","latitude":47.5095,"longitude":18.00313889},{"id":149608,"name":"Bábolna","latitude":47.64166667,"longitude":17.97861111},{"id":149603,"name":"Bajót","latitude":47.72722222,"longitude":18.55583333},{"id":149604,"name":"Bakonybánk","latitude":47.46548056,"longitude":17.90243056},{"id":149606,"name":"Bakonysárkány","latitude":47.44851944,"longitude":18.09916111},{"id":149605,"name":"Bakonyszombathely","latitude":47.47208056,"longitude":17.96018056},{"id":149607,"name":"Bana","latitude":47.64986111,"longitude":17.92116944},{"id":149609,"name":"Bánhida","latitude":47.57111111,"longitude":18.38611111},{"id":149610,"name":"Bársonyos","latitude":47.5114,"longitude":17.91896944},{"id":149613,"name":"Császár","latitude":47.50203056,"longitude":18.14206111},{"id":149611,"name":"Csatka","latitude":47.38031944,"longitude":17.97628889},{"id":149614,"name":"Csém","latitude":47.68118056,"longitude":18.08686111},{"id":149615,"name":"Csép","latitude":47.57863056,"longitude":18.06365},{"id":149612,"name":"Csolnok","latitude":47.69346944,"longitude":18.71303889},{"id":149616,"name":"Dad","latitude":47.51881111,"longitude":18.22463056},{"id":149620,"name":"Dág","latitude":47.6625,"longitude":18.72},{"id":149621,"name":"Dömös","latitude":47.7648,"longitude":18.91436944},{"id":149617,"name":"Dorog","latitude":47.72095,"longitude":18.73641},{"id":149618,"name":"Dunaalmás","latitude":47.72961111,"longitude":18.3217},{"id":149619,"name":"Dunaszentmiklós","latitude":47.70566944,"longitude":18.37958056},{"id":149622,"name":"Epöl","latitude":47.64708056,"longitude":18.63558056},{"id":149623,"name":"Esztergom","latitude":47.78555556,"longitude":18.74027778},{"id":149624,"name":"Ete","latitude":47.53168889,"longitude":18.07201111},{"id":149625,"name":"Gyermely","latitude":47.59186944,"longitude":18.64178056},{"id":149626,"name":"Héreg","latitude":47.64703056,"longitude":18.51063889},{"id":149627,"name":"Kecskéd","latitude":47.52311111,"longitude":18.30683056},{"id":149628,"name":"Kerékteleki","latitude":47.51635,"longitude":17.93891944},{"id":149629,"name":"Kesztölc","latitude":47.71358056,"longitude":18.7952},{"id":149630,"name":"Kisbér","latitude":47.50166667,"longitude":18.02666667},{"id":149631,"name":"Kisigmánd","latitude":47.6544,"longitude":18.0971},{"id":149632,"name":"Kocs","latitude":47.60668056,"longitude":18.21536111},{"id":149633,"name":"Komárom","latitude":47.74318,"longitude":18.11913},{"id":149634,"name":"Kömlőd","latitude":47.54678056,"longitude":18.26048056},{"id":149635,"name":"Környe","latitude":47.54533889,"longitude":18.32696944},{"id":149637,"name":"Lábatlan","latitude":47.74694444,"longitude":18.49611111},{"id":149636,"name":"Leányvár","latitude":47.68268056,"longitude":18.7702},{"id":149640,"name":"Máriahalom","latitude":47.62746944,"longitude":18.7076},{"id":149638,"name":"Mocsa","latitude":47.6712,"longitude":18.18465},{"id":149639,"name":"Mogyorósbánya","latitude":47.72806,"longitude":18.60351},{"id":149641,"name":"Nagyigmánd","latitude":47.63253056,"longitude":18.05568889},{"id":149642,"name":"Nagysáp","latitude":47.68481111,"longitude":18.60163056},{"id":149643,"name":"Naszály","latitude":47.69873056,"longitude":18.26075},{"id":149644,"name":"Neszmély","latitude":47.7329,"longitude":18.3451},{"id":149645,"name":"Nyergesújfalu","latitude":47.76027778,"longitude":18.55666667},{"id":149646,"name":"Oroszlány","latitude":47.48916667,"longitude":18.31638889},{"id":149647,"name":"Piliscsév","latitude":47.6771,"longitude":18.81488889},{"id":149648,"name":"Pilismarót","latitude":47.78403889,"longitude":18.87551944},{"id":149649,"name":"Réde","latitude":47.43058056,"longitude":17.91865},{"id":149654,"name":"Sárisáp","latitude":47.67465278,"longitude":18.68096944},{"id":149655,"name":"Súr","latitude":47.37083889,"longitude":18.02876111},{"id":149656,"name":"Süttő","latitude":47.75675,"longitude":18.44145},{"id":149652,"name":"Szákszend","latitude":47.55713056,"longitude":18.16313056},{"id":149651,"name":"Szomód","latitude":47.68253,"longitude":18.3418},{"id":149650,"name":"Szomor","latitude":47.59305,"longitude":18.66328889},{"id":149653,"name":"Szőny","latitude":47.73333333,"longitude":18.16666667},{"id":149657,"name":"Tardos","latitude":47.6618,"longitude":18.44358},{"id":149658,"name":"Tarján","latitude":47.61055556,"longitude":18.51083333},{"id":149661,"name":"Tárkány","latitude":47.59135,"longitude":18.00366111},{"id":149659,"name":"Tatabánya","latitude":47.58616,"longitude":18.39485},{"id":149660,"name":"Tokodaltáró","latitude":47.7339,"longitude":18.68946},{"id":149669,"name":"Úny","latitude":47.64246944,"longitude":18.73786944},{"id":149662,"name":"Várgesztes","latitude":47.47526944,"longitude":18.39731944},{"id":149663,"name":"Vérteskethely","latitude":47.48721111,"longitude":18.08346944},{"id":149664,"name":"Vértessomló","latitude":47.50973889,"longitude":18.36705},{"id":149665,"name":"Vértesszőlős","latitude":47.61883889,"longitude":18.3803},{"id":149666,"name":"Vértestolna","latitude":47.62838889,"longitude":18.45643889}]