[{"id":8457,"name":"Bandarban","latitude":22.0,"longitude":92.33333},{"id":8468,"name":"Bibir Hat","latitude":22.68347,"longitude":91.79058},{"id":8470,"name":"Brahmanbaria","latitude":23.98333,"longitude":91.16667},{"id":8474,"name":"Chandpur","latitude":23.25,"longitude":90.83333},{"id":8478,"name":"Chhāgalnāiya","latitude":23.02475,"longitude":91.51091},{"id":8481,"name":"Chittagong","latitude":22.4875,"longitude":91.96333},{"id":8483,"name":"Comilla","latitude":23.4417,"longitude":91.00987},{"id":8484,"name":"Cox's Bazar","latitude":21.58389,"longitude":92.01528},{"id":8485,"name":"Cox’s Bāzār","latitude":21.43973,"longitude":92.00955},{"id":8492,"name":"Feni","latitude":22.96667,"longitude":91.31667},{"id":8499,"name":"Hājīganj","latitude":23.25191,"longitude":90.85508},{"id":8512,"name":"Khagrachhari","latitude":23.16667,"longitude":91.9},{"id":8525,"name":"Lākshām","latitude":23.24018,"longitude":91.12143},{"id":8521,"name":"Lakshmipur","latitude":22.91667,"longitude":90.83333},{"id":8530,"name":"Manikchari","latitude":22.83957,"longitude":91.84128},{"id":8543,"name":"Nabīnagar","latitude":23.88791,"longitude":90.96792},{"id":8553,"name":"Noakhali","latitude":22.75,"longitude":91.16667},{"id":8564,"name":"Patiya","latitude":22.29543,"longitude":91.979},{"id":8579,"name":"Rāipur","latitude":23.0391,"longitude":90.76808},{"id":8581,"name":"Rāmganj","latitude":23.1006,"longitude":90.84989},{"id":8576,"name":"Rangamati","latitude":22.63333,"longitude":92.2},{"id":8578,"name":"Raojān","latitude":22.53511,"longitude":91.91919},{"id":8584,"name":"Sandwīp","latitude":22.51409,"longitude":91.45491},{"id":8597,"name":"Sātkania","latitude":22.07639,"longitude":92.04955},{"id":8600,"name":"Teknāf","latitude":20.85829,"longitude":92.29773}]