[{"id":68052,"name":"Acatlán de Pérez Figueroa","latitude":18.53973,"longitude":-96.60568},{"id":68121,"name":"Agua del Espino","latitude":16.59095,"longitude":-96.80204},{"id":68155,"name":"Ahuehuetitlán","latitude":17.6713,"longitude":-98.32024},{"id":68173,"name":"Albarradas","latitude":17.06752,"longitude":-96.20012},{"id":68212,"name":"Almolonga","latitude":18.60848,"longitude":-96.66099},{"id":76394,"name":"Álvaro Obregón","latitude":16.29811,"longitude":-95.08392},{"id":68275,"name":"Animas Trujano","latitude":16.99086,"longitude":-96.71319},{"id":68310,"name":"Apoala","latitude":17.64845,"longitude":-97.13608},{"id":68356,"name":"Arroyo Chical (Nuevo Arroyo Chicali)","latitude":18.21611,"longitude":-96.33667},{"id":68357,"name":"Arroyo Choápam","latitude":17.97028,"longitude":-96.15722},{"id":68368,"name":"Arroyo de Banco","latitude":17.80312,"longitude":-96.34794},{"id":68369,"name":"Arroyo de Enmedio","latitude":18.4975,"longitude":-96.54722},{"id":68362,"name":"Arroyo Limón","latitude":17.90008,"longitude":-95.96175},{"id":68367,"name":"Arroyo Zapotillo","latitude":18.07639,"longitude":-96.54417},{"id":68383,"name":"Asunción Cacalotepec","latitude":17.0347,"longitude":-95.93361},{"id":68384,"name":"Asunción Ixtaltepec","latitude":16.50315,"longitude":-95.06121},{"id":68385,"name":"Asunción Nochixtlán","latitude":17.45916,"longitude":-97.22605},{"id":68386,"name":"Asunción Ocotlán","latitude":16.76195,"longitude":-96.72137},{"id":68387,"name":"Asunción Tlacolulita","latitude":16.22612,"longitude":-95.7662},{"id":68463,"name":"Ayoquezco de Aldama","latitude":16.6837,"longitude":-96.84287},{"id":68468,"name":"Ayotzintepec","latitude":17.67261,"longitude":-96.12855},{"id":68469,"name":"Ayutla","latitude":17.02756,"longitude":-96.07632},{"id":68502,"name":"Bajos de Chila","latitude":15.92343,"longitude":-97.12113},{"id":68530,"name":"Barrio San Diego","latitude":17.27917,"longitude":-97.67417},{"id":68584,"name":"Benemérito Juárez","latitude":18.11944,"longitude":-96.00194},{"id":68593,"name":"Benito Juárez","latitude":15.88178,"longitude":-96.32405},{"id":68605,"name":"Benito Juárez II (San Martín)","latitude":18.14056,"longitude":-96.46139},{"id":68614,"name":"Bethania","latitude":17.91939,"longitude":-96.00459},{"id":68650,"name":"Brisas de Zicatela","latitude":15.83694,"longitude":-97.04194},{"id":68723,"name":"Cajonos","latitude":17.16801,"longitude":-96.26174},{"id":68737,"name":"Calihualá","latitude":17.53134,"longitude":-98.27792},{"id":68762,"name":"Camelia Roja","latitude":18.02833,"longitude":-96.20806},{"id":68767,"name":"Camotinchan","latitude":16.55873,"longitude":-98.12433},{"id":68790,"name":"Candelaria Loxicha","latitude":15.92638,"longitude":-96.49268},{"id":68812,"name":"Capulálpam de Méndez","latitude":17.30972,"longitude":-96.44656},{"id":68921,"name":"Cerro Armadillo Grande","latitude":17.86611,"longitude":-96.30861},{"id":68938,"name":"Cerro del Aire","latitude":16.11012,"longitude":-97.20438},{"id":68932,"name":"Cerro Quemado","latitude":18.15417,"longitude":-96.575},{"id":68952,"name":"Chahuite","latitude":16.3,"longitude":-94.18333},{"id":68953,"name":"Chahuites","latitude":16.28842,"longitude":-94.19478},{"id":69015,"name":"Chicahua","latitude":17.63667,"longitude":-97.19497},{"id":69017,"name":"Chicapa de Castro","latitude":16.43844,"longitude":-94.82206},{"id":69200,"name":"Ciénega de Zimatlán","latitude":16.89366,"longitude":-96.76801},{"id":69128,"name":"Cieneguilla","latitude":16.32353,"longitude":-97.31762},{"id":69189,"name":"Ciudad de Huajuapan de León","latitude":17.80787,"longitude":-97.77956},{"id":69223,"name":"Coatecas Altas","latitude":16.53926,"longitude":-96.66878},{"id":69253,"name":"Coixtlahuaca","latitude":17.72021,"longitude":-97.3188},{"id":69262,"name":"Collantes","latitude":16.1881,"longitude":-97.97184},{"id":69315,"name":"Colonia Jordán","latitude":16.38893,"longitude":-95.20203},{"id":69317,"name":"Colonia Juárez","latitude":16.20967,"longitude":-95.02722},{"id":69394,"name":"Colonia la Central","latitude":18.08666,"longitude":-96.51619},{"id":69352,"name":"Colonia Progreso","latitude":16.80111,"longitude":-95.07972},{"id":69358,"name":"Colonia Rincón Viejo","latitude":16.88678,"longitude":-95.04731},{"id":69366,"name":"Colonia San Luis","latitude":16.38,"longitude":-95.24111},{"id":69439,"name":"Concepción Pápalo","latitude":17.85391,"longitude":-96.84472},{"id":69461,"name":"Constancia del Rosario","latitude":17.0382,"longitude":-97.94125},{"id":69466,"name":"Constitución Mexicana","latitude":17.34102,"longitude":-95.37326},{"id":69487,"name":"Corral de Piedra","latitude":18.24528,"longitude":-96.30556},{"id":69491,"name":"Corralero","latitude":16.23846,"longitude":-98.18952},{"id":69505,"name":"Cosoltepec","latitude":18.14255,"longitude":-97.79084},{"id":69538,"name":"Crucecita","latitude":15.76889,"longitude":-96.135},{"id":69563,"name":"Cuapinolito (Azulillo)","latitude":15.82194,"longitude":-96.31833},{"id":69579,"name":"Cuauhtémoc","latitude":17.10149,"longitude":-94.88532},{"id":69625,"name":"Cuicatlan","latitude":17.80272,"longitude":-96.95939},{"id":69627,"name":"Cuilapan de Guerrero","latitude":16.97756,"longitude":-96.78081},{"id":69714,"name":"Donaji","latitude":17.2295,"longitude":-95.05295},{"id":69819,"name":"Ejutla de Crespo","latitude":16.56623,"longitude":-96.73123},{"id":69830,"name":"El Arador","latitude":16.54111,"longitude":-97.18194},{"id":69836,"name":"El Bajío","latitude":16.88917,"longitude":-95.03528},{"id":69842,"name":"El Barrio de la Soledad","latitude":16.80131,"longitude":-95.03909},{"id":69856,"name":"El Camalote","latitude":15.8725,"longitude":-96.62361},{"id":69857,"name":"El Camarón","latitude":16.55745,"longitude":-96.02868},{"id":69867,"name":"El Capulín (La Nueva Pochota)","latitude":18.22972,"longitude":-96.27806},{"id":69881,"name":"El Carrizal","latitude":16.06438,"longitude":-95.39308},{"id":69884,"name":"El Carrizo","latitude":16.25453,"longitude":-98.0308},{"id":69902,"name":"El Chocolate","latitude":16.93191,"longitude":-95.08946},{"id":69906,"name":"El Ciruelo","latitude":16.3178,"longitude":-98.25707},{"id":69933,"name":"El Coyul","latitude":15.91472,"longitude":-95.81028},{"id":69963,"name":"El Espinal","latitude":16.46751,"longitude":-95.04198},{"id":70044,"name":"El Molino","latitude":17.77536,"longitude":-97.75227},{"id":70051,"name":"El Morro","latitude":16.09745,"longitude":-95.37906},{"id":70115,"name":"El Porvenir","latitude":17.47446,"longitude":-95.25596},{"id":70171,"name":"El Rosario","latitude":17.04271,"longitude":-96.69209},{"id":70274,"name":"Eloxochitlán de Flores Magón","latitude":18.17724,"longitude":-96.87538},{"id":70301,"name":"Encinal Colorado","latitude":17.00995,"longitude":-95.10732},{"id":70347,"name":"Estación Mogoñé","latitude":16.99472,"longitude":-95.03667},{"id":70404,"name":"Flor Batavia","latitude":17.98475,"longitude":-96.5188},{"id":70414,"name":"Fraccionamiento Ciudad Yagul","latitude":16.9775,"longitude":-96.46194},{"id":70419,"name":"Fraccionamiento Ex-Hacienda Catano","latitude":17.2275,"longitude":-96.81556},{"id":70437,"name":"Fraccionamiento Real del Valle","latitude":16.93278,"longitude":-96.76778},{"id":70438,"name":"Fraccionamiento Riberas de San Jerónimo","latitude":17.1125,"longitude":-96.77722},{"id":70440,"name":"Fraccionamiento San Miguel","latitude":17.21278,"longitude":-96.78694},{"id":70470,"name":"Francisco Ibarra Ramos","latitude":17.97781,"longitude":-97.91748},{"id":70543,"name":"General Pascual Fentes","latitude":16.43472,"longitude":-94.2627},{"id":70582,"name":"Guadalupe Etla","latitude":17.17268,"longitude":-96.81022},{"id":70584,"name":"Guadalupe Hidalgo","latitude":17.1495,"longitude":-96.81109},{"id":70596,"name":"Guadalupe Victoria","latitude":16.89627,"longitude":-95.84981},{"id":70614,"name":"Guamúchil","latitude":16.36937,"longitude":-94.66863},{"id":70636,"name":"Guixé","latitude":16.46991,"longitude":-96.70271},{"id":70651,"name":"Hacienda Blanca","latitude":17.13994,"longitude":-96.7759},{"id":70676,"name":"Heroica Ciudad de Ejutla de Crespo","latitude":16.57835,"longitude":-96.73079},{"id":70677,"name":"Heroica Ciudad de Juchitán de Zaragoza","latitude":16.44873,"longitude":-94.98619},{"id":70678,"name":"Heroica Ciudad de Tlaxiaco","latitude":17.26916,"longitude":-97.68053},{"id":70720,"name":"Huajintepec","latitude":16.61003,"longitude":-98.23028},{"id":70745,"name":"Huautepec","latitude":18.10138,"longitude":-96.7959},{"id":70753,"name":"Huazantlán del Río","latitude":16.21932,"longitude":-95.12864},{"id":70853,"name":"Ignacio Zaragoza","latitude":17.53556,"longitude":-95.89361},{"id":70886,"name":"Isla Soyaltepec","latitude":18.20107,"longitude":-96.48325},{"id":70919,"name":"Ixpantepec Nieves","latitude":17.5069,"longitude":-98.04264},{"id":70934,"name":"Ixtepec","latitude":16.56052,"longitude":-95.10375},{"id":70944,"name":"Ixtlán de Juárez","latitude":17.33211,"longitude":-96.48812},{"id":70964,"name":"Jalapa","latitude":16.5,"longitude":-95.46667},{"id":70987,"name":"Jaltepec de Candayoc","latitude":17.35495,"longitude":-95.41428},{"id":70988,"name":"Jaltepetongo","latitude":17.68623,"longitude":-97.03569},{"id":70998,"name":"Jamiltepec","latitude":16.28258,"longitude":-97.82446},{"id":71095,"name":"José María Morelos","latitude":16.20389,"longitude":-97.93},{"id":71133,"name":"Juchitán de Zaragoza","latitude":16.43603,"longitude":-95.01975},{"id":71181,"name":"La Barra de Colotepec","latitude":15.82546,"longitude":-97.02882},{"id":71183,"name":"La Blanca","latitude":16.59482,"longitude":-94.69256},{"id":71208,"name":"La Cañada","latitude":17.07,"longitude":-96.77806},{"id":71196,"name":"La Candelaria","latitude":17.21833,"longitude":-95.93306},{"id":71264,"name":"La Erradura","latitude":15.83402,"longitude":-96.33478},{"id":71321,"name":"La Humedad","latitude":16.58222,"longitude":-97.66724},{"id":71337,"name":"La Junta","latitude":17.82778,"longitude":-97.74556},{"id":71371,"name":"La Luz","latitude":16.11477,"longitude":-97.5957},{"id":71395,"name":"La Mina","latitude":17.98689,"longitude":-96.09978},{"id":71407,"name":"La Noria","latitude":16.25444,"longitude":-95.22056},{"id":71437,"name":"La Pe","latitude":16.63027,"longitude":-96.79766},{"id":71471,"name":"La Reforma","latitude":16.62414,"longitude":-97.84544},{"id":71500,"name":"La Tabaquera","latitude":18.33582,"longitude":-96.45129},{"id":71527,"name":"La Venta","latitude":16.57109,"longitude":-94.81773},{"id":71529,"name":"La Ventosa","latitude":16.55188,"longitude":-94.94762},{"id":71574,"name":"Las Amilpas","latitude":16.36667,"longitude":-94.61667},{"id":71618,"name":"Las Margaritas","latitude":18.25501,"longitude":-96.28421},{"id":71887,"name":"Lázaro Cárdenas","latitude":16.72818,"longitude":-94.85981},{"id":71690,"name":"Llano de Agua","latitude":18.10611,"longitude":-96.81083},{"id":71689,"name":"Llano Suchiapa","latitude":16.86611,"longitude":-95.05389},{"id":71714,"name":"Loma Bonita","latitude":18.10721,"longitude":-95.87904},{"id":71718,"name":"Loma Chapultepec","latitude":18.11972,"longitude":-96.83917},{"id":71870,"name":"Los Ángeles","latitude":17.39485,"longitude":-95.1654},{"id":71821,"name":"Los Naranjos Esquipulas","latitude":15.98167,"longitude":-96.45889},{"id":71916,"name":"Macín Chico","latitude":18.0682,"longitude":-96.27184},{"id":71911,"name":"Macuilxóchitl de Artigas Carranza","latitude":17.01583,"longitude":-96.54},{"id":71921,"name":"Magdalena Apasco","latitude":17.24083,"longitude":-96.82083},{"id":71925,"name":"Magdalena Jaltepec","latitude":17.32318,"longitude":-97.22122},{"id":71926,"name":"Magdalena Mixtepec","latitude":16.89659,"longitude":-96.90618},{"id":71927,"name":"Magdalena Ocotlán","latitude":16.70865,"longitude":-96.7101},{"id":71928,"name":"Magdalena Teitipac","latitude":16.90393,"longitude":-96.5584},{"id":71929,"name":"Magdalena Tequisistlán","latitude":16.39929,"longitude":-95.60204},{"id":71930,"name":"Magdalena Tlacotepec","latitude":16.50416,"longitude":-95.20248},{"id":71931,"name":"Magdalena Yodocono de Porfirio Díaz","latitude":17.3847,"longitude":-97.3553},{"id":71932,"name":"Magdalena Zahuatlán","latitude":17.38978,"longitude":-97.22747},{"id":71954,"name":"Mancuernas","latitude":16.3894,"longitude":-98.11018},{"id":72005,"name":"María Lombardo de Caso","latitude":17.44931,"longitude":-95.42821},{"id":71996,"name":"Mariscala de Juárez","latitude":17.85972,"longitude":-98.14083},{"id":72024,"name":"Matías Romero","latitude":16.87902,"longitude":-95.03939},{"id":72048,"name":"Mazatlán Villa de Flores","latitude":18.03264,"longitude":-96.91404},{"id":72052,"name":"Mazín Grande","latitude":18.1163,"longitude":-96.30956},{"id":72077,"name":"Merced del Potrero","latitude":16.04679,"longitude":-96.07048},{"id":72085,"name":"Mesones Hidalgo","latitude":16.92208,"longitude":-97.99765},{"id":72117,"name":"Miahuatlán de Porfirio Díaz","latitude":16.33276,"longitude":-96.59562},{"id":72165,"name":"Mixistlán de la Reforma","latitude":17.14669,"longitude":-96.10669},{"id":72217,"name":"Montenegro la Lana","latitude":17.59296,"longitude":-95.8651},{"id":72275,"name":"Nanahuatípam","latitude":18.13414,"longitude":-97.12501},{"id":72288,"name":"Nativitas","latitude":17.6616,"longitude":-97.33566},{"id":72300,"name":"Nazareno Etla","latitude":17.17667,"longitude":-96.83264},{"id":72309,"name":"Nejapa de Madero","latitude":16.60571,"longitude":-95.97855},{"id":72332,"name":"Niltepec","latitude":16.56401,"longitude":-94.61373},{"id":72388,"name":"Nuevo Ixcatlán","latitude":17.64145,"longitude":-95.43807},{"id":72403,"name":"Nuevo Paso Nazareno (Chichicazapa)","latitude":18.29667,"longitude":-96.34722},{"id":72411,"name":"Nuevo San Martín","latitude":17.57987,"longitude":-95.52346},{"id":72432,"name":"Oaxaca","latitude":17.06542,"longitude":-96.72365},{"id":72433,"name":"Oaxaca de Juárez","latitude":17.11345,"longitude":-96.73556},{"id":72460,"name":"Ocotlán de Morelos","latitude":16.79151,"longitude":-96.67455},{"id":72612,"name":"Palomares","latitude":17.1383,"longitude":-95.06266},{"id":72631,"name":"Papaloapan","latitude":18.16087,"longitude":-96.09383},{"id":72678,"name":"Paso Canoa","latitude":18.01274,"longitude":-96.23786},{"id":72685,"name":"Paso Real de Sarabia","latitude":17.07389,"longitude":-95.04667},{"id":72749,"name":"Peña Colorada","latitude":17.47778,"longitude":-97.79417},{"id":72764,"name":"Piedra Blanca","latitude":16.98861,"longitude":-95.01278},{"id":72769,"name":"Piedra de Amolar","latitude":18.12,"longitude":-96.45122},{"id":72782,"name":"Pinotepa de Don Luis","latitude":16.42716,"longitude":-97.97678},{"id":72781,"name":"Pinotepa Nacional","latitude":16.34014,"longitude":-98.05297},{"id":72810,"name":"Playa Chica","latitude":18.06139,"longitude":-96.51833},{"id":72818,"name":"Pluma Hidalgo","latitude":15.92127,"longitude":-96.42977},{"id":72885,"name":"Praxedis de Guerrero","latitude":16.72,"longitude":-96.64},{"id":72915,"name":"Progreso","latitude":17.04528,"longitude":-97.57028},{"id":72948,"name":"Pueblo Viejo","latitude":17.9075,"longitude":-96.05778},{"id":72981,"name":"Puerto Ángel","latitude":15.66898,"longitude":-96.49095},{"id":72968,"name":"Puerto Escondido","latitude":15.87037,"longitude":-97.07726},{"id":73002,"name":"Putla Villa de Guerrero","latitude":17.0263,"longitude":-97.92854},{"id":73020,"name":"Quelové","latitude":15.98273,"longitude":-96.6789},{"id":73034,"name":"Quinicuena","latitude":16.53101,"longitude":-97.52385},{"id":73060,"name":"Rancho Grande","latitude":18.35389,"longitude":-96.34944},{"id":73072,"name":"Rancho Viejo","latitude":16.33966,"longitude":-97.96399},{"id":73095,"name":"Reforma de Pineda","latitude":16.40103,"longitude":-94.45786},{"id":73102,"name":"Reyes Etla","latitude":17.2022,"longitude":-96.81802},{"id":73103,"name":"Reyes Mantecón","latitude":16.90717,"longitude":-96.72702},{"id":73119,"name":"Rincón Moreno","latitude":16.23007,"longitude":-95.31327},{"id":73172,"name":"Río Chiquito","latitude":17.61989,"longitude":-95.93688},{"id":73175,"name":"Río Grande","latitude":16.01079,"longitude":-97.43574},{"id":73182,"name":"Río Pachiñe","latitude":16.9687,"longitude":-95.06533},{"id":73152,"name":"Rojas de Cuauhtémoc","latitude":17.00861,"longitude":-96.61944},{"id":73213,"name":"Salina Cruz","latitude":16.17535,"longitude":-95.19424},{"id":73240,"name":"San Agustín Amatengo","latitude":16.51086,"longitude":-96.78919},{"id":73241,"name":"San Agustín Atenango","latitude":17.6115,"longitude":-98.01095},{"id":73245,"name":"San Agustín Chayuco","latitude":16.40234,"longitude":-97.80823},{"id":73237,"name":"San Agustin de las Juntas","latitude":17.00389,"longitude":-96.70806},{"id":73247,"name":"San Agustín Etla","latitude":17.18654,"longitude":-96.76661},{"id":73250,"name":"San Agustín Loxicha","latitude":16.01687,"longitude":-96.61615},{"id":73256,"name":"San Agustín Yatareni","latitude":17.08635,"longitude":-96.67845},{"id":73273,"name":"San Andrés Chicahuaxtla","latitude":17.15698,"longitude":-97.83703},{"id":73277,"name":"San Andrés Dinicuiti","latitude":17.68812,"longitude":-97.72669},{"id":73280,"name":"San Andrés Hidalgo","latitude":18.13734,"longitude":-96.80604},{"id":73281,"name":"San Andrés Huaxpaltepec","latitude":16.32952,"longitude":-97.91647},{"id":73282,"name":"San Andrés Huayápam","latitude":17.10264,"longitude":-96.66556},{"id":73284,"name":"San Andrés Ixtlahuaca","latitude":17.07112,"longitude":-96.82635},{"id":73290,"name":"San Andrés Paxtlán","latitude":16.21621,"longitude":-96.50783},{"id":73293,"name":"San Andrés Sinaxtla","latitude":17.46928,"longitude":-97.28298},{"id":73294,"name":"San Andrés Solaga","latitude":17.27254,"longitude":-96.2361},{"id":73296,"name":"San Andrés Teotilalpam","latitude":17.95414,"longitude":-96.65607},{"id":73302,"name":"San Andrés Yaá","latitude":17.2929,"longitude":-96.15384},{"id":73303,"name":"San Andrés Zabache","latitude":16.59917,"longitude":-96.85889},{"id":73304,"name":"San Andrés Zautla","latitude":17.18697,"longitude":-96.86419},{"id":73311,"name":"San Antonino Castillo Velasco","latitude":16.809,"longitude":-96.69267},{"id":73313,"name":"San Antonino el Alto","latitude":16.81984,"longitude":-97.02719},{"id":73312,"name":"San Antonino Monte Verde","latitude":17.51869,"longitude":-97.72654},{"id":73321,"name":"San Antonio Arrazola","latitude":17.03972,"longitude":-96.79034},{"id":73368,"name":"San Antonio de la Cal","latitude":17.02921,"longitude":-96.70094},{"id":73336,"name":"San Antonio Huitepec","latitude":16.92888,"longitude":-97.1467},{"id":73391,"name":"San Antonio las Palmas","latitude":17.67167,"longitude":-96.09083},{"id":73343,"name":"San Antonio Ocotlán","latitude":16.64929,"longitude":-98.16585},{"id":73354,"name":"San Antonio Tepetlapa","latitude":16.54391,"longitude":-98.06551},{"id":73394,"name":"San Baltazar Chichicapam","latitude":16.76151,"longitude":-96.4897},{"id":73395,"name":"San Baltazar Guelavila","latitude":16.79638,"longitude":-96.30542},{"id":73396,"name":"San Baltazar Loxicha","latitude":16.0767,"longitude":-96.7874},{"id":73397,"name":"San Baltazar Yatzachi el Bajo","latitude":17.22958,"longitude":-96.22046},{"id":73400,"name":"San Bartolo","latitude":18.09222,"longitude":-96.1075},{"id":73401,"name":"San Bartolo Coyotepec","latitude":16.94877,"longitude":-96.70977},{"id":73402,"name":"San Bartolo Coyotespec","latitude":16.95837,"longitude":-96.7093},{"id":73410,"name":"San Bartolo Yautepec","latitude":16.42935,"longitude":-95.97438},{"id":73421,"name":"San Bartolomé Ayautla","latitude":18.03239,"longitude":-96.67078},{"id":73425,"name":"San Bartolomé Loxícha","latitude":15.96981,"longitude":-96.70957},{"id":73426,"name":"San Bartolomé Quialana","latitude":16.90302,"longitude":-96.50169},{"id":73430,"name":"San Benito Encinal","latitude":17.98722,"longitude":-95.91056},{"id":73441,"name":"San Bernardo Mixtepec","latitude":16.82579,"longitude":-96.89911},{"id":73447,"name":"San Blas Atempa","latitude":16.33103,"longitude":-95.22559},{"id":73463,"name":"San Carlos Yautepec","latitude":16.49699,"longitude":-96.10648},{"id":73475,"name":"San Cristóbal Amatlán","latitude":16.31713,"longitude":-96.40785},{"id":73476,"name":"San Cristóbal Amoltepec","latitude":17.28428,"longitude":-97.57216},{"id":73479,"name":"San Cristóbal Honduras","latitude":16.32528,"longitude":-97.04111},{"id":73480,"name":"San Cristóbal Lachirioag","latitude":17.33582,"longitude":-96.16503},{"id":73504,"name":"San Dionisio del Mar","latitude":16.32371,"longitude":-94.7583},{"id":73502,"name":"San Dionisio Ocotepec","latitude":16.80457,"longitude":-96.39334},{"id":73503,"name":"San Dionisio Ocotlán","latitude":16.74704,"longitude":-96.68002},{"id":73507,"name":"San Esteban Atatlahuca","latitude":17.06716,"longitude":-97.67836},{"id":73514,"name":"San Felipe Cihualtepec","latitude":17.47763,"longitude":-95.36767},{"id":73517,"name":"San Felipe Jalapa de Díaz","latitude":18.0712,"longitude":-96.53562},{"id":73524,"name":"San Felipe Tejalápam","latitude":17.11134,"longitude":-96.8542},{"id":73528,"name":"San Felipe Tílpam","latitude":18.18889,"longitude":-96.58639},{"id":73529,"name":"San Felipe Usila","latitude":17.8879,"longitude":-96.52474},{"id":73552,"name":"San Francisco Cajonos","latitude":17.18086,"longitude":-96.26465},{"id":73556,"name":"San Francisco Chindúa","latitude":17.42809,"longitude":-97.31266},{"id":73557,"name":"San Francisco Coatlán","latitude":16.18175,"longitude":-96.76099},{"id":73558,"name":"San Francisco Cozoaltepec","latitude":15.81476,"longitude":-96.72396},{"id":73617,"name":"San Francisco del Mar","latitude":16.33987,"longitude":-94.51529},{"id":73618,"name":"San Francisco del Mar Viejo","latitude":16.23185,"longitude":-94.63297},{"id":73565,"name":"San Francisco Huehuetlán","latitude":18.19725,"longitude":-96.94805},{"id":73567,"name":"San Francisco Ixhuatan","latitude":16.35109,"longitude":-94.48402},{"id":73570,"name":"San Francisco Jaltepetongo","latitude":17.38579,"longitude":-97.26481},{"id":73572,"name":"San Francisco Javier","latitude":17.02861,"longitude":-96.7775},{"id":73574,"name":"San Francisco Lachigoló","latitude":17.01624,"longitude":-96.59947},{"id":73575,"name":"San Francisco Logueche","latitude":16.37576,"longitude":-96.37907},{"id":73576,"name":"San Francisco Loxicha","latitude":15.90658,"longitude":-96.61295},{"id":73581,"name":"San Francisco Nuxaño","latitude":17.38173,"longitude":-97.34262},{"id":73585,"name":"San Francisco Ozolotepec","latitude":16.10079,"longitude":-96.22181},{"id":73590,"name":"San Francisco Sola","latitude":16.51584,"longitude":-96.97488},{"id":73593,"name":"San Francisco Telixtlahuaca","latitude":17.29684,"longitude":-96.90529},{"id":73604,"name":"San Francisco Tutla","latitude":17.07092,"longitude":-96.6681},{"id":73629,"name":"San Gabriel Mixtepec","latitude":16.09593,"longitude":-97.08237},{"id":73660,"name":"San Ildefonso Amatlán","latitude":16.3339,"longitude":-96.49122},{"id":73662,"name":"San Ildefonso Villa Alta","latitude":17.33827,"longitude":-96.15232},{"id":73674,"name":"San Isidro Apango","latitude":15.80952,"longitude":-96.35856},{"id":73681,"name":"San Isidro Monjas","latitude":17.00167,"longitude":-96.74861},{"id":73695,"name":"San Jacinto Amilpas","latitude":17.10188,"longitude":-96.76228},{"id":73708,"name":"San Jerónimo Coatlán","latitude":16.23211,"longitude":-96.87047},{"id":73714,"name":"San Jerónimo Silacayoapilla","latitude":17.81021,"longitude":-97.84488},{"id":73715,"name":"San Jerónimo Sosola","latitude":17.36685,"longitude":-97.03291},{"id":73716,"name":"San Jerónimo Taviche","latitude":16.71468,"longitude":-96.5936},{"id":73717,"name":"San Jerónimo Tecóatl","latitude":18.16633,"longitude":-96.91256},{"id":73718,"name":"San Jerónimo Tlacochahuaya","latitude":17.00843,"longitude":-96.55522},{"id":73722,"name":"San Jerónimo Yahuiche","latitude":17.10861,"longitude":-96.76972},{"id":73731,"name":"San Jorge Nuchita","latitude":17.65921,"longitude":-98.10153},{"id":73744,"name":"San José Ayuquila","latitude":17.94221,"longitude":-97.96861},{"id":73754,"name":"San José Chacalapa","latitude":15.82957,"longitude":-96.4639},{"id":73758,"name":"San José Chiltepec","latitude":17.94734,"longitude":-96.16957},{"id":73832,"name":"San José de las Flores","latitude":17.35076,"longitude":-95.39837},{"id":73839,"name":"San José del Progreso","latitude":16.69909,"longitude":-96.68148},{"id":73764,"name":"San José Estancia Grande","latitude":16.36545,"longitude":-98.25092},{"id":73853,"name":"San José la Garzona","latitude":16.68029,"longitude":-96.63853},{"id":73772,"name":"San José Lachiguirí","latitude":16.37784,"longitude":-96.33589},{"id":73780,"name":"San José Piedras Negras","latitude":15.83658,"longitude":-96.59151},{"id":73782,"name":"San José Río Manzo","latitude":17.67003,"longitude":-95.88012},{"id":73787,"name":"San José Tenango","latitude":18.15084,"longitude":-96.71744},{"id":73861,"name":"San Juan Achiutla","latitude":17.35019,"longitude":-97.50804},{"id":73866,"name":"San Juan Atepec","latitude":17.42819,"longitude":-96.53968},{"id":73872,"name":"San Juan Bautista Jayacatlán","latitude":17.42458,"longitude":-96.82639},{"id":73874,"name":"San Juan Bautista la Raya","latitude":16.98617,"longitude":-96.72472},{"id":73873,"name":"San Juan Bautista Lo de Soto","latitude":16.51197,"longitude":-98.34772},{"id":73876,"name":"San Juan Cabeza del Río","latitude":16.75285,"longitude":-97.8824},{"id":73877,"name":"San Juan Cacahuatepec","latitude":16.61532,"longitude":-98.15501},{"id":73878,"name":"San Juan Chilateca","latitude":16.83042,"longitude":-96.66915},{"id":73880,"name":"San Juan Coatzospam","latitude":18.04998,"longitude":-96.76304},{"id":73881,"name":"San Juan Colorado","latitude":16.46066,"longitude":-97.95431},{"id":73884,"name":"San Juan Cotzocón","latitude":17.16373,"longitude":-95.78259},{"id":73969,"name":"San Juan de los Cues","latitude":18.04654,"longitude":-97.0602},{"id":73973,"name":"San Juan del Estado","latitude":17.2743,"longitude":-96.79912},{"id":73977,"name":"San Juan del Río","latitude":17.49278,"longitude":-95.76028},{"id":73890,"name":"San Juan Diuxi","latitude":17.28597,"longitude":-97.37005},{"id":73894,"name":"San Juan Guelavía","latitude":16.95507,"longitude":-96.54359},{"id":73895,"name":"San Juan Guichicovi","latitude":16.96231,"longitude":-95.09418},{"id":73898,"name":"San Juan Ihualtepec","latitude":17.75656,"longitude":-98.28518},{"id":73902,"name":"San Juan Jaltepec","latitude":17.35264,"longitude":-95.66263},{"id":73904,"name":"San Juan Jicayán","latitude":16.47583,"longitude":-98.0125},{"id":73905,"name":"San Juan Juquila","latitude":16.93585,"longitude":-95.91889},{"id":73906,"name":"San Juan Juquila Vijanos","latitude":17.33734,"longitude":-96.27421},{"id":73907,"name":"San Juan Lachao","latitude":16.15891,"longitude":-97.12449},{"id":73986,"name":"San Juán Lachigalla","latitude":16.58947,"longitude":-96.55052},{"id":73908,"name":"San Juan Lagunas","latitude":16.99748,"longitude":-97.93066},{"id":73909,"name":"San Juan Mazatlán","latitude":17.02988,"longitude":-95.44606},{"id":73910,"name":"San Juan Metaltepec","latitude":17.17563,"longitude":-95.91174},{"id":73911,"name":"San Juan Mixtepec -Dto. 08 -","latitude":17.31676,"longitude":-97.86147},{"id":73912,"name":"San Juan Mixtepec -Dto. 26 -","latitude":16.27667,"longitude":-96.29917},{"id":73980,"name":"San Juan Ñumí","latitude":17.39734,"longitude":-97.70624},{"id":73913,"name":"San Juan Ozolotepec","latitude":16.1332,"longitude":-96.25925},{"id":73916,"name":"San Juan Petlapa","latitude":17.46916,"longitude":-96.0361},{"id":73919,"name":"San Juan Quiahue","latitude":16.3022,"longitude":-97.31729},{"id":73920,"name":"San Juan Quiotepec","latitude":17.60156,"longitude":-96.58731},{"id":73922,"name":"San Juan Sautla","latitude":17.858,"longitude":-96.67445},{"id":73923,"name":"San Juan Sayultepec","latitude":17.44736,"longitude":-97.29375},{"id":73926,"name":"San Juan Tabaá","latitude":17.30495,"longitude":-96.20718},{"id":73929,"name":"San Juan Teitipac","latitude":16.9263,"longitude":-96.60954},{"id":73934,"name":"San Juan Teposcolula","latitude":17.58142,"longitude":-97.41686},{"id":73952,"name":"San Juan Yaee","latitude":17.43,"longitude":-96.28355},{"id":73954,"name":"San Juan Yatzona","latitude":17.40184,"longitude":-96.16878},{"id":73956,"name":"San Juan Zapotitlán","latitude":17.80528,"longitude":-96.60639},{"id":73988,"name":"San Lorenzo","latitude":16.39483,"longitude":-97.87403},{"id":73997,"name":"San Lorenzo Albarradas","latitude":16.91129,"longitude":-96.25826},{"id":73999,"name":"San Lorenzo Cacaotepec","latitude":17.12774,"longitude":-96.80244},{"id":74002,"name":"San Lorenzo Cuaunecuiltitla","latitude":18.20694,"longitude":-96.91139},{"id":74018,"name":"San Lorenzo Victoria","latitude":17.6319,"longitude":-98.12383},{"id":74019,"name":"San Lorenzo Vista Hermosa","latitude":17.95888,"longitude":-98.06852},{"id":74027,"name":"San Lucas Camotlán","latitude":16.94473,"longitude":-95.71382},{"id":74031,"name":"San Lucas Ojitlán","latitude":18.05767,"longitude":-96.39825},{"id":74033,"name":"San Lucas Quiavini","latitude":16.89555,"longitude":-96.46813},{"id":74038,"name":"San Lucas Zoquiápam","latitude":18.13669,"longitude":-96.90545},{"id":74045,"name":"San Luis Amatlán","latitude":16.38652,"longitude":-96.49824},{"id":74062,"name":"San Marcial Ozolotepec","latitude":16.08903,"longitude":-96.40561},{"id":74067,"name":"San Marcos Arteaga","latitude":17.72238,"longitude":-97.86034},{"id":74078,"name":"San Marcos Zacatepec","latitude":16.14344,"longitude":-97.35725},{"id":74114,"name":"San Martín de los Canseco","latitude":16.65655,"longitude":-96.72777},{"id":74098,"name":"San Martín Itunyoso","latitude":17.22806,"longitude":-97.88083},{"id":74099,"name":"San Martín Lachila","latitude":16.61186,"longitude":-96.84882},{"id":74107,"name":"San Martín Tilcajete","latitude":16.86008,"longitude":-96.6949},{"id":74121,"name":"San Mateo Cajonos","latitude":17.16147,"longitude":-96.20777},{"id":74142,"name":"San Mateo del Mar","latitude":16.21054,"longitude":-94.98218},{"id":74125,"name":"San Mateo Etlatongo","latitude":17.41609,"longitude":-97.27389},{"id":74130,"name":"San Mateo Nejápam","latitude":17.65604,"longitude":-98.41662},{"id":74134,"name":"San Mateo Piñas","latitude":16.00049,"longitude":-96.33449},{"id":74135,"name":"San Mateo Sindihui","latitude":17.00456,"longitude":-97.35066},{"id":74141,"name":"San Mateo Yoloxochitlán","latitude":18.14157,"longitude":-96.86417},{"id":74148,"name":"San Melchor Betaza","latitude":17.25267,"longitude":-96.15284},{"id":74153,"name":"San Miguel Abejones","latitude":17.43684,"longitude":-96.60866},{"id":74154,"name":"San Miguel Achiutla","latitude":17.309,"longitude":-97.48392},{"id":74160,"name":"San Miguel Aloápam","latitude":17.41136,"longitude":-96.69154},{"id":74171,"name":"San Miguel Chimalapa","latitude":16.71424,"longitude":-94.74811},{"id":74173,"name":"San Miguel Coatlán","latitude":16.19701,"longitude":-96.69458},{"id":74237,"name":"San Miguel del Puerto","latitude":15.92169,"longitude":-96.17499},{"id":74238,"name":"San Miguel del Valle","latitude":17.02083,"longitude":-96.41727},{"id":74175,"name":"San Miguel Ejutla","latitude":16.58053,"longitude":-96.73897},{"id":74240,"name":"San Miguel el Grande","latitude":17.06466,"longitude":-97.61547},{"id":74241,"name":"San Miguel el Grande Villa Juárez","latitude":17.04669,"longitude":-97.6216},{"id":74180,"name":"San Miguel Figueroa","latitude":15.78639,"longitude":-96.40417},{"id":74188,"name":"San Miguel Mixtepec","latitude":16.77719,"longitude":-96.95726},{"id":74189,"name":"San Miguel Monteverde","latitude":17.53111,"longitude":-97.7925},{"id":74193,"name":"San Miguel Panixtlahuaca","latitude":16.26012,"longitude":-97.3771},{"id":74195,"name":"San Miguel Peras","latitude":16.93903,"longitude":-97.01119},{"id":74196,"name":"San Miguel Quetzaltepec","latitude":16.9738,"longitude":-95.76045},{"id":74197,"name":"San Miguel Suchixtepec","latitude":16.07765,"longitude":-96.46299},{"id":74198,"name":"San Miguel Tecomatlán","latitude":17.39454,"longitude":-97.26845},{"id":74203,"name":"San Miguel Tenango","latitude":16.26659,"longitude":-95.59532},{"id":74207,"name":"San Miguel Tetepelcingo","latitude":16.39789,"longitude":-97.90127},{"id":74210,"name":"San Miguel Tilquiapam","latitude":16.78218,"longitude":-96.58165},{"id":74211,"name":"San Miguel Tlacamama","latitude":16.41547,"longitude":-98.06301},{"id":74212,"name":"San Miguel Tlacotepec","latitude":17.45621,"longitude":-98.00547},{"id":74251,"name":"San Nicolás","latitude":16.4201,"longitude":-96.74133},{"id":74260,"name":"San Nicolás Quialana","latitude":16.84335,"longitude":-96.77892},{"id":74286,"name":"San Pablo Coatlán","latitude":16.22429,"longitude":-96.78379},{"id":74287,"name":"San Pablo Cuatro Venados","latitude":16.9812,"longitude":-96.89103},{"id":74288,"name":"San Pablo Etla","latitude":17.14397,"longitude":-96.74812},{"id":74289,"name":"San Pablo Güilá","latitude":16.80324,"longitude":-96.44025},{"id":74292,"name":"San Pablo Huitzo","latitude":17.27708,"longitude":-96.88661},{"id":74293,"name":"San Pablo Huixtepec","latitude":16.81948,"longitude":-96.78128},{"id":74296,"name":"San Pablo Macuiltianguis","latitude":17.53348,"longitude":-96.55212},{"id":74303,"name":"San Pablo Villa de Mitla","latitude":16.92283,"longitude":-96.3599},{"id":74311,"name":"San Pedro Amuzgos","latitude":16.65388,"longitude":-98.09175},{"id":74313,"name":"San Pedro Apóstol","latitude":16.73657,"longitude":-96.72509},{"id":74319,"name":"San Pedro Atoyac","latitude":16.49005,"longitude":-97.98585},{"id":74328,"name":"San Pedro Comitancillo","latitude":16.49134,"longitude":-95.15649},{"id":74329,"name":"San Pedro Coxcaltepec Cántaros","latitude":17.49933,"longitude":-97.13802},{"id":74415,"name":"San Pedro el Alto","latitude":16.01077,"longitude":-96.47591},{"id":74338,"name":"San Pedro Huamelula","latitude":16.02697,"longitude":-95.66735},{"id":74340,"name":"San Pedro Huilotepec","latitude":16.24607,"longitude":-95.15094},{"id":74344,"name":"San Pedro Ixcatlán","latitude":18.14575,"longitude":-96.50953},{"id":74345,"name":"San Pedro Ixtlahuaca","latitude":17.0636,"longitude":-96.81841},{"id":74346,"name":"San Pedro Jicayán","latitude":16.45179,"longitude":-98.01425},{"id":74347,"name":"San Pedro Juchaltengo","latitude":16.3453,"longitude":-97.08954},{"id":74352,"name":"San Pedro Martir","latitude":16.74317,"longitude":-96.71118},{"id":74359,"name":"San Pedro Mártir Quiechapa","latitude":16.41516,"longitude":-96.24451},{"id":74360,"name":"San Pedro Mártir Yucuxaco","latitude":17.43245,"longitude":-97.611},{"id":74354,"name":"San Pedro Mixtepec","latitude":16.2706,"longitude":-96.28406},{"id":74363,"name":"San Pedro Ocopetatillo","latitude":18.18638,"longitude":-96.91166},{"id":74364,"name":"San Pedro Ocotepec","latitude":16.95501,"longitude":-95.84563},{"id":74365,"name":"San Pedro Ozumacín","latitude":17.67861,"longitude":-96.22556},{"id":74368,"name":"San Pedro Pochutla","latitude":15.74587,"longitude":-96.46601},{"id":74369,"name":"San Pedro Quiatoni","latitude":16.78295,"longitude":-96.03085},{"id":74371,"name":"San Pedro Sochiápam","latitude":17.82803,"longitude":-96.66274},{"id":74372,"name":"San Pedro Tapanatepec","latitude":16.37107,"longitude":-94.19313},{"id":74374,"name":"San Pedro Taviche","latitude":16.63858,"longitude":-96.53687},{"id":74382,"name":"San Pedro Teutila","latitude":17.97773,"longitude":-96.70599},{"id":74383,"name":"San Pedro Tidaá","latitude":17.34122,"longitude":-97.37239},{"id":74391,"name":"San Pedro Topiltepec","latitude":17.43633,"longitude":-97.34403},{"id":74393,"name":"San Pedro Totolápam","latitude":16.66915,"longitude":-96.30755},{"id":74394,"name":"San Pedro Tulixtlahuaca","latitude":16.53972,"longitude":-98.03472},{"id":74418,"name":"San Pedro y San Pablo Teposcolula","latitude":17.50179,"longitude":-97.48836},{"id":74419,"name":"San Pedro y San Pablo Tequistepec","latitude":18.06106,"longitude":-97.71816},{"id":74401,"name":"San Pedro Yólox","latitude":17.58907,"longitude":-96.55235},{"id":74438,"name":"San Raymundo Jalpam","latitude":16.97164,"longitude":-96.75699},{"id":74439,"name":"San Roque","latitude":15.78682,"longitude":-96.46342},{"id":74458,"name":"San Sebastián Abasolo","latitude":16.99432,"longitude":-96.58701},{"id":74462,"name":"San Sebastián Coatlán","latitude":16.20212,"longitude":-96.82645},{"id":74479,"name":"San Sebastián del Monte","latitude":17.67778,"longitude":-98.02194},{"id":74463,"name":"San Sebastián Etla","latitude":17.16437,"longitude":-96.78343},{"id":74464,"name":"San Sebastián Ixcapa","latitude":16.54548,"longitude":-98.14478},{"id":74465,"name":"San Sebastián Nicananduta","latitude":17.51657,"longitude":-97.6837},{"id":74466,"name":"San Sebastián Nopalera","latitude":16.9431,"longitude":-97.77793},{"id":74467,"name":"San Sebastián Río Hondo","latitude":16.1838,"longitude":-96.46535},{"id":74468,"name":"San Sebastián Tecomaxtlahuaca","latitude":17.34721,"longitude":-98.03167},{"id":74452,"name":"San Sebastian Teitipac","latitude":16.95192,"longitude":-96.61427},{"id":74472,"name":"San Sebastián Tutla","latitude":17.04755,"longitude":-96.68158},{"id":74484,"name":"San Simón Almolongas","latitude":16.40659,"longitude":-96.71927},{"id":74498,"name":"San Vicente Coatlán","latitude":16.38852,"longitude":-96.8439},{"id":74501,"name":"San Vicente Lachixío","latitude":16.70502,"longitude":-97.01864},{"id":74502,"name":"San Vicente Nuñu","latitude":17.45648,"longitude":-97.44319},{"id":74504,"name":"San Vicente Piñas","latitude":16.78527,"longitude":-98.06041},{"id":74519,"name":"Santa Ana","latitude":17.05455,"longitude":-95.08509},{"id":74556,"name":"Santa Ana del Valle","latitude":16.99488,"longitude":-96.47112},{"id":74547,"name":"Santa Ana Tlapacoyan","latitude":16.7434,"longitude":-96.83688},{"id":74550,"name":"Santa Ana Zegache","latitude":16.83706,"longitude":-96.72948},{"id":74571,"name":"Santa Catalina Quierí","latitude":16.31972,"longitude":-96.26694},{"id":74582,"name":"Santa Catarina Cuixtla","latitude":16.30616,"longitude":-96.64236},{"id":74583,"name":"Santa Catarina Juquila","latitude":16.23819,"longitude":-97.29161},{"id":74584,"name":"Santa Catarina Loxicha","latitude":16.06327,"longitude":-96.71942},{"id":74585,"name":"Santa Catarina Mechoacán","latitude":16.33591,"longitude":-97.83707},{"id":74586,"name":"Santa Catarina Minas","latitude":16.77969,"longitude":-96.61536},{"id":74587,"name":"Santa Catarina Quiané","latitude":16.88255,"longitude":-96.74067},{"id":74588,"name":"Santa Catarina Roatina","latitude":16.27917,"longitude":-96.51778},{"id":74589,"name":"Santa Catarina Tayata","latitude":17.34715,"longitude":-97.55822},{"id":74595,"name":"Santa Cecilia Jalieza","latitude":16.88383,"longitude":-96.61558},{"id":74614,"name":"Santa Cruz Acatepec","latitude":18.16369,"longitude":-96.87503},{"id":74616,"name":"Santa Cruz Amilpas","latitude":17.05833,"longitude":-96.68333},{"id":74647,"name":"Santa Cruz de Bravo","latitude":17.58096,"longitude":-98.22378},{"id":74649,"name":"Santa Cruz de Juárez","latitude":18.15045,"longitude":-96.83541},{"id":74627,"name":"Santa Cruz Lachixolana","latitude":17.22784,"longitude":-96.85561},{"id":74630,"name":"Santa Cruz Mixtepec","latitude":16.79283,"longitude":-96.88072},{"id":74631,"name":"Santa Cruz Nundaco","latitude":17.17109,"longitude":-97.72382},{"id":74633,"name":"Santa Cruz Ozolotepec","latitude":16.07041,"longitude":-96.30246},{"id":74634,"name":"Santa Cruz Papalutla","latitude":16.95667,"longitude":-96.58444},{"id":74639,"name":"Santa Cruz Tacache de Mina","latitude":17.82898,"longitude":-98.15297},{"id":74640,"name":"Santa Cruz Tayata","latitude":17.35718,"longitude":-97.56843},{"id":74644,"name":"Santa Cruz Xitla","latitude":16.32321,"longitude":-96.67369},{"id":74645,"name":"Santa Cruz Xoxocotlán","latitude":17.02958,"longitude":-96.73518},{"id":74661,"name":"Santa Fe y la Mar","latitude":17.76611,"longitude":-96.31611},{"id":74666,"name":"Santa Gertrudis","latitude":16.7858,"longitude":-96.80024},{"id":74670,"name":"Santa Inés de Zaragoza","latitude":17.26946,"longitude":-97.1512},{"id":74671,"name":"Santa Inés del Monte","latitude":16.92387,"longitude":-96.86238},{"id":74669,"name":"Santa Inés Yatzeche","latitude":16.80444,"longitude":-96.75486},{"id":74685,"name":"Santa Lucía","latitude":16.1886,"longitude":-96.61404},{"id":74691,"name":"Santa Lucía del Camino","latitude":17.06667,"longitude":-96.68069},{"id":74688,"name":"Santa Lucía Ocotlán","latitude":16.72986,"longitude":-96.66514},{"id":74690,"name":"Santa Lucía Teotepec","latitude":16.14256,"longitude":-97.20872},{"id":74692,"name":"Santa Magdalena Jicotlán","latitude":17.80819,"longitude":-97.47389},{"id":74693,"name":"Santa Margarita Huitepec","latitude":16.93817,"longitude":-95.66944},{"id":74705,"name":"Santa María Acatepec","latitude":16.14841,"longitude":-97.51261},{"id":74710,"name":"Santa María Alotepec","latitude":17.09259,"longitude":-95.85423},{"id":74713,"name":"Santa María Apazco","latitude":17.62226,"longitude":-97.08524},{"id":74719,"name":"Santa María Atzompa","latitude":17.09835,"longitude":-96.78495},{"id":74722,"name":"Santa María Camotlán","latitude":17.89688,"longitude":-97.692},{"id":74724,"name":"Santa María Chachoápam","latitude":17.5257,"longitude":-97.28422},{"id":74725,"name":"Santa María Chico Ometepec","latitude":16.175,"longitude":-97.9667},{"id":74726,"name":"Santa María Chilapa de Díaz","latitude":17.51667,"longitude":-97.68333},{"id":74727,"name":"Santa María Chimalapa","latitude":16.90639,"longitude":-94.68333},{"id":74730,"name":"Santa María Colotepec","latitude":15.89737,"longitude":-96.93951},{"id":74731,"name":"Santa María Cortijo","latitude":16.45151,"longitude":-98.28549},{"id":74732,"name":"Santa María Coyotepec","latitude":16.96663,"longitude":-96.70513},{"id":74817,"name":"Santa María del Rosario","latitude":17.34848,"longitude":-97.60247},{"id":74819,"name":"Santa María del Tule","latitude":17.04712,"longitude":-96.63573},{"id":74734,"name":"Santa María Ecatepec","latitude":16.28498,"longitude":-95.87997},{"id":74737,"name":"Santa María Guelacé","latitude":17.00151,"longitude":-96.60946},{"id":74738,"name":"Santa María Guenagati","latitude":16.73862,"longitude":-95.3544},{"id":74739,"name":"Santa María Huamelula","latitude":15.99245,"longitude":-95.70382},{"id":74740,"name":"Santa María Huatulco","latitude":15.83267,"longitude":-96.32063},{"id":74741,"name":"Santa María Huazolotitlán","latitude":16.30359,"longitude":-97.91293},{"id":74746,"name":"Santa María Ipalapa","latitude":16.63944,"longitude":-98.03154},{"id":74749,"name":"Santa María Jacatepec","latitude":17.86068,"longitude":-96.21174},{"id":74751,"name":"Santa María Jalapa del Marqués","latitude":16.44027,"longitude":-95.44454},{"id":74752,"name":"Santa María Jicaltepec","latitude":16.37917,"longitude":-98.04333},{"id":74821,"name":"Santa María la Asunción","latitude":18.10722,"longitude":-96.81917},{"id":74753,"name":"Santa María Lachixío","latitude":16.72694,"longitude":-97.01889},{"id":74760,"name":"Santa María Mixtequilla","latitude":16.39111,"longitude":-95.27798},{"id":74763,"name":"Santa María Nativitas","latitude":17.64714,"longitude":-97.32925},{"id":74764,"name":"Santa María Nduayaco","latitude":17.40832,"longitude":-97.50586},{"id":74771,"name":"Santa María Pápalo","latitude":17.78452,"longitude":-96.79727},{"id":74768,"name":"Santa María Petapa","latitude":16.8206,"longitude":-95.11913},{"id":74770,"name":"Santa María Puxmetacán","latitude":17.26861,"longitude":-95.62333},{"id":74773,"name":"Santa María Quiegolani","latitude":16.28978,"longitude":-96.04156},{"id":74775,"name":"Santa María Sola","latitude":16.56615,"longitude":-97.01297},{"id":74779,"name":"Santa María Temaxcalapa","latitude":17.38036,"longitude":-96.16137},{"id":74780,"name":"Santa María Temaxcaltepec","latitude":16.16552,"longitude":-97.1971},{"id":74781,"name":"Santa María Teopoxco","latitude":18.16655,"longitude":-96.95488},{"id":74782,"name":"Santa María Tepantlali","latitude":16.99663,"longitude":-96.00883},{"id":74785,"name":"Santa María Tiltepec","latitude":16.0627,"longitude":-97.17036},{"id":74786,"name":"Santa María Tlalixtac","latitude":17.93618,"longitude":-96.73402},{"id":74788,"name":"Santa María Tonameca","latitude":15.74805,"longitude":-96.54704},{"id":74791,"name":"Santa María Velato","latitude":16.50421,"longitude":-96.64514},{"id":74792,"name":"Santa María Xadani","latitude":15.94825,"longitude":-96.07364},{"id":74795,"name":"Santa María Yavesía","latitude":17.23531,"longitude":-96.43062},{"id":74796,"name":"Santa María Yolotepec","latitude":16.88134,"longitude":-97.48014},{"id":74797,"name":"Santa María Yucuhiti","latitude":17.01873,"longitude":-97.76951},{"id":74798,"name":"Santa María Yucunicoco","latitude":17.23754,"longitude":-97.91698},{"id":74799,"name":"Santa María Zacatepec","latitude":16.76369,"longitude":-97.99028},{"id":74801,"name":"Santa María Zaniza","latitude":16.65531,"longitude":-97.33785},{"id":74802,"name":"Santa María Zapotitlán","latitude":16.12781,"longitude":-95.85239},{"id":74804,"name":"Santa María Zoquitlán","latitude":16.55886,"longitude":-96.35325},{"id":74700,"name":"Santa Martha Chichihualtepec","latitude":16.64948,"longitude":-96.77451},{"id":74835,"name":"Santa Rosa","latitude":16.31655,"longitude":-95.09944},{"id":74842,"name":"Santa Rosa Caxtlahuaca","latitude":17.30306,"longitude":-98.01694},{"id":74851,"name":"Santa Rosa de Lima","latitude":16.07111,"longitude":-97.62333},{"id":74876,"name":"Santiago Amoltepec","latitude":16.64263,"longitude":-97.49674},{"id":74878,"name":"Santiago Apostol","latitude":16.80381,"longitude":-96.72046},{"id":74879,"name":"Santiago Astata","latitude":15.98775,"longitude":-95.67571},{"id":74881,"name":"Santiago Ayuquililla","latitude":17.9331,"longitude":-97.95769},{"id":74884,"name":"Santiago Cacaloxtepec","latitude":17.73444,"longitude":-97.74139},{"id":74888,"name":"Santiago Chazumba","latitude":18.19012,"longitude":-97.67983},{"id":74889,"name":"Santiago Chilixtlahuaca","latitude":17.90611,"longitude":-97.89528},{"id":74891,"name":"Santiago Choápam","latitude":17.36084,"longitude":-95.92219},{"id":74895,"name":"Santiago Comaltepec","latitude":17.56547,"longitude":-96.54873},{"id":74899,"name":"Santiago Cuixtla","latitude":16.06196,"longitude":-97.18586},{"id":74988,"name":"Santiago del Río","latitude":17.44838,"longitude":-98.09111},{"id":74900,"name":"Santiago Etla","latitude":17.1525,"longitude":-96.78972},{"id":74901,"name":"Santiago Huajolotitlán","latitude":17.82783,"longitude":-97.73266},{"id":74902,"name":"Santiago Huauclilla","latitude":17.45179,"longitude":-97.07277},{"id":74903,"name":"Santiago Huaxolotipac","latitude":16.97383,"longitude":-97.0861},{"id":74905,"name":"Santiago Ihuitlán Plumas","latitude":17.88057,"longitude":-97.43215},{"id":74906,"name":"Santiago Ixcuintepec","latitude":16.9354,"longitude":-95.62282},{"id":74908,"name":"Santiago Ixtaltepec","latitude":16.68833,"longitude":-94.90583},{"id":74909,"name":"Santiago Ixtayutla","latitude":16.56649,"longitude":-97.65285},{"id":74911,"name":"Santiago Jicayán","latitude":16.47884,"longitude":-98.01018},{"id":74912,"name":"Santiago Jocotepec","latitude":16.12837,"longitude":-97.4376},{"id":74913,"name":"Santiago Juxtlahuaca","latitude":17.33462,"longitude":-98.01147},{"id":74914,"name":"Santiago Lachiguiri","latitude":16.68706,"longitude":-95.53067},{"id":74915,"name":"Santiago Lalopa","latitude":17.41786,"longitude":-96.24893},{"id":74916,"name":"Santiago Laollaga","latitude":16.58418,"longitude":-95.20707},{"id":74917,"name":"Santiago Laxopa","latitude":17.21842,"longitude":-96.31099},{"id":74918,"name":"Santiago Llano Grande","latitude":16.48833,"longitude":-98.28972},{"id":74919,"name":"Santiago Malacatepec","latitude":17.01639,"longitude":-95.6075},{"id":74922,"name":"Santiago Matatlán","latitude":16.8647,"longitude":-96.38261},{"id":74925,"name":"Santiago Miltepec","latitude":17.98461,"longitude":-97.69006},{"id":74927,"name":"Santiago Nejapilla","latitude":17.41983,"longitude":-97.37411},{"id":74928,"name":"Santiago Niltepec","latitude":16.52438,"longitude":-94.59337},{"id":74929,"name":"Santiago Nundiche","latitude":17.34392,"longitude":-97.66988},{"id":74931,"name":"Santiago Nuyoó","latitude":17.00937,"longitude":-97.75},{"id":74938,"name":"Santiago Quiavicuzas","latitude":16.86297,"longitude":-95.71616},{"id":74940,"name":"Santiago Suchilquitongo","latitude":17.25316,"longitude":-96.87825},{"id":74944,"name":"Santiago Tenango","latitude":17.32489,"longitude":-97.00467},{"id":74948,"name":"Santiago Tepextla","latitude":16.34065,"longitude":-98.44684},{"id":74951,"name":"Santiago Tetepec","latitude":16.32172,"longitude":-97.74794},{"id":74952,"name":"Santiago Texcalcingo","latitude":18.21438,"longitude":-96.97358},{"id":74953,"name":"Santiago Textitlán","latitude":16.69264,"longitude":-97.25884},{"id":74957,"name":"Santiago Tilantongo","latitude":17.28464,"longitude":-97.33879},{"id":74959,"name":"Santiago Tillo","latitude":17.46497,"longitude":-97.3204},{"id":74971,"name":"Santiago Xanica","latitude":16.01009,"longitude":-96.22462},{"id":74972,"name":"Santiago Yaitepec","latitude":16.22628,"longitude":-97.26953},{"id":74976,"name":"Santiago Yogana","latitude":16.4613,"longitude":-96.78786},{"id":74977,"name":"Santiago Yolomécatl","latitude":17.47237,"longitude":-97.56981},{"id":74978,"name":"Santiago Yosondúa","latitude":16.87601,"longitude":-97.57607},{"id":74979,"name":"Santiago Zacatepec","latitude":17.16005,"longitude":-95.91455},{"id":74981,"name":"Santiago Zoochila","latitude":17.22,"longitude":-96.24167},{"id":74996,"name":"Santo Domingo Albarradas","latitude":17.07257,"longitude":-96.19076},{"id":74997,"name":"Santo Domingo Armenta","latitude":16.33194,"longitude":-98.37778},{"id":75000,"name":"Santo Domingo Chihuitán","latitude":16.59135,"longitude":-95.16331},{"id":75018,"name":"Santo Domingo de Morelos","latitude":15.83397,"longitude":-96.66695},{"id":75002,"name":"Santo Domingo Jalieza","latitude":16.86848,"longitude":-96.62919},{"id":75005,"name":"Santo Domingo Ozolotepec","latitude":16.17103,"longitude":-96.32044},{"id":75006,"name":"Santo Domingo Petapa","latitude":16.81869,"longitude":-95.14072},{"id":75007,"name":"Santo Domingo Roayaga","latitude":17.33782,"longitude":-96.11506},{"id":75009,"name":"Santo Domingo Tehuantepec","latitude":16.32463,"longitude":-95.24104},{"id":75010,"name":"Santo Domingo Tepuxtepec","latitude":16.95584,"longitude":-96.05823},{"id":75011,"name":"Santo Domingo Tlatayapam","latitude":17.40778,"longitude":-97.34581},{"id":75012,"name":"Santo Domingo Tomaltepec","latitude":17.06117,"longitude":-96.6228},{"id":75013,"name":"Santo Domingo Tonalá","latitude":17.67352,"longitude":-97.96556},{"id":75014,"name":"Santo Domingo Yanhuitlán","latitude":17.53283,"longitude":-97.35332},{"id":75015,"name":"Santo Domingo Yodohino","latitude":17.61694,"longitude":-97.68289},{"id":75016,"name":"Santo Domingo Zanatepec","latitude":16.48307,"longitude":-94.34754},{"id":75024,"name":"Santo Tomás","latitude":18.04194,"longitude":-96.51389},{"id":75029,"name":"Santo Tomás Jalieza","latitude":16.84469,"longitude":-96.67063},{"id":75030,"name":"Santo Tomás Mazaltepec","latitude":17.17222,"longitude":-96.87083},{"id":75031,"name":"Santo Tomás Ocotepec","latitude":17.12204,"longitude":-97.77344},{"id":75032,"name":"Santo Tomás Tamazulapam","latitude":16.27064,"longitude":-96.58193},{"id":75035,"name":"Santos Reyes Nopala","latitude":16.10694,"longitude":-97.14435},{"id":75036,"name":"Santos Reyes Pápalo","latitude":17.80532,"longitude":-96.86157},{"id":75037,"name":"Santos Reyes Tepejillo","latitude":17.43782,"longitude":-97.93845},{"id":75038,"name":"Santos Reyes Yucuná","latitude":17.774,"longitude":-98.00172},{"id":75054,"name":"Sector H Tres","latitude":15.76611,"longitude":-96.14694},{"id":75078,"name":"Silacayoápam","latitude":17.50297,"longitude":-98.13966},{"id":75102,"name":"Sitio de Xitlapehua","latitude":16.35139,"longitude":-96.53215},{"id":75112,"name":"Soledad Etla","latitude":17.16556,"longitude":-96.82212},{"id":75115,"name":"Soledad Salinas","latitude":16.66229,"longitude":-96.00266},{"id":75177,"name":"Tamazola","latitude":17.6702,"longitude":-98.22084},{"id":75183,"name":"Tamazulápam del Espíritu Santo","latitude":17.055,"longitude":-96.06528},{"id":75182,"name":"Tamazulapam Villa del Progreso","latitude":17.6771,"longitude":-97.57315},{"id":75207,"name":"Tanetze de Zaragoza","latitude":17.37616,"longitude":-96.30111},{"id":75213,"name":"Taniche","latitude":16.5686,"longitude":-96.75514},{"id":75224,"name":"Tapanalá","latitude":15.96659,"longitude":-95.72476},{"id":75238,"name":"Tatahuicapá","latitude":17.55113,"longitude":-95.64088},{"id":75239,"name":"Tataltepec de Valdés","latitude":16.30549,"longitude":-97.54615},{"id":75283,"name":"Tecomavaca","latitude":17.95577,"longitude":-97.02263},{"id":75329,"name":"Temascal","latitude":18.24285,"longitude":-96.40165},{"id":75374,"name":"Teococuilco de Marcos Pérez","latitude":17.3527,"longitude":-96.61528},{"id":75376,"name":"Teojomulco","latitude":16.59032,"longitude":-97.22493},{"id":75384,"name":"Teotitlán","latitude":18.13179,"longitude":-97.07056},{"id":75385,"name":"Teotitlán del Valle","latitude":17.02975,"longitude":-96.51926},{"id":75412,"name":"Tepenixtlahuaca","latitude":16.29236,"longitude":-97.49184},{"id":75427,"name":"Tepetlapa","latitude":17.66601,"longitude":-98.39188},{"id":75477,"name":"Tetela","latitude":18.50887,"longitude":-96.4588},{"id":75514,"name":"Texcatitlán","latitude":17.71259,"longitude":-97.06625},{"id":75519,"name":"Texmelucan","latitude":16.5851,"longitude":-97.19907},{"id":75526,"name":"Tezoatlán de Segura y Luna","latitude":17.65388,"longitude":-97.81068},{"id":75601,"name":"Tlachichilco","latitude":17.6222,"longitude":-98.34312},{"id":75605,"name":"Tlacoatzintepec","latitude":17.85985,"longitude":-96.58647},{"id":75609,"name":"Tlacolula de Matamoros","latitude":16.95471,"longitude":-96.4759},{"id":75633,"name":"Tlahuitoltepec","latitude":17.09746,"longitude":-96.06279},{"id":75640,"name":"Tlalixtac de Cabrera","latitude":17.07112,"longitude":-96.6471},{"id":75757,"name":"Totontepec Villa de Morelos","latitude":17.25679,"longitude":-96.02786},{"id":75760,"name":"Toxpalan","latitude":18.10125,"longitude":-97.05869},{"id":75783,"name":"Trinidad de Viguera","latitude":17.13059,"longitude":-96.75025},{"id":75782,"name":"Trinidad Zaachila","latitude":16.92135,"longitude":-96.76384},{"id":75823,"name":"Tuxtepec","latitude":18.0883,"longitude":-96.12535},{"id":75884,"name":"Unión Hidalgo","latitude":16.4723,"longitude":-94.82952},{"id":75906,"name":"Valdeflores","latitude":16.76588,"longitude":-96.82435},{"id":75911,"name":"Valerio Trujano","latitude":17.7813,"longitude":-96.97852},{"id":75917,"name":"Valle Nacional","latitude":17.77579,"longitude":-96.30174},{"id":75941,"name":"Vega del Sol","latitude":17.80972,"longitude":-96.21694},{"id":75970,"name":"Vicente Camalote","latitude":18.51443,"longitude":-96.52915},{"id":75978,"name":"Vicente Guerrero","latitude":16.93306,"longitude":-96.70139},{"id":75994,"name":"Villa Chalcatongo de Hidalgo","latitude":17.03247,"longitude":-97.57057},{"id":76064,"name":"Villa de Etla","latitude":17.20615,"longitude":-96.7989},{"id":76068,"name":"Villa de Tamazulápam del Progreso","latitude":17.693,"longitude":-97.57366},{"id":76069,"name":"Villa de Tututepec de Melchor Ocampo","latitude":16.04794,"longitude":-97.53109},{"id":76070,"name":"Villa de Zaachila","latitude":16.95098,"longitude":-96.74938},{"id":75999,"name":"Villa Díaz Ordaz","latitude":16.99578,"longitude":-96.43231},{"id":76009,"name":"Villa Hidalgo","latitude":17.18409,"longitude":-96.17831},{"id":76044,"name":"Villa Sola de Vega","latitude":16.51844,"longitude":-96.9781},{"id":76045,"name":"Villa Talea de Castro","latitude":17.36489,"longitude":-96.24722},{"id":76047,"name":"Villa Tejúpam de la Unión","latitude":17.6625,"longitude":-97.47083},{"id":76095,"name":"Vista Hermosa","latitude":17.79639,"longitude":-97.75694},{"id":76109,"name":"Xaaga","latitude":16.9042,"longitude":-96.32779},{"id":76111,"name":"Xagacía","latitude":17.15436,"longitude":-96.26753},{"id":76181,"name":"Xochitonalco","latitude":18.09443,"longitude":-96.84848},{"id":76208,"name":"Yaganiza","latitude":17.14495,"longitude":-96.2296},{"id":76212,"name":"Yalina","latitude":17.23969,"longitude":-96.26233},{"id":76219,"name":"Yatzachi","latitude":17.22588,"longitude":-96.22137},{"id":76225,"name":"Yaxe","latitude":16.72595,"longitude":-96.47191},{"id":76235,"name":"Yetla de Juárez","latitude":17.66559,"longitude":-97.99124},{"id":76247,"name":"Yucuita","latitude":17.51073,"longitude":-97.26965},{"id":76251,"name":"Yutanduchi de Guerrero","latitude":17.0402,"longitude":-97.29795},{"id":76269,"name":"Zacatal","latitude":16.93982,"longitude":-95.20312},{"id":76308,"name":"Zapotitlán Lagunas","latitude":17.75621,"longitude":-98.38958},{"id":76309,"name":"Zapotitlán Palmas","latitude":17.88965,"longitude":-97.81849},{"id":76316,"name":"Zaragoza","latitude":16.66923,"longitude":-97.79322},{"id":76324,"name":"Zarzal","latitude":17.01419,"longitude":-95.03738},{"id":76338,"name":"Zimatlán de Álvarez","latitude":16.86939,"longitude":-96.78435},{"id":76357,"name":"Zocoteaca de León","latitude":16.63818,"longitude":-98.00276},{"id":76360,"name":"Zona Urbana Ejidal","latitude":18.5325,"longitude":-96.58917}]