[{"id":97147,"name":"Aranđelovac","latitude":44.30694,"longitude":20.56},{"id":97148,"name":"Arilje","latitude":43.75306,"longitude":20.09556},{"id":97149,"name":"Badovinci","latitude":44.78534,"longitude":19.37146},{"id":97150,"name":"Bajina Bašta","latitude":43.97083,"longitude":19.5675},{"id":97157,"name":"Banovo Polje","latitude":44.9104,"longitude":19.44916},{"id":97160,"name":"Barič","latitude":44.6507,"longitude":20.25941},{"id":97174,"name":"Bečmen","latitude":44.77983,"longitude":20.20577},{"id":97170,"name":"Belgrade","latitude":44.80401,"longitude":20.46513},{"id":97172,"name":"Belotić","latitude":44.81782,"longitude":19.54801},{"id":97176,"name":"Biljača","latitude":42.35518,"longitude":21.74781},{"id":97177,"name":"Bogatić","latitude":44.8375,"longitude":19.48056},{"id":97179,"name":"Bogosavac","latitude":44.71799,"longitude":19.59533},{"id":97181,"name":"Boljevci","latitude":44.72355,"longitude":20.22348},{"id":97182,"name":"Bor","latitude":44.36667,"longitude":22.25},{"id":97186,"name":"Brdarica","latitude":44.55376,"longitude":19.7715},{"id":97187,"name":"Bukor","latitude":44.49523,"longitude":19.57116},{"id":97457,"name":"Čačak","latitude":43.89139,"longitude":20.34972},{"id":97456,"name":"Čajetina","latitude":43.74977,"longitude":19.71273},{"id":97454,"name":"Ćićevac","latitude":43.71882,"longitude":21.44085},{"id":97462,"name":"Čokešina","latitude":44.65319,"longitude":19.39016},{"id":97190,"name":"Crna Bara","latitude":44.87374,"longitude":19.3948},{"id":97455,"name":"Ćuprija","latitude":43.9275,"longitude":21.37},{"id":97193,"name":"Dobanovci","latitude":44.82631,"longitude":20.22487},{"id":97195,"name":"Dobrić","latitude":44.70224,"longitude":19.57931},{"id":97196,"name":"Donji Dobrić","latitude":44.61183,"longitude":19.33109},{"id":97197,"name":"Donji Milanovac","latitude":44.46593,"longitude":22.1517},{"id":97199,"name":"Draginje","latitude":44.53302,"longitude":19.7625},{"id":97200,"name":"Drenovac","latitude":44.86649,"longitude":19.70943},{"id":97201,"name":"Dublje","latitude":44.80117,"longitude":19.50902},{"id":97202,"name":"Duboka","latitude":44.52223,"longitude":21.7603},{"id":97452,"name":"Ðurići","latitude":43.82533,"longitude":19.41233},{"id":97209,"name":"Glušci","latitude":44.89021,"longitude":19.54913},{"id":97210,"name":"Golubac","latitude":44.65296,"longitude":21.63199},{"id":97212,"name":"Gornja Bukovica","latitude":44.33987,"longitude":19.81368},{"id":97214,"name":"Gornji Milanovac","latitude":44.02603,"longitude":20.46152},{"id":97215,"name":"Grabovac","latitude":44.60049,"longitude":20.08539},{"id":97226,"name":"Jablanica","latitude":42.99528,"longitude":21.91778},{"id":97227,"name":"Jadranska Lešnica","latitude":44.5973,"longitude":19.35209},{"id":97228,"name":"Jagodina","latitude":43.97713,"longitude":21.26121},{"id":97231,"name":"Jarebice","latitude":44.53995,"longitude":19.42418},{"id":97235,"name":"Jelenča","latitude":44.727,"longitude":19.735},{"id":97237,"name":"Jevremovac","latitude":44.72172,"longitude":19.66364},{"id":97238,"name":"Joševa","latitude":44.58772,"longitude":19.40967},{"id":97239,"name":"Kamenica","latitude":44.343,"longitude":19.72333},{"id":97245,"name":"Klenje","latitude":44.80794,"longitude":19.43508},{"id":97247,"name":"Knjazevac","latitude":43.56634,"longitude":22.25701},{"id":97248,"name":"Kolubara","latitude":44.26333,"longitude":19.8875},{"id":97255,"name":"Kozjak","latitude":44.58727,"longitude":19.28412},{"id":97256,"name":"Kragujevac","latitude":44.01667,"longitude":20.91667},{"id":97258,"name":"Kraljevo","latitude":43.72583,"longitude":20.68944},{"id":97259,"name":"Krivaja","latitude":44.55021,"longitude":19.59153},{"id":97260,"name":"Krupanj","latitude":44.36556,"longitude":19.36194},{"id":97261,"name":"Kruševac","latitude":43.58,"longitude":21.33389},{"id":97268,"name":"Lagja e Poshtme","latitude":42.38853,"longitude":21.72971},{"id":97269,"name":"Lapovo","latitude":44.18424,"longitude":21.09727},{"id":97270,"name":"Lazarevac","latitude":44.38534,"longitude":20.2557},{"id":97272,"name":"Leskovac","latitude":42.99806,"longitude":21.94611},{"id":97273,"name":"Lešnica","latitude":44.6525,"longitude":19.31},{"id":97274,"name":"Lipnički Šor","latitude":44.58058,"longitude":19.26572},{"id":97275,"name":"Lipolist","latitude":44.69783,"longitude":19.50101},{"id":97276,"name":"Ljig","latitude":44.23007,"longitude":20.23819},{"id":97277,"name":"Ljubovija","latitude":44.18944,"longitude":19.37667},{"id":97281,"name":"Lugavčina","latitude":44.52314,"longitude":21.07083},{"id":97289,"name":"Mačva","latitude":44.61472,"longitude":19.47222},{"id":97284,"name":"Majdanpek","latitude":44.42771,"longitude":21.94596},{"id":97285,"name":"Majur","latitude":44.77105,"longitude":19.65512},{"id":97286,"name":"Mala Moštanica","latitude":44.63834,"longitude":20.306},{"id":97287,"name":"Mali Zvornik","latitude":44.37344,"longitude":19.10651},{"id":97292,"name":"Metković","latitude":44.85617,"longitude":19.54654},{"id":97295,"name":"Miratovac","latitude":42.25846,"longitude":21.66456},{"id":97298,"name":"Morava","latitude":43.80389,"longitude":20.17806},{"id":97301,"name":"Negotin","latitude":44.22639,"longitude":22.53083},{"id":97305,"name":"Niš","latitude":43.32472,"longitude":21.90333},{"id":97306,"name":"Nišava","latitude":43.32306,"longitude":21.89444},{"id":97314,"name":"Novi Pazar","latitude":43.13667,"longitude":20.51222},{"id":97318,"name":"Novo Selo","latitude":44.67041,"longitude":19.34495},{"id":97319,"name":"Obrenovac","latitude":44.65486,"longitude":20.20017},{"id":97323,"name":"Osečina","latitude":44.37306,"longitude":19.60139},{"id":97324,"name":"Osječenik","latitude":43.14528,"longitude":19.85889},{"id":97326,"name":"Ostružnica","latitude":44.72769,"longitude":20.31845},{"id":97327,"name":"Ovča","latitude":44.88349,"longitude":20.53336},{"id":97331,"name":"Paraćin","latitude":43.86083,"longitude":21.40778},{"id":97351,"name":"Pčinja","latitude":42.56278,"longitude":21.8825},{"id":97334,"name":"Petkovica","latitude":44.66627,"longitude":19.43923},{"id":97337,"name":"Pirot","latitude":43.17528,"longitude":22.59278},{"id":97340,"name":"Pocerski Pričinović","latitude":44.72222,"longitude":19.70722},{"id":97341,"name":"Podunavlje District","latitude":44.48417,"longitude":20.91167},{"id":97342,"name":"Pomoravlje","latitude":43.93667,"longitude":21.40222},{"id":97343,"name":"Požarevac","latitude":44.62133,"longitude":21.18782},{"id":97344,"name":"Priboj","latitude":43.58306,"longitude":19.52519},{"id":97346,"name":"Prijepolje","latitude":43.38996,"longitude":19.6487},{"id":97347,"name":"Prislonica","latitude":43.95223,"longitude":20.43521},{"id":97348,"name":"Prnjavor","latitude":44.70061,"longitude":19.38695},{"id":97349,"name":"Prokuplje","latitude":43.23417,"longitude":21.58806},{"id":97352,"name":"Radenka","latitude":44.58345,"longitude":21.76469},{"id":97355,"name":"Radovnica","latitude":42.43364,"longitude":22.22861},{"id":97356,"name":"Rajince","latitude":42.3787,"longitude":21.69591},{"id":97357,"name":"Rasina","latitude":43.55917,"longitude":21.21472},{"id":97361,"name":"Raška","latitude":43.26694,"longitude":20.65278},{"id":97362,"name":"Ribari","latitude":44.70961,"longitude":19.42472},{"id":97366,"name":"Rumska","latitude":44.57261,"longitude":19.58988},{"id":97368,"name":"Rušanj","latitude":44.68477,"longitude":20.44993},{"id":97465,"name":"Šabac","latitude":44.74667,"longitude":19.69},{"id":97371,"name":"Salaš Crnobarski","latitude":44.82843,"longitude":19.39437},{"id":97373,"name":"Samoljica","latitude":42.38445,"longitude":21.73708},{"id":97468,"name":"Ševarice","latitude":44.86704,"longitude":19.66006},{"id":97469,"name":"Ševica","latitude":44.50883,"longitude":21.72296},{"id":97380,"name":"Sinošević","latitude":44.61503,"longitude":19.63601},{"id":97381,"name":"Sjenica","latitude":43.27306,"longitude":19.99944},{"id":97382,"name":"Smederevo","latitude":44.66436,"longitude":20.92763},{"id":97383,"name":"Smederevska Palanka","latitude":44.36548,"longitude":20.95885},{"id":97384,"name":"Sokolovica","latitude":43.21528,"longitude":20.31556},{"id":97385,"name":"Sokolovo Brdo","latitude":43.13694,"longitude":19.80556},{"id":97390,"name":"Sremčica","latitude":44.67653,"longitude":20.39232},{"id":97399,"name":"Stepojevac","latitude":44.51278,"longitude":20.295},{"id":97471,"name":"Štitar","latitude":44.79415,"longitude":19.59529},{"id":97400,"name":"Stubline","latitude":44.57476,"longitude":20.13477},{"id":97472,"name":"Šumadija","latitude":44.00222,"longitude":20.91778},{"id":97402,"name":"Sumulicë","latitude":42.38682,"longitude":21.734},{"id":97404,"name":"Surčin","latitude":44.79306,"longitude":20.28028},{"id":97406,"name":"Tabanović","latitude":44.82018,"longitude":19.64128},{"id":97412,"name":"Toplica","latitude":43.14194,"longitude":21.27806},{"id":97416,"name":"Tršić","latitude":44.49502,"longitude":19.2649},{"id":97415,"name":"Trstenik","latitude":43.61694,"longitude":21.0025},{"id":97417,"name":"Turija","latitude":44.52273,"longitude":21.63945},{"id":97418,"name":"Tutin","latitude":42.99028,"longitude":20.33139},{"id":97419,"name":"Ugrinovci","latitude":44.87635,"longitude":20.18763},{"id":97421,"name":"Umka","latitude":44.67806,"longitude":20.30472},{"id":97424,"name":"Užice","latitude":43.85861,"longitude":19.84878},{"id":97423,"name":"Uzveće","latitude":44.87861,"longitude":19.60356},{"id":97425,"name":"Valjevo","latitude":44.27513,"longitude":19.89821},{"id":97426,"name":"Varna","latitude":44.67914,"longitude":19.6515},{"id":97428,"name":"Velika Moštanica","latitude":44.66486,"longitude":20.35395},{"id":97434,"name":"Vladimirci","latitude":44.61472,"longitude":19.78528},{"id":97439,"name":"Vranić","latitude":44.60237,"longitude":20.32872},{"id":97440,"name":"Vranje","latitude":42.55139,"longitude":21.90028},{"id":97443,"name":"Vrnjačka Banja","latitude":43.62725,"longitude":20.89634},{"id":97445,"name":"Zaječar","latitude":43.69917,"longitude":21.98778},{"id":97446,"name":"Zemun","latitude":44.8458,"longitude":20.40116},{"id":97447,"name":"Zlatibor","latitude":43.729,"longitude":19.70029},{"id":97449,"name":"Zminjak","latitude":44.75711,"longitude":19.4707},{"id":97475,"name":"Žujince","latitude":42.31568,"longitude":21.70212},{"id":97451,"name":"Zvečka","latitude":44.64025,"longitude":20.16432}]