[{"id":89874,"name":"Abrud","latitude":46.27406,"longitude":23.06339},{"id":89875,"name":"Abrud-Sat","latitude":46.28166,"longitude":23.06098},{"id":89907,"name":"Aiud","latitude":46.31006,"longitude":23.72128},{"id":89908,"name":"Aiudul de Sus","latitude":46.31653,"longitude":23.69053},{"id":89910,"name":"Alba Iulia","latitude":46.06667,"longitude":23.58333},{"id":89911,"name":"Albac","latitude":46.45246,"longitude":22.95164},{"id":89937,"name":"Almaşu Mare","latitude":46.11014,"longitude":23.11721},{"id":89992,"name":"Arieşeni","latitude":46.47641,"longitude":22.75741},{"id":90006,"name":"Avram Iancu","latitude":46.38333,"longitude":22.78333},{"id":90032,"name":"Baia de Arieş","latitude":46.38045,"longitude":23.28115},{"id":90504,"name":"Bălcaciu","latitude":46.19122,"longitude":24.06139},{"id":90545,"name":"Bărăbanț","latitude":46.0993,"longitude":23.58487},{"id":90109,"name":"Berghin","latitude":46.07782,"longitude":23.73742},{"id":90132,"name":"Biia","latitude":46.23097,"longitude":24.00461},{"id":90143,"name":"Bistra","latitude":46.3782,"longitude":23.10081},{"id":90156,"name":"Blaj","latitude":46.17508,"longitude":23.91578},{"id":90161,"name":"Blândiana","latitude":45.97943,"longitude":23.38543},{"id":90159,"name":"Blideşti","latitude":46.3,"longitude":23.13333},{"id":90344,"name":"Bucerdea-Grânoasă","latitude":46.2,"longitude":23.83333},{"id":90350,"name":"Bucium","latitude":46.26402,"longitude":23.1791},{"id":93791,"name":"Câlnic","latitude":45.88333,"longitude":23.66667},{"id":93796,"name":"Câmpeni","latitude":46.36667,"longitude":23.05},{"id":90614,"name":"Cenade","latitude":46.05,"longitude":24.01667},{"id":90625,"name":"Cergău Mare","latitude":46.09869,"longitude":23.92284},{"id":90626,"name":"Cergău Mic","latitude":46.08333,"longitude":23.93333},{"id":90642,"name":"Ceru-Băcăinţi","latitude":45.98333,"longitude":23.25},{"id":90649,"name":"Cetatea de Baltă","latitude":46.24794,"longitude":24.17244},{"id":90746,"name":"Ciugud","latitude":46.05,"longitude":23.61667},{"id":90750,"name":"Ciumbrud","latitude":46.3081,"longitude":23.76222},{"id":90759,"name":"Ciuruleasa","latitude":46.25,"longitude":23.03333},{"id":90837,"name":"Comuna Albac","latitude":46.45246,"longitude":22.95027},{"id":90857,"name":"Comuna Almaşu Mare","latitude":46.10877,"longitude":23.12038},{"id":90892,"name":"Comuna Arieşeni","latitude":46.47659,"longitude":22.75535},{"id":90905,"name":"Comuna Avram Iancu","latitude":46.38333,"longitude":22.78333},{"id":90968,"name":"Comuna Berghin","latitude":46.07484,"longitude":23.73768},{"id":90995,"name":"Comuna Bistra","latitude":46.37856,"longitude":23.1015},{"id":91005,"name":"Comuna Blândiana","latitude":45.98146,"longitude":23.38543},{"id":91125,"name":"Comuna Bucerdea-Grânoasă","latitude":46.20878,"longitude":23.85614},{"id":91129,"name":"Comuna Bucium","latitude":46.26131,"longitude":23.15742},{"id":91540,"name":"Comuna Câlnic","latitude":45.87305,"longitude":23.64329},{"id":91281,"name":"Comuna Cenade","latitude":46.08045,"longitude":24.01382},{"id":91289,"name":"Comuna Cergău","latitude":46.09314,"longitude":23.94597},{"id":91299,"name":"Comuna Ceru-Băcăinţi","latitude":46.00117,"longitude":23.26983},{"id":91305,"name":"Comuna Cetatea de Baltă","latitude":46.21619,"longitude":24.16716},{"id":91367,"name":"Comuna Ciugud","latitude":46.06526,"longitude":23.62794},{"id":91377,"name":"Comuna Ciuruleasa","latitude":46.24481,"longitude":23.01644},{"id":91516,"name":"Comuna Crăciunelu de Jos","latitude":46.17285,"longitude":23.83585},{"id":91495,"name":"Comuna Cricău","latitude":46.18689,"longitude":23.55309},{"id":91533,"name":"Comuna Cut","latitude":45.93972,"longitude":23.66719},{"id":91601,"name":"Comuna Daia Română","latitude":46.00709,"longitude":23.66816},{"id":91668,"name":"Comuna Doştat","latitude":45.96143,"longitude":23.83313},{"id":91825,"name":"Comuna Fărău","latitude":46.32999,"longitude":24.04335},{"id":91829,"name":"Comuna Galda de Jos","latitude":46.21776,"longitude":23.56918},{"id":91965,"name":"Comuna Gârbova","latitude":45.85277,"longitude":23.68693},{"id":91971,"name":"Comuna Gârda de Sus","latitude":46.46719,"longitude":22.81519},{"id":92014,"name":"Comuna Hopârta","latitude":46.33134,"longitude":23.9034},{"id":92015,"name":"Comuna Horea","latitude":46.50058,"longitude":22.94915},{"id":92066,"name":"Comuna Ighiu","latitude":46.14854,"longitude":23.51232},{"id":93494,"name":"Comuna Întregalde","latitude":46.24908,"longitude":23.39213},{"id":92121,"name":"Comuna Jidvei","latitude":46.23083,"longitude":24.11475},{"id":92176,"name":"Comuna Livezile","latitude":46.37559,"longitude":23.58563},{"id":92183,"name":"Comuna Lopadea Nouă","latitude":46.27782,"longitude":23.84975},{"id":92205,"name":"Comuna Lunca Mureşului","latitude":46.42943,"longitude":23.93272},{"id":92216,"name":"Comuna Lupşa","latitude":46.34891,"longitude":23.20455},{"id":92262,"name":"Comuna Meteş","latitude":46.10543,"longitude":23.41707},{"id":92278,"name":"Comuna Mihalţ","latitude":46.17641,"longitude":23.73841},{"id":92303,"name":"Comuna Mirăslău","latitude":46.3866,"longitude":23.69329},{"id":92317,"name":"Comuna Mogoş","latitude":46.28356,"longitude":23.31873},{"id":92453,"name":"Comuna Noşlac","latitude":46.413,"longitude":23.97668},{"id":92480,"name":"Comuna Ocoliş","latitude":46.49636,"longitude":23.46581},{"id":92487,"name":"Comuna Ohaba","latitude":46.08263,"longitude":23.80106},{"id":92572,"name":"Comuna Pianu","latitude":45.87127,"longitude":23.49549},{"id":92634,"name":"Comuna Poiana Vadului","latitude":46.40457,"longitude":22.8708},{"id":92651,"name":"Comuna Ponor","latitude":46.32065,"longitude":23.40376},{"id":92666,"name":"Comuna Poşaga","latitude":46.45354,"longitude":23.36115},{"id":92842,"name":"Comuna Rădeşti","latitude":46.24931,"longitude":23.74444},{"id":92822,"name":"Comuna Râmeţ","latitude":46.31564,"longitude":23.52602},{"id":92821,"name":"Comuna Râmetea","latitude":46.43815,"longitude":23.56579},{"id":92799,"name":"Comuna Roşia de Secaş","latitude":46.04807,"longitude":23.85329},{"id":92798,"name":"Comuna Roşia Montană","latitude":46.30991,"longitude":23.08697},{"id":93096,"name":"Comuna Sălciua","latitude":46.38261,"longitude":23.41526},{"id":93076,"name":"Comuna Sãliştea","latitude":45.91425,"longitude":23.41294},{"id":93049,"name":"Comuna Sâncel","latitude":46.21176,"longitude":23.94791},{"id":93067,"name":"Comuna Sântimbru","latitude":46.12974,"longitude":23.66899},{"id":93112,"name":"Comuna Săsciori","latitude":45.85629,"longitude":23.56898},{"id":92905,"name":"Comuna Scărişoara","latitude":46.46072,"longitude":22.88166},{"id":93512,"name":"Comuna Şibot","latitude":45.94093,"longitude":23.32226},{"id":92972,"name":"Comuna Sohodol","latitude":46.32748,"longitude":22.99414},{"id":93540,"name":"Comuna Şona","latitude":46.25089,"longitude":24.00259},{"id":93545,"name":"Comuna Şpring","latitude":45.96833,"longitude":23.73449},{"id":93003,"name":"Comuna Stremţ","latitude":46.25606,"longitude":23.5934},{"id":93558,"name":"Comuna Şugag","latitude":45.7478,"longitude":23.59957},{"id":93274,"name":"Comuna Unirea","latitude":46.41948,"longitude":23.7626},{"id":93293,"name":"Comuna Vadu Moţilor","latitude":46.4091,"longitude":22.95532},{"id":93308,"name":"Comuna Valea Lungă","latitude":46.13355,"longitude":24.0828},{"id":93354,"name":"Comuna Vidra","latitude":46.37067,"longitude":22.92726},{"id":93368,"name":"Comuna Vinţu de Jos","latitude":46.02229,"longitude":23.45647},{"id":93751,"name":"Crăciunelu de Jos","latitude":46.18333,"longitude":23.83333},{"id":93717,"name":"Cricău","latitude":46.18333,"longitude":23.56667},{"id":93765,"name":"Cugir","latitude":45.83651,"longitude":23.36998},{"id":93780,"name":"Cut","latitude":45.93972,"longitude":23.66719},{"id":93889,"name":"Daia Română","latitude":46.01667,"longitude":23.66667},{"id":93947,"name":"Dobra","latitude":45.76913,"longitude":23.64218},{"id":94008,"name":"Doştat","latitude":45.96667,"longitude":23.85},{"id":94268,"name":"Fărău","latitude":46.33333,"longitude":24.01667},{"id":94151,"name":"Feisa","latitude":46.22608,"longitude":24.14492},{"id":94157,"name":"Feneș","latitude":46.10431,"longitude":23.29511},{"id":94276,"name":"Galda de Jos","latitude":46.18333,"longitude":23.61667},{"id":94483,"name":"Gârbova","latitude":45.86667,"longitude":23.73333},{"id":94489,"name":"Gârda de Sus","latitude":46.45,"longitude":22.81667},{"id":94556,"name":"Hopârta","latitude":46.32134,"longitude":23.87244},{"id":94557,"name":"Horea","latitude":46.50246,"longitude":22.95034},{"id":94647,"name":"Ighiel","latitude":46.1468,"longitude":23.47968},{"id":94648,"name":"Ighiu","latitude":46.15,"longitude":23.51667},{"id":94671,"name":"Intregalde","latitude":46.25,"longitude":23.41667},{"id":94710,"name":"Izvoarele","latitude":46.17011,"longitude":23.90377},{"id":94733,"name":"Jidvei","latitude":46.21667,"longitude":24.1},{"id":94758,"name":"Lancrăm","latitude":45.98708,"longitude":23.55665},{"id":94823,"name":"Livezile","latitude":46.35,"longitude":23.63333},{"id":94832,"name":"Lopadea Nouă","latitude":46.2909,"longitude":23.81901},{"id":94868,"name":"Lunca Mureşului","latitude":46.43333,"longitude":23.9},{"id":94886,"name":"Lupşa","latitude":46.36667,"longitude":23.2},{"id":94962,"name":"Meteş","latitude":46.1,"longitude":23.41667},{"id":94967,"name":"Micești","latitude":46.10141,"longitude":23.55573},{"id":94985,"name":"Mihalţ","latitude":46.15,"longitude":23.73333},{"id":95025,"name":"Mirăslău","latitude":46.36667,"longitude":23.71667},{"id":95056,"name":"Mogoș","latitude":46.27554,"longitude":23.28038},{"id":95106,"name":"Municipiul Aiud","latitude":46.3044,"longitude":23.69751},{"id":95107,"name":"Municipiul Alba Iulia","latitude":46.06346,"longitude":23.57494},{"id":95114,"name":"Municipiul Blaj","latitude":46.15084,"longitude":23.91041},{"id":95179,"name":"Municipiul Sebeş","latitude":45.94237,"longitude":23.57681},{"id":95358,"name":"Noşlac","latitude":46.4,"longitude":23.93333},{"id":95382,"name":"Oarda","latitude":46.03333,"longitude":23.56667},{"id":95395,"name":"Ocna Mureş","latitude":46.38333,"longitude":23.85},{"id":95402,"name":"Ocoliş","latitude":46.48333,"longitude":23.46667},{"id":95417,"name":"Ohaba","latitude":46.06667,"longitude":23.78333},{"id":95626,"name":"Oraş abrud","latitude":46.27409,"longitude":23.06129},{"id":95456,"name":"Oraş Baia de Arieş","latitude":46.37933,"longitude":23.29903},{"id":95503,"name":"Oraş Câmpeni","latitude":46.38493,"longitude":23.04553},{"id":95501,"name":"Oraş Cugir","latitude":45.81371,"longitude":23.4074},{"id":95556,"name":"Oraş Ocna Mureş","latitude":46.38475,"longitude":23.8407},{"id":95602,"name":"Oraş Teiuş","latitude":46.20959,"longitude":23.70812},{"id":95624,"name":"Oraş Zlatna","latitude":46.13753,"longitude":23.20215},{"id":95750,"name":"Petrești","latitude":45.92102,"longitude":23.56083},{"id":95766,"name":"Pianu de Jos","latitude":45.93528,"longitude":23.48912},{"id":95767,"name":"Pianu de Sus","latitude":45.9,"longitude":23.48333},{"id":95883,"name":"Poiana Vadului","latitude":46.4,"longitude":22.88333},{"id":95896,"name":"Poienile-Mogoş","latitude":46.28333,"longitude":23.28333},{"id":95906,"name":"Ponor","latitude":46.33333,"longitude":23.41667},{"id":95936,"name":"Poşaga de Sus","latitude":46.46667,"longitude":23.38333},{"id":96195,"name":"Rădeşti","latitude":46.26667,"longitude":23.71667},{"id":96214,"name":"Războieni-Cetate","latitude":46.41335,"longitude":23.87158},{"id":96094,"name":"Rimetea","latitude":46.45,"longitude":23.56667},{"id":96129,"name":"Roşia de Secaş","latitude":46.05,"longitude":23.88333},{"id":96136,"name":"Roșia Montană","latitude":46.30669,"longitude":23.13373},{"id":106013,"name":"Sălciua de Sus","latitude":46.4,"longitude":23.41667},{"id":106020,"name":"Săliștea","latitude":45.90744,"longitude":23.39789},{"id":106019,"name":"Săliştea-Deal","latitude":45.9,"longitude":23.4},{"id":96523,"name":"Sâncel","latitude":46.2,"longitude":23.95},{"id":96525,"name":"Sâncrai","latitude":46.29394,"longitude":23.75209},{"id":105979,"name":"Sântimbru","latitude":46.13333,"longitude":23.65},{"id":97114,"name":"Șard","latitude":46.12814,"longitude":23.5352},{"id":106039,"name":"Săsciori","latitude":45.86667,"longitude":23.58333},{"id":96296,"name":"Scărişoara","latitude":46.46667,"longitude":22.85},{"id":96302,"name":"Sebeş","latitude":45.95646,"longitude":23.571},{"id":96303,"name":"Sebeșel","latitude":45.88771,"longitude":23.56606},{"id":97042,"name":"Şibot","latitude":45.95,"longitude":23.33333},{"id":96403,"name":"Sohodol","latitude":46.35581,"longitude":23.02923},{"id":97070,"name":"Şona","latitude":46.21667,"longitude":24.01667},{"id":97076,"name":"Şpring","latitude":45.96667,"longitude":23.78333},{"id":96453,"name":"Stremţ","latitude":46.21667,"longitude":23.63333},{"id":97090,"name":"Şugag","latitude":45.76667,"longitude":23.63333},{"id":106072,"name":"Teiuş","latitude":46.2,"longitude":23.68333},{"id":97137,"name":"Țelna","latitude":46.15902,"longitude":23.50099},{"id":106111,"name":"Tiur","latitude":46.16009,"longitude":23.88927},{"id":96641,"name":"Uioara de Jos","latitude":46.37087,"longitude":23.83863},{"id":96668,"name":"Unirea","latitude":46.40387,"longitude":23.81314},{"id":96698,"name":"Vadu Moţilor","latitude":46.4,"longitude":22.96667},{"id":96729,"name":"Valea Lungă Alba Romania","latitude":46.12592,"longitude":24.04541},{"id":96794,"name":"Veseuș","latitude":46.27456,"longitude":24.14276},{"id":96797,"name":"Veza","latitude":46.16747,"longitude":23.9247},{"id":96808,"name":"Vidra","latitude":46.36758,"longitude":22.88811},{"id":96831,"name":"Vinerea","latitude":45.88632,"longitude":23.35289},{"id":96837,"name":"Vințu de Jos","latitude":45.99462,"longitude":23.48612},{"id":96915,"name":"Vurpăr","latitude":46.0,"longitude":23.46667},{"id":96998,"name":"Zlatna","latitude":46.10633,"longitude":23.23162}]