[{"id":67631,"name":"Bago","latitude":17.33521,"longitude":96.48135},{"id":67651,"name":"Letpandan","latitude":17.78664,"longitude":95.75076},{"id":67674,"name":"Nyaunglebin","latitude":17.95363,"longitude":96.72247},{"id":67678,"name":"Paungde","latitude":18.49167,"longitude":95.50591},{"id":67681,"name":"Pyay","latitude":18.82464,"longitude":95.22216},{"id":67684,"name":"Pyu","latitude":18.4813,"longitude":96.43742},{"id":67694,"name":"Taungoo","latitude":18.94291,"longitude":96.43408},{"id":67695,"name":"Thanatpin","latitude":17.29136,"longitude":96.57523},{"id":67696,"name":"Tharyarwady","latitude":17.65399,"longitude":95.78813}]