[{"id":97481,"name":"Aban","latitude":56.6787,"longitude":96.0658},{"id":97482,"name":"Abanskiy Rayon","latitude":56.83333,"longitude":96.0},{"id":97495,"name":"Achinsk","latitude":56.2694,"longitude":90.4993},{"id":97496,"name":"Achinskiy Rayon","latitude":56.25,"longitude":90.5},{"id":97517,"name":"Aginskoye","latitude":55.2586,"longitude":94.9079},{"id":97768,"name":"Balakhta","latitude":55.38425,"longitude":91.61872},{"id":97769,"name":"Balakhtinskiy Rayon","latitude":55.5,"longitude":91.5},{"id":97825,"name":"Baykit","latitude":61.67694,"longitude":96.37917},{"id":97904,"name":"Berëzovka","latitude":56.03044,"longitude":93.11164},{"id":97896,"name":"Berezovskiy rayon","latitude":56.03446,"longitude":93.13866},{"id":97934,"name":"Birilyusskiy Rayon","latitude":57.25,"longitude":90.75},{"id":97976,"name":"Bogotol","latitude":56.20778,"longitude":89.53417},{"id":97977,"name":"Bogotol’skiy Rayon","latitude":56.25,"longitude":89.75},{"id":97981,"name":"Boguchanskiy Rayon","latitude":58.5,"longitude":97.5},{"id":97982,"name":"Boguchany","latitude":58.38139,"longitude":97.45306},{"id":98004,"name":"Bol’shemurtinskiy Rayon","latitude":57.0,"longitude":93.0},{"id":98007,"name":"Bol’sheuluyskiy Rayon","latitude":56.66667,"longitude":90.75},{"id":98020,"name":"Bor","latitude":61.60111,"longitude":90.01806},{"id":98030,"name":"Borodino","latitude":55.9061,"longitude":94.9079},{"id":98222,"name":"Chunoyar","latitude":57.4483,"longitude":97.3286},{"id":98275,"name":"Dikson","latitude":73.50819,"longitude":80.52918},{"id":98279,"name":"Divnogorsk","latitude":55.9581,"longitude":92.3726},{"id":98334,"name":"Dubinino","latitude":55.61917,"longitude":89.09111},{"id":98347,"name":"Dudinka","latitude":69.40583,"longitude":86.17778},{"id":98370,"name":"Dzerzhinskoye","latitude":56.83444,"longitude":95.22833},{"id":98407,"name":"Evenkiyskiy District","latitude":65.0,"longitude":98.0},{"id":98426,"name":"Filimonovo","latitude":56.20111,"longitude":95.46111},{"id":98628,"name":"Idrinskiy Rayon","latitude":54.5,"longitude":92.5},{"id":98629,"name":"Idrinskoye","latitude":54.37083,"longitude":92.13583},{"id":98631,"name":"Igarka","latitude":67.4655,"longitude":86.6027},{"id":98650,"name":"Il’ichevo","latitude":53.27889,"longitude":91.84028},{"id":98642,"name":"Ilanskiy","latitude":56.2325,"longitude":96.0652},{"id":98643,"name":"Ilanskiy Rayon","latitude":56.0,"longitude":96.08333},{"id":98687,"name":"Irbeyskiy Rayon","latitude":55.41667,"longitude":96.0},{"id":98688,"name":"Irbeyskoye","latitude":55.6396,"longitude":95.4515},{"id":98693,"name":"Irsha","latitude":55.9273,"longitude":94.7999},{"id":98844,"name":"Kansk","latitude":56.20167,"longitude":95.7175},{"id":98845,"name":"Kanskiy Rayon","latitude":56.25,"longitude":95.25},{"id":98871,"name":"Karatuzskoye","latitude":53.60722,"longitude":92.86667},{"id":98920,"name":"Kayyerkan","latitude":69.37861,"longitude":87.74389},{"id":98922,"name":"Kazachinskiy Rayon","latitude":57.66667,"longitude":93.41667},{"id":98923,"name":"Kazachinskoye","latitude":57.7004,"longitude":93.2809},{"id":98936,"name":"Kedrovyy","latitude":56.28232,"longitude":91.5376},{"id":98972,"name":"Khatanga","latitude":71.98002,"longitude":102.47111},{"id":99127,"name":"Kodinsk","latitude":58.60629,"longitude":99.17398},{"id":99230,"name":"Koshurnikovo","latitude":54.16667,"longitude":93.3},{"id":99321,"name":"Krasnokamensk","latitude":54.33389,"longitude":93.25944},{"id":99336,"name":"Krasnoturansk","latitude":54.31861,"longitude":91.56389},{"id":99343,"name":"Krasnoyarsk","latitude":56.01839,"longitude":92.86717},{"id":99452,"name":"Kuragino","latitude":53.88785,"longitude":92.68152},{"id":99604,"name":"Lesosibirsk","latitude":58.23583,"longitude":92.48278},{"id":99783,"name":"Manskiy Rayon","latitude":55.41667,"longitude":93.66667},{"id":99788,"name":"Manzya","latitude":58.49222,"longitude":96.26167},{"id":99918,"name":"Minusinsk","latitude":53.71028,"longitude":91.6875},{"id":99919,"name":"Minusinskiy Rayon","latitude":53.75,"longitude":92.0},{"id":99983,"name":"Motygino","latitude":58.18401,"longitude":94.69339},{"id":100075,"name":"Nazarovo","latitude":56.0104,"longitude":90.4011},{"id":100076,"name":"Nazarovskiy Rayon","latitude":56.0,"longitude":90.625},{"id":100153,"name":"Nizhneingashskiy Rayon","latitude":56.25,"longitude":97.0},{"id":100167,"name":"Nizhniy Ingash","latitude":56.2003,"longitude":96.5373},{"id":100185,"name":"Nizhnyaya Poyma","latitude":56.1643,"longitude":97.2065},{"id":100198,"name":"Norilsk","latitude":69.3535,"longitude":88.2027},{"id":100230,"name":"Novobirilyussy","latitude":56.9526,"longitude":90.6807},{"id":100236,"name":"Novochernorechenskiy","latitude":56.26658,"longitude":91.09234},{"id":100513,"name":"Ovsyanka","latitude":55.9583,"longitude":92.572},{"id":100556,"name":"Partizanskiy Rayon","latitude":55.0,"longitude":94.16667},{"id":100557,"name":"Partizanskoye","latitude":55.4972,"longitude":94.3922},{"id":100684,"name":"Pirovskoye","latitude":57.63012,"longitude":92.26373},{"id":100808,"name":"Predivinsk","latitude":57.0631,"longitude":93.4374},{"id":100945,"name":"Rassvet","latitude":56.999,"longitude":91.4724},{"id":100949,"name":"Razdolinsk","latitude":58.42111,"longitude":94.66583},{"id":101140,"name":"Sayansk","latitude":54.15,"longitude":91.885},{"id":101141,"name":"Sayanskiy Rayon","latitude":54.75,"longitude":95.0},{"id":101213,"name":"Severo-Yeniseyskiy","latitude":60.37552,"longitude":93.03017},{"id":101214,"name":"Severo-Yeniseyskiy Rayon","latitude":60.0,"longitude":93.25},{"id":101247,"name":"Shalinskoye","latitude":55.7194,"longitude":93.7589},{"id":101263,"name":"Sharypovo","latitude":55.54028,"longitude":89.20083},{"id":101264,"name":"Sharypovskiy Rayon","latitude":55.5,"longitude":89.25},{"id":101356,"name":"Shushenskiy Rayon","latitude":53.41667,"longitude":91.5},{"id":101357,"name":"Shushenskoye","latitude":53.325,"longitude":91.93556},{"id":101425,"name":"Snezhnogorsk","latitude":68.09306,"longitude":87.74},{"id":101457,"name":"Solnechnyy","latitude":56.11583,"longitude":92.92528},{"id":101494,"name":"Sosnovoborsk","latitude":56.1217,"longitude":93.3385},{"id":101627,"name":"Strelka","latitude":58.07278,"longitude":93.03444},{"id":101652,"name":"Sukhobuzimskoye","latitude":56.5,"longitude":93.27278},{"id":101702,"name":"Svetlogorsk","latitude":66.93762,"longitude":88.35265},{"id":101754,"name":"Talnakh","latitude":69.4865,"longitude":88.3972},{"id":101767,"name":"Tanzybey","latitude":53.13265,"longitude":92.94335},{"id":101784,"name":"Taseyevo","latitude":57.21457,"longitude":94.89393},{"id":101804,"name":"Taymyrsky Dolgano-Nenetsky District","latitude":72.0,"longitude":95.0},{"id":101846,"name":"Teya","latitude":60.37202,"longitude":92.62956},{"id":101861,"name":"Tinskoy","latitude":56.1513,"longitude":96.9173},{"id":101972,"name":"Tura","latitude":64.27769,"longitude":100.21849},{"id":101982,"name":"Turukhansk","latitude":65.79479,"longitude":87.95006},{"id":102001,"name":"Tyukhtet","latitude":56.53939,"longitude":89.31221},{"id":102069,"name":"Ural","latitude":55.9052,"longitude":94.7537},{"id":102160,"name":"Uyar","latitude":55.8118,"longitude":94.3247},{"id":102161,"name":"Uyarskiy Rayon","latitude":55.83333,"longitude":94.25},{"id":102165,"name":"Uzhur","latitude":55.31246,"longitude":89.83301},{"id":102185,"name":"Vanavara","latitude":60.34679,"longitude":102.28434},{"id":102555,"name":"Yemel’yanovo","latitude":56.16776,"longitude":92.67539},{"id":102556,"name":"Yemel’yanovskiy Rayon","latitude":56.41667,"longitude":92.75},{"id":102560,"name":"Yeniseysk","latitude":58.44937,"longitude":92.17968},{"id":102561,"name":"Yeniseyskiy Rayon","latitude":60.0,"longitude":89.0},{"id":102564,"name":"Yermakovskoye","latitude":53.27545,"longitude":92.40021},{"id":102696,"name":"Zelenogorsk","latitude":56.1124,"longitude":94.5985},{"id":102703,"name":"Zelënyy Bor","latitude":53.62178,"longitude":91.61528},{"id":102721,"name":"Zheleznogorsk","latitude":56.25111,"longitude":93.53194},{"id":102786,"name":"Zykovo","latitude":55.95503,"longitude":93.16093}]