[{"id":143877,"name":"Acevedo","latitude":1.83611111,"longitude":-75.855},{"id":143878,"name":"Aipe","latitude":3.22194444,"longitude":-75.2375},{"id":143879,"name":"Algeciras","latitude":2.52194444,"longitude":-75.31444444},{"id":143880,"name":"Altamira","latitude":2.06333333,"longitude":-75.78777778},{"id":143881,"name":"Baraya","latitude":3.15305556,"longitude":-75.0525},{"id":143882,"name":"Campoalegre","latitude":2.68666667,"longitude":-75.32555556},{"id":143883,"name":"Colombia","latitude":3.375,"longitude":-74.80194444},{"id":143884,"name":"El Agrado","latitude":2.25833056,"longitude":-75.7725},{"id":143885,"name":"Elias","latitude":2.01361111,"longitude":-75.93972222},{"id":143886,"name":"Garzón","latitude":2.19611111,"longitude":-75.62916667},{"id":143887,"name":"Gigante","latitude":2.38666944,"longitude":-75.5461},{"id":143888,"name":"Guadalupe","latitude":2.025,"longitude":-75.75638889},{"id":143889,"name":"Hobo","latitude":2.5825,"longitude":-75.45111111},{"id":143890,"name":"Iquira","latitude":2.64833333,"longitude":-75.63638889},{"id":143891,"name":"Isnos","latitude":1.92888889,"longitude":-76.21583333},{"id":149242,"name":"La Argentina","latitude":2.19755555,"longitude":-75.98888888},{"id":143892,"name":"La Plata","latitude":2.39,"longitude":-75.89194444},{"id":143893,"name":"Nataga","latitude":2.54388889,"longitude":-75.80861111},{"id":143894,"name":"Neiva","latitude":2.9275,"longitude":-75.2875},{"id":143895,"name":"Oporapa","latitude":2.02305556,"longitude":-75.99527778},{"id":143896,"name":"Paicol","latitude":2.44972222,"longitude":-75.77388889},{"id":143897,"name":"Palermo","latitude":2.88833333,"longitude":-75.43388889},{"id":143898,"name":"Palestina","latitude":1.7225,"longitude":-76.13055556},{"id":143899,"name":"Pital","latitude":2.26638889,"longitude":-75.80444444},{"id":143900,"name":"Pitalito","latitude":1.85388889,"longitude":-76.05138889},{"id":143901,"name":"Rivera","latitude":2.77722222,"longitude":-75.25638889},{"id":143902,"name":"Saladoblanco","latitude":1.99333333,"longitude":-76.04527778},{"id":143903,"name":"San Agustín","latitude":1.87916667,"longitude":-76.26833333},{"id":143904,"name":"Santa María","latitude":2.93777778,"longitude":-75.58694444},{"id":143905,"name":"Suaza","latitude":1.975,"longitude":-75.79555556},{"id":143906,"name":"Tarqui","latitude":2.11055556,"longitude":-75.82305556},{"id":143907,"name":"Tello","latitude":3.06666667,"longitude":-75.13861111},{"id":143908,"name":"Teruel","latitude":2.74055556,"longitude":-75.56833333},{"id":143909,"name":"Tesalia","latitude":2.48472222,"longitude":-75.73},{"id":143910,"name":"Timana","latitude":1.97136,"longitude":-75.93123},{"id":143911,"name":"Villavieja","latitude":3.21888889,"longitude":-75.21833333},{"id":143912,"name":"Yaguará","latitude":2.66361111,"longitude":-75.5175}]