[{"id":55178,"name":"Ajka","latitude":47.10196,"longitude":17.55892},{"id":55179,"name":"Ajkai Járás","latitude":47.07988,"longitude":17.56375},{"id":55200,"name":"Badacsonytomaj","latitude":46.80711,"longitude":17.51385},{"id":55212,"name":"Balatonalmádi","latitude":47.03526,"longitude":18.02076},{"id":55213,"name":"Balatonalmádi Járás","latitude":47.04174,"longitude":18.09617},{"id":55218,"name":"Balatonfüred","latitude":46.96188,"longitude":17.87187},{"id":55219,"name":"Balatonfüredi Járás","latitude":46.93952,"longitude":17.79411},{"id":55220,"name":"Balatonkenese","latitude":47.04019,"longitude":18.10671},{"id":55241,"name":"Berhida","latitude":47.11131,"longitude":18.12948},{"id":55323,"name":"Csabrendek","latitude":47.01356,"longitude":17.29108},{"id":55335,"name":"Csetény","latitude":47.31806,"longitude":17.99208},{"id":55339,"name":"Csopak","latitude":46.97709,"longitude":17.91819},{"id":55360,"name":"Devecser","latitude":47.10316,"longitude":17.43802},{"id":55361,"name":"Devecseri Járás","latitude":47.16836,"longitude":17.32271},{"id":55492,"name":"Hajmáskér","latitude":47.14513,"longitude":18.01964},{"id":55506,"name":"Herend","latitude":47.13333,"longitude":17.75},{"id":55664,"name":"Litér","latitude":47.10104,"longitude":18.00454},{"id":55766,"name":"Nemesvámos","latitude":47.05514,"longitude":17.87477},{"id":56172,"name":"Ősi","latitude":47.14722,"longitude":18.18833},{"id":55842,"name":"Pápa","latitude":47.33004,"longitude":17.4674},{"id":55843,"name":"Pápai Járás","latitude":47.33769,"longitude":17.49663},{"id":55858,"name":"Pétfürdő","latitude":47.16667,"longitude":18.11667},{"id":55879,"name":"Révfülöp","latitude":46.82573,"longitude":17.61967},{"id":55999,"name":"Sümeg","latitude":46.97703,"longitude":17.28209},{"id":56000,"name":"Sümegi Járás","latitude":47.02648,"longitude":17.26779},{"id":55943,"name":"Szentkirályszabadja","latitude":47.0576,"longitude":17.97052},{"id":56009,"name":"Tapolca","latitude":46.88152,"longitude":17.44117},{"id":56010,"name":"Tapolcai Járás","latitude":46.89833,"longitude":17.4951},{"id":56020,"name":"Tihany","latitude":46.91369,"longitude":17.88918},{"id":56166,"name":"Úrkút","latitude":47.08505,"longitude":17.64393},{"id":56112,"name":"Várpalota","latitude":47.19936,"longitude":18.13954},{"id":56113,"name":"Várpalotai Járás","latitude":47.18514,"longitude":18.12211},{"id":56100,"name":"Veszprém","latitude":47.09327,"longitude":17.91149},{"id":56101,"name":"Veszprémi Járás","latitude":47.09666,"longitude":17.82157},{"id":56138,"name":"Zánka","latitude":46.87146,"longitude":17.68473},{"id":56127,"name":"Zirc","latitude":47.26362,"longitude":17.87373},{"id":56128,"name":"Zirci Járás","latitude":47.28583,"longitude":17.88412}]