[{"id":76760,"name":"Ajasse Ipo","latitude":8.23333,"longitude":4.81667},{"id":76809,"name":"Bode Saadu","latitude":8.939,"longitude":4.78227},{"id":76899,"name":"Gwasero","latitude":9.48333,"longitude":3.5},{"id":76946,"name":"Ilorin","latitude":8.49664,"longitude":4.54214},{"id":76958,"name":"Jebba","latitude":9.11972,"longitude":4.8236},{"id":76971,"name":"Kaiama","latitude":9.6053,"longitude":3.94101},{"id":77001,"name":"Lafiagi","latitude":8.85299,"longitude":5.41641},{"id":77051,"name":"Offa","latitude":8.14911,"longitude":4.72074},{"id":77063,"name":"Okuta","latitude":9.21667,"longitude":3.18333},{"id":77065,"name":"Omu-Aran","latitude":8.13857,"longitude":5.1026},{"id":77087,"name":"Patigi","latitude":8.72851,"longitude":5.75561},{"id":77109,"name":"Suya","latitude":9.46667,"longitude":3.18333},{"id":77143,"name":"Yashikera","latitude":9.76667,"longitude":3.4}]