[{"id":56509,"name":"Kabupaten Majene","latitude":-3.15,"longitude":118.86667},{"id":56517,"name":"Kabupaten Mamasa","latitude":-2.96492,"longitude":119.30631},{"id":56520,"name":"Kabupaten Mamuju","latitude":-2.5,"longitude":119.41667},{"id":56521,"name":"Kabupaten Mamuju Tengah","latitude":-2.8212,"longitude":119.2662},{"id":56522,"name":"Kabupaten Mamuju Utara","latitude":-1.51639,"longitude":119.42139},{"id":56596,"name":"Kabupaten Polewali Mandar","latitude":-3.3,"longitude":119.16667},{"id":56854,"name":"Majene","latitude":-3.5403,"longitude":118.9707},{"id":56857,"name":"Mamuju","latitude":-2.68056,"longitude":118.88611},{"id":56935,"name":"Polewali","latitude":-3.4324,"longitude":119.3435}]