[{"id":107262,"name":"Bahçesaray","latitude":38.1246,"longitude":42.79825},{"id":107315,"name":"Başkale","latitude":38.04526,"longitude":44.01718},{"id":108760,"name":"Çaldıran","latitude":39.14317,"longitude":43.91068},{"id":108787,"name":"Çatak İlçesi","latitude":38.0078,"longitude":43.06195},{"id":107551,"name":"Edremit","latitude":38.37889,"longitude":43.29717},{"id":107583,"name":"Erciş","latitude":39.15123,"longitude":43.33705},{"id":107670,"name":"Gevaş","latitude":38.2921,"longitude":43.10189},{"id":107753,"name":"Gürpınar","latitude":38.32372,"longitude":43.40991},{"id":108908,"name":"İpekyolu","latitude":38.49041,"longitude":43.3469},{"id":108015,"name":"Konalga","latitude":37.86035,"longitude":43.09678},{"id":108220,"name":"Muradiye","latitude":38.97889,"longitude":43.75374},{"id":108866,"name":"Özalp","latitude":38.65455,"longitude":43.98869},{"id":108387,"name":"Saray","latitude":38.64691,"longitude":44.16116},{"id":108613,"name":"Tuşpa","latitude":38.48423,"longitude":43.40218},{"id":108646,"name":"Van","latitude":38.49457,"longitude":43.38323}]