[{"id":110982,"name":"Abilene","latitude":38.91722,"longitude":-97.21391},{"id":111188,"name":"Allen County","latitude":37.88573,"longitude":-95.30139},{"id":111208,"name":"Alma","latitude":39.01667,"longitude":-96.28916},{"id":111233,"name":"Altamont","latitude":37.19034,"longitude":-95.29719},{"id":111315,"name":"Anderson County","latitude":38.2142,"longitude":-95.29333},{"id":111322,"name":"Andover","latitude":37.7139,"longitude":-97.13643},{"id":111368,"name":"Anthony","latitude":37.15336,"longitude":-98.03117},{"id":111457,"name":"Arkansas City","latitude":37.06197,"longitude":-97.03837},{"id":111475,"name":"Arma","latitude":37.54394,"longitude":-94.70024},{"id":111527,"name":"Ashland","latitude":37.18864,"longitude":-99.76568},{"id":111567,"name":"Atchison","latitude":39.56305,"longitude":-95.12164},{"id":111568,"name":"Atchison County","latitude":39.53174,"longitude":-95.31344},{"id":111615,"name":"Atwood","latitude":39.80667,"longitude":-101.0421},{"id":111622,"name":"Auburn","latitude":38.90611,"longitude":-95.8161},{"id":111647,"name":"Augusta","latitude":37.68668,"longitude":-96.9767},{"id":111759,"name":"Baldwin City","latitude":38.77501,"longitude":-95.18636},{"id":111812,"name":"Barber County","latitude":37.22884,"longitude":-98.68479},{"id":111866,"name":"Barton County","latitude":38.47896,"longitude":-98.75646},{"id":111876,"name":"Basehor","latitude":39.14167,"longitude":-94.93858},{"id":111919,"name":"Baxter Springs","latitude":37.02368,"longitude":-94.7355},{"id":112074,"name":"Bellaire","latitude":37.76251,"longitude":-97.26699},{"id":112088,"name":"Belle Plaine","latitude":37.39391,"longitude":-97.28115},{"id":112104,"name":"Belleville","latitude":39.82445,"longitude":-97.63254},{"id":112145,"name":"Beloit","latitude":39.45612,"longitude":-98.10616},{"id":112543,"name":"Bonner Springs","latitude":39.05973,"longitude":-94.88358},{"id":112613,"name":"Bourbon County","latitude":37.85523,"longitude":-94.8493},{"id":112909,"name":"Brown County","latitude":39.8265,"longitude":-95.56422},{"id":113024,"name":"Buhler","latitude":38.13445,"longitude":-97.77005},{"id":113066,"name":"Burlington","latitude":38.19447,"longitude":-95.74276},{"id":113115,"name":"Butler County","latitude":37.78127,"longitude":-96.83907},{"id":113179,"name":"Caldwell","latitude":37.03225,"longitude":-97.60699},{"id":113328,"name":"Caney","latitude":37.01146,"longitude":-95.93526},{"id":113387,"name":"Carbondale","latitude":38.81862,"longitude":-95.68915},{"id":113739,"name":"Chanute","latitude":37.67921,"longitude":-95.4572},{"id":113744,"name":"Chapman","latitude":38.97222,"longitude":-97.02251},{"id":113792,"name":"Chase County","latitude":38.30205,"longitude":-96.59393},{"id":113814,"name":"Chautauqua County","latitude":37.15006,"longitude":-96.24538},{"id":113839,"name":"Cheney","latitude":37.63001,"longitude":-97.78255},{"id":113851,"name":"Cherokee County","latitude":37.16931,"longitude":-94.84627},{"id":113868,"name":"Cherryvale","latitude":37.27034,"longitude":-95.55248},{"id":113916,"name":"Chetopa","latitude":37.03729,"longitude":-95.08996},{"id":113928,"name":"Cheyenne County","latitude":39.78587,"longitude":-101.7311},{"id":114023,"name":"Cimarron","latitude":37.80669,"longitude":-100.3482},{"id":114124,"name":"Clark County","latitude":37.23552,"longitude":-99.82031},{"id":114170,"name":"Clay Center","latitude":39.37694,"longitude":-97.12474},{"id":114179,"name":"Clay County","latitude":39.34971,"longitude":-97.16517},{"id":114223,"name":"Clearwater","latitude":37.5028,"longitude":-97.50449},{"id":114306,"name":"Cloud County","latitude":39.4803,"longitude":-97.64928},{"id":114370,"name":"Coffey County","latitude":38.23684,"longitude":-95.73411},{"id":114371,"name":"Coffeyville","latitude":37.0373,"longitude":-95.61637},{"id":114381,"name":"Colby","latitude":39.39584,"longitude":-101.05238},{"id":114392,"name":"Coldwater","latitude":37.26891,"longitude":-99.32678},{"id":114492,"name":"Columbus","latitude":37.16923,"longitude":-94.84412},{"id":114507,"name":"Colwich","latitude":37.77918,"longitude":-97.53644},{"id":114512,"name":"Comanche County","latitude":37.19128,"longitude":-99.27187},{"id":114544,"name":"Concordia","latitude":39.57084,"longitude":-97.66254},{"id":114588,"name":"Conway Springs","latitude":37.3903,"longitude":-97.64227},{"id":114704,"name":"Cottonwood Falls","latitude":38.37224,"longitude":-96.54278},{"id":114713,"name":"Council Grove","latitude":38.66112,"longitude":-96.49195},{"id":114748,"name":"Cowley County","latitude":37.23775,"longitude":-96.83749},{"id":114778,"name":"Crawford County","latitude":37.50732,"longitude":-94.85181},{"id":115115,"name":"De Soto","latitude":38.97917,"longitude":-94.96858},{"id":115163,"name":"Decatur County","latitude":39.78476,"longitude":-100.4599},{"id":115260,"name":"Derby","latitude":37.54557,"longitude":-97.26893},{"id":115327,"name":"Dickinson County","latitude":38.8665,"longitude":-97.1527},{"id":115336,"name":"Dighton","latitude":38.48196,"longitude":-100.46708},{"id":115376,"name":"Dodge City","latitude":37.7528,"longitude":-100.01708},{"id":115398,"name":"Doniphan County","latitude":39.78808,"longitude":-95.14679},{"id":115427,"name":"Douglas County","latitude":38.88466,"longitude":-95.29261},{"id":115437,"name":"Douglass","latitude":37.51946,"longitude":-97.01281},{"id":115848,"name":"Edgerton","latitude":38.76473,"longitude":-95.00802},{"id":115890,"name":"Edwards County","latitude":37.88765,"longitude":-99.31217},{"id":115893,"name":"Edwardsville","latitude":39.06112,"longitude":-94.81968},{"id":115920,"name":"El Dorado","latitude":37.81724,"longitude":-96.86225},{"id":115984,"name":"Elk County","latitude":37.45369,"longitude":-96.24409},{"id":115999,"name":"Elkhart","latitude":37.00808,"longitude":-101.89017},{"id":116027,"name":"Ellinwood","latitude":38.35557,"longitude":-98.58091},{"id":116029,"name":"Ellis","latitude":38.93807,"longitude":-99.56067},{"id":116030,"name":"Ellis County","latitude":38.91475,"longitude":-99.31723},{"id":116037,"name":"Ellsworth","latitude":38.73056,"longitude":-98.22811},{"id":116040,"name":"Ellsworth County","latitude":38.69663,"longitude":-98.20473},{"id":116077,"name":"Elwood","latitude":39.75555,"longitude":-94.87247},{"id":116111,"name":"Emporia","latitude":38.4039,"longitude":-96.18166},{"id":116164,"name":"Erie","latitude":37.56811,"longitude":-95.24331},{"id":116223,"name":"Eudora","latitude":38.94334,"longitude":-95.09858},{"id":116232,"name":"Eureka","latitude":37.82392,"longitude":-96.28917},{"id":116362,"name":"Fairway","latitude":39.02223,"longitude":-94.6319},{"id":116518,"name":"Finney County","latitude":38.0443,"longitude":-100.73699},{"id":116636,"name":"Ford County","latitude":37.6917,"longitude":-99.88794},{"id":116746,"name":"Fort Riley North","latitude":39.11081,"longitude":-96.81392},{"id":116749,"name":"Fort Scott","latitude":37.83976,"longitude":-94.7083},{"id":116849,"name":"Franklin County","latitude":38.56452,"longitude":-95.28595},{"id":116895,"name":"Fredonia","latitude":37.53394,"longitude":-95.82665},{"id":116961,"name":"Frontenac","latitude":37.4556,"longitude":-94.68913},{"id":117022,"name":"Galena","latitude":37.0759,"longitude":-94.63967},{"id":117059,"name":"Garden City","latitude":37.97169,"longitude":-100.87266},{"id":117074,"name":"Gardner","latitude":38.81084,"longitude":-94.92719},{"id":117095,"name":"Garnett","latitude":38.28058,"longitude":-95.24192},{"id":117131,"name":"Geary County","latitude":39.00236,"longitude":-96.75254},{"id":117227,"name":"Girard","latitude":37.51116,"longitude":-94.83802},{"id":117332,"name":"Goddard","latitude":37.65974,"longitude":-97.57533},{"id":117385,"name":"Goodland","latitude":39.35083,"longitude":-101.71017},{"id":117420,"name":"Gove","latitude":38.95779,"longitude":-100.48875},{"id":117421,"name":"Gove County","latitude":38.9161,"longitude":-100.4829},{"id":117437,"name":"Graham County","latitude":39.34972,"longitude":-99.88325},{"id":117482,"name":"Grandview Plaza","latitude":39.02916,"longitude":-96.78917},{"id":117516,"name":"Grant County","latitude":37.56219,"longitude":-101.30802},{"id":117553,"name":"Gray County","latitude":37.7382,"longitude":-100.43786},{"id":117570,"name":"Great Bend","latitude":38.36446,"longitude":-98.76481},{"id":117588,"name":"Greeley County","latitude":38.48054,"longitude":-101.80597},{"id":117670,"name":"Greensburg","latitude":37.6028,"longitude":-99.29261},{"id":117709,"name":"Greenwood County","latitude":37.87779,"longitude":-96.23264},{"id":117877,"name":"Halstead","latitude":38.0014,"longitude":-97.50865},{"id":117904,"name":"Hamilton County","latitude":37.99915,"longitude":-101.79126},{"id":118031,"name":"Harper","latitude":37.28669,"longitude":-98.02589},{"id":118033,"name":"Harper County","latitude":37.1916,"longitude":-98.0755},{"id":118115,"name":"Harvey County","latitude":38.04322,"longitude":-97.42727},{"id":118127,"name":"Haskell County","latitude":37.56225,"longitude":-100.87119},{"id":118148,"name":"Haven","latitude":37.8989,"longitude":-97.78283},{"id":118190,"name":"Hays","latitude":38.87918,"longitude":-99.32677},{"id":118193,"name":"Haysville","latitude":37.56446,"longitude":-97.35227},{"id":118316,"name":"Herington","latitude":38.67112,"longitude":-96.94251},{"id":118345,"name":"Hesston","latitude":38.13834,"longitude":-97.43143},{"id":118357,"name":"Hiawatha","latitude":39.8525,"longitude":-95.53582},{"id":118394,"name":"Highland","latitude":39.85972,"longitude":-95.2697},{"id":118434,"name":"Hill City","latitude":39.36473,"longitude":-99.84206},{"id":118445,"name":"Hillsboro","latitude":38.35196,"longitude":-97.20447},{"id":118507,"name":"Hodgeman County","latitude":38.08748,"longitude":-99.89794},{"id":118513,"name":"Hoisington","latitude":38.51807,"longitude":-98.77814},{"id":118521,"name":"Holcomb","latitude":37.98614,"longitude":-100.98933},{"id":118578,"name":"Holton","latitude":39.46527,"longitude":-95.73637},{"id":118678,"name":"Horton","latitude":39.66056,"longitude":-95.52637},{"id":118707,"name":"Howard","latitude":37.47031,"longitude":-96.26361},{"id":118727,"name":"Hoxie","latitude":39.3575,"longitude":-100.44181},{"id":118768,"name":"Hugoton","latitude":37.1753,"longitude":-101.3496},{"id":118775,"name":"Humboldt","latitude":37.8106,"longitude":-95.43693},{"id":118835,"name":"Hutchinson","latitude":38.06084,"longitude":-97.92977},{"id":118889,"name":"Independence","latitude":37.22424,"longitude":-95.70831},{"id":118944,"name":"Inman","latitude":38.23195,"longitude":-97.77338},{"id":118966,"name":"Iola","latitude":37.92448,"longitude":-95.39998},{"id":119081,"name":"Jackson County","latitude":39.41682,"longitude":-95.79366},{"id":119181,"name":"Jefferson County","latitude":39.23576,"longitude":-95.38345},{"id":119241,"name":"Jetmore","latitude":38.08446,"longitude":-99.89346},{"id":119243,"name":"Jewell County","latitude":39.78473,"longitude":-98.21834},{"id":119256,"name":"Johnson","latitude":37.57057,"longitude":-101.751},{"id":119264,"name":"Johnson County","latitude":38.88376,"longitude":-94.82226},{"id":119334,"name":"Junction City","latitude":39.02861,"longitude":-96.8314},{"id":119383,"name":"Kansas City","latitude":39.11417,"longitude":-94.62746},{"id":119414,"name":"Kearny County","latitude":38.0002,"longitude":-101.31986},{"id":119416,"name":"Kechi","latitude":37.79585,"longitude":-97.27949},{"id":119594,"name":"Kingman","latitude":37.64585,"longitude":-98.11367},{"id":119596,"name":"Kingman County","latitude":37.55888,"longitude":-98.13633},{"id":119642,"name":"Kinsley","latitude":37.92307,"longitude":-99.40984},{"id":119644,"name":"Kiowa","latitude":37.01725,"longitude":-98.48535},{"id":119646,"name":"Kiowa County","latitude":37.55826,"longitude":-99.28605},{"id":119743,"name":"La Crosse","latitude":38.5314,"longitude":-99.30872},{"id":119746,"name":"La Cygne","latitude":38.35002,"longitude":-94.76135},{"id":119809,"name":"Labette County","latitude":37.19133,"longitude":-95.29758},{"id":120056,"name":"Lakin","latitude":37.94058,"longitude":-101.25489},{"id":120105,"name":"Lane County","latitude":38.4813,"longitude":-100.4664},{"id":120125,"name":"Lansing","latitude":39.24861,"longitude":-94.90024},{"id":120150,"name":"Larned","latitude":38.18057,"longitude":-99.09871},{"id":120226,"name":"Lawrence","latitude":38.97167,"longitude":-95.23525},{"id":120280,"name":"Leavenworth","latitude":39.31111,"longitude":-94.92246},{"id":120282,"name":"Leavenworth County","latitude":39.19932,"longitude":-95.0379},{"id":120283,"name":"Leawood","latitude":38.96667,"longitude":-94.6169},{"id":120369,"name":"Lenexa","latitude":38.95362,"longitude":-94.73357},{"id":120393,"name":"Leoti","latitude":38.47974,"longitude":-101.35877},{"id":120458,"name":"Liberal","latitude":37.04308,"longitude":-100.921},{"id":120501,"name":"Lincoln","latitude":39.04084,"longitude":-98.14477},{"id":120518,"name":"Lincoln County","latitude":39.04533,"longitude":-98.2077},{"id":120575,"name":"Lindsborg","latitude":38.57362,"longitude":-97.67448},{"id":120581,"name":"Linn County","latitude":38.21227,"longitude":-94.84293},{"id":120702,"name":"Logan County","latitude":38.91734,"longitude":-101.14839},{"id":120808,"name":"Louisburg","latitude":38.61946,"longitude":-94.68079},{"id":120922,"name":"Lyndon","latitude":38.61001,"longitude":-95.68443},{"id":120935,"name":"Lyon County","latitude":38.45619,"longitude":-96.15264},{"id":120941,"name":"Lyons","latitude":38.34501,"longitude":-98.20173},{"id":121052,"name":"Maize","latitude":37.77918,"longitude":-97.46727},{"id":121113,"name":"Manhattan","latitude":39.18361,"longitude":-96.57167},{"id":121129,"name":"Mankato","latitude":39.78723,"longitude":-98.21005},{"id":121234,"name":"Marion","latitude":38.34835,"longitude":-97.01725},{"id":121253,"name":"Marion County","latitude":38.35887,"longitude":-97.09689},{"id":121311,"name":"Marshall County","latitude":39.78362,"longitude":-96.52294},{"id":121357,"name":"Marysville","latitude":39.84111,"longitude":-96.64724},{"id":121476,"name":"McConnell AFB","latitude":37.63007,"longitude":-97.25869},{"id":121545,"name":"McPherson","latitude":38.37084,"longitude":-97.66421},{"id":121546,"name":"McPherson County","latitude":38.39167,"longitude":-97.64808},{"id":121555,"name":"Meade","latitude":37.28558,"longitude":-100.34015},{"id":121557,"name":"Meade County","latitude":37.2382,"longitude":-100.36618},{"id":121601,"name":"Medicine Lodge","latitude":37.28113,"longitude":-98.58036},{"id":121702,"name":"Merriam","latitude":39.02362,"longitude":-94.69357},{"id":121751,"name":"Miami County","latitude":38.56358,"longitude":-94.83806},{"id":121950,"name":"Minneapolis","latitude":39.12194,"longitude":-97.7067},{"id":121979,"name":"Mission","latitude":39.02778,"longitude":-94.65579},{"id":121986,"name":"Mission Hills","latitude":39.01778,"longitude":-94.6169},{"id":122000,"name":"Mitchell County","latitude":39.39327,"longitude":-98.20936},{"id":122143,"name":"Montgomery County","latitude":37.19252,"longitude":-95.74288},{"id":122269,"name":"Morris County","latitude":38.68743,"longitude":-96.64985},{"id":122296,"name":"Morton County","latitude":37.1914,"longitude":-101.79925},{"id":122321,"name":"Mound City","latitude":38.14281,"longitude":-94.81357},{"id":122324,"name":"Moundridge","latitude":38.20307,"longitude":-97.51921},{"id":122464,"name":"Mulvane","latitude":37.47446,"longitude":-97.24393},{"id":122629,"name":"Nemaha County","latitude":39.78345,"longitude":-96.0141},{"id":122631,"name":"Neodesha","latitude":37.41839,"longitude":-95.68026},{"id":122634,"name":"Neosho County","latitude":37.55849,"longitude":-95.30679},{"id":122643,"name":"Ness City","latitude":38.45279,"longitude":-99.90651},{"id":122644,"name":"Ness County","latitude":38.47942,"longitude":-99.91618},{"id":122692,"name":"New Century KS","latitude":38.82253,"longitude":-94.89971},{"id":122858,"name":"Newton","latitude":38.04668,"longitude":-97.34504},{"id":122894,"name":"Nickerson","latitude":38.14723,"longitude":-98.08367},{"id":123072,"name":"North Newton","latitude":38.07223,"longitude":-97.34559},{"id":123182,"name":"Norton","latitude":39.83389,"longitude":-99.89151},{"id":123186,"name":"Norton County","latitude":39.78439,"longitude":-99.90348},{"id":123299,"name":"Oakley","latitude":39.13334,"longitude":-100.86376},{"id":123316,"name":"Oberlin","latitude":39.81834,"longitude":-100.5282},{"id":123366,"name":"Ogden","latitude":39.11111,"longitude":-96.70612},{"id":123412,"name":"Olathe","latitude":38.8814,"longitude":-94.81913},{"id":123588,"name":"Osage City","latitude":38.6339,"longitude":-95.82582},{"id":123589,"name":"Osage County","latitude":38.65233,"longitude":-95.72695},{"id":123593,"name":"Osawatomie","latitude":38.49724,"longitude":-94.95052},{"id":123594,"name":"Osborne","latitude":39.43914,"longitude":-98.69624},{"id":123595,"name":"Osborne County","latitude":39.35033,"longitude":-98.76799},{"id":123611,"name":"Oskaloosa","latitude":39.21528,"longitude":-95.31275},{"id":123621,"name":"Oswego","latitude":37.16757,"longitude":-95.10996},{"id":123636,"name":"Ottawa","latitude":38.61557,"longitude":-95.26775},{"id":123638,"name":"Ottawa County","latitude":39.13254,"longitude":-97.65022},{"id":123649,"name":"Overbrook","latitude":38.78056,"longitude":-95.5572},{"id":123651,"name":"Overland Park","latitude":38.98223,"longitude":-94.67079},{"id":123677,"name":"Oxford","latitude":37.27419,"longitude":-97.16893},{"id":123810,"name":"Paola","latitude":38.57224,"longitude":-94.87913},{"id":123837,"name":"Park City","latitude":37.80001,"longitude":-97.31838},{"id":123891,"name":"Parsons","latitude":37.34034,"longitude":-95.26108},{"id":123936,"name":"Pawnee County","latitude":38.18133,"longitude":-99.23673},{"id":123953,"name":"Peabody","latitude":38.16946,"longitude":-97.1067},{"id":124136,"name":"Phillips County","latitude":39.78458,"longitude":-99.34702},{"id":124139,"name":"Phillipsburg","latitude":39.75612,"longitude":-99.32399},{"id":124292,"name":"Pittsburg","latitude":37.41088,"longitude":-94.70496},{"id":124325,"name":"Plains","latitude":37.2603,"longitude":-100.59265},{"id":124333,"name":"Plainville","latitude":39.23473,"longitude":-99.29816},{"id":124382,"name":"Pleasanton","latitude":38.17781,"longitude":-94.71135},{"id":124589,"name":"Pottawatomie County","latitude":39.37901,"longitude":-96.34244},{"id":124632,"name":"Prairie Village","latitude":38.99167,"longitude":-94.63357},{"id":124636,"name":"Pratt","latitude":37.64391,"longitude":-98.73759},{"id":124637,"name":"Pratt County","latitude":37.64774,"longitude":-98.7396},{"id":124913,"name":"Rawlins County","latitude":39.78524,"longitude":-101.07571},{"id":125021,"name":"Reno County","latitude":37.95295,"longitude":-98.08601},{"id":125033,"name":"Republic County","latitude":39.8278,"longitude":-97.65062},{"id":125053,"name":"Rice County","latitude":38.34714,"longitude":-98.20103},{"id":125138,"name":"Riley County","latitude":39.29646,"longitude":-96.73518},{"id":125345,"name":"Roeland Park","latitude":39.03751,"longitude":-94.63218},{"id":125390,"name":"Rooks County","latitude":39.35023,"longitude":-99.32505},{"id":125403,"name":"Rose Hill","latitude":37.55835,"longitude":-97.13504},{"id":125457,"name":"Rossville","latitude":39.13611,"longitude":-95.95166},{"id":125521,"name":"Rush County","latitude":38.52316,"longitude":-99.30924},{"id":125533,"name":"Russell","latitude":38.89527,"longitude":-98.86103},{"id":125537,"name":"Russell County","latitude":38.91478,"longitude":-98.76235},{"id":125567,"name":"Sabetha","latitude":39.90222,"longitude":-95.80082},{"id":125635,"name":"Saint Francis","latitude":39.77222,"longitude":-101.7999},{"id":125660,"name":"Saint John","latitude":38.00224,"longitude":-98.76009},{"id":125692,"name":"Saint Marys","latitude":39.19416,"longitude":-96.0711},{"id":125744,"name":"Salina","latitude":38.84028,"longitude":-97.61142},{"id":125751,"name":"Saline County","latitude":38.78381,"longitude":-97.64993},{"id":125954,"name":"Satanta","latitude":37.43725,"longitude":-100.97211},{"id":126042,"name":"Scott City","latitude":38.48252,"longitude":-100.90709},{"id":126053,"name":"Scott County","latitude":38.48217,"longitude":-100.90686},{"id":126115,"name":"Sedan","latitude":37.12672,"longitude":-96.18694},{"id":126117,"name":"Sedgwick","latitude":37.91668,"longitude":-97.42254},{"id":126119,"name":"Sedgwick County","latitude":37.68476,"longitude":-97.46097},{"id":126154,"name":"Seneca","latitude":39.83416,"longitude":-96.06417},{"id":126189,"name":"Seward County","latitude":37.1933,"longitude":-100.85129},{"id":126232,"name":"Sharon Springs","latitude":38.89779,"longitude":-101.75212},{"id":126249,"name":"Shawnee","latitude":39.04167,"longitude":-94.72024},{"id":126251,"name":"Shawnee County","latitude":39.04151,"longitude":-95.75653},{"id":126324,"name":"Sheridan County","latitude":39.35036,"longitude":-100.44183},{"id":126333,"name":"Sherman County","latitude":39.35143,"longitude":-101.71998},{"id":126428,"name":"Silver Lake","latitude":39.10417,"longitude":-95.8586},{"id":126511,"name":"Smith Center","latitude":39.77918,"longitude":-98.78507},{"id":126512,"name":"Smith County","latitude":39.78516,"longitude":-98.78547},{"id":126569,"name":"Solomon","latitude":38.91944,"longitude":-97.37114},{"id":126678,"name":"South Hutchinson","latitude":38.02807,"longitude":-97.94033},{"id":126861,"name":"Spring Hill","latitude":38.74306,"longitude":-94.82552},{"id":126936,"name":"Stafford County","latitude":38.031,"longitude":-98.71744},{"id":126973,"name":"Stanton County","latitude":37.56306,"longitude":-101.78418},{"id":127026,"name":"Sterling","latitude":38.21001,"longitude":-98.20701},{"id":127041,"name":"Stevens County","latitude":37.19232,"longitude":-101.31205},{"id":127071,"name":"Stockton","latitude":39.43807,"longitude":-99.2651},{"id":127157,"name":"Sublette","latitude":37.48169,"longitude":-100.84377},{"id":127224,"name":"Sumner County","latitude":37.23728,"longitude":-97.47655},{"id":127366,"name":"Syracuse","latitude":37.98071,"longitude":-101.7543},{"id":127580,"name":"Thomas County","latitude":39.35097,"longitude":-101.05553},{"id":127719,"name":"Tonganoxie","latitude":39.10972,"longitude":-95.08775},{"id":127732,"name":"Topeka","latitude":39.04833,"longitude":-95.67804},{"id":127751,"name":"Towanda","latitude":37.79752,"longitude":-96.99976},{"id":127792,"name":"Trego County","latitude":38.91432,"longitude":-99.87274},{"id":127820,"name":"Tribune","latitude":38.46974,"longitude":-101.75267},{"id":127842,"name":"Troy","latitude":39.78305,"longitude":-95.08997},{"id":127960,"name":"Ulysses","latitude":37.58141,"longitude":-101.35517},{"id":128099,"name":"Valley Center","latitude":37.83473,"longitude":-97.37338},{"id":128106,"name":"Valley Falls","latitude":39.34333,"longitude":-95.46025},{"id":128219,"name":"Victoria","latitude":38.85279,"longitude":-99.1476},{"id":128315,"name":"Wabaunsee County","latitude":38.95328,"longitude":-96.20499},{"id":128308,"name":"WaKeeney","latitude":39.02501,"longitude":-99.87957},{"id":128399,"name":"Wallace County","latitude":38.91666,"longitude":-101.76357},{"id":128444,"name":"Wamego","latitude":39.20194,"longitude":-96.305},{"id":128537,"name":"Washington","latitude":39.81806,"longitude":-97.05086},{"id":128558,"name":"Washington County","latitude":39.7842,"longitude":-97.08754},{"id":128633,"name":"Wathena","latitude":39.75916,"longitude":-94.94969},{"id":128777,"name":"Wellington","latitude":37.2653,"longitude":-97.37171},{"id":128791,"name":"Wellsville","latitude":38.71834,"longitude":-95.08164},{"id":129052,"name":"Westmoreland","latitude":39.39389,"longitude":-96.41361},{"id":129082,"name":"Westwood","latitude":39.04056,"longitude":-94.6169},{"id":129215,"name":"Wichita","latitude":37.69224,"longitude":-97.33754},{"id":129217,"name":"Wichita County","latitude":38.48208,"longitude":-101.34736},{"id":129334,"name":"Wilson County","latitude":37.55924,"longitude":-95.74339},{"id":129393,"name":"Winfield","latitude":37.23975,"longitude":-96.99559},{"id":129558,"name":"Woodson County","latitude":37.88667,"longitude":-95.74017},{"id":129622,"name":"Wyandotte County","latitude":39.11465,"longitude":-94.76448},{"id":129670,"name":"Yates Center","latitude":37.88115,"longitude":-95.73332}]