[{"id":97737,"name":"Babayevo","latitude":59.3936,"longitude":35.9371},{"id":97738,"name":"Babayevskiy Rayon","latitude":59.5,"longitude":36.0},{"id":97873,"name":"Belozërsk","latitude":60.0288,"longitude":37.8084},{"id":97874,"name":"Belozërskiy Rayon","latitude":59.91667,"longitude":37.25},{"id":98108,"name":"Chagoda","latitude":59.164,"longitude":35.3285},{"id":98109,"name":"Chagodoshchenskiy Rayon","latitude":59.0,"longitude":35.41667},{"id":98129,"name":"Chebsara","latitude":59.20016,"longitude":38.83556},{"id":98156,"name":"Cherepovets","latitude":59.13333,"longitude":37.9},{"id":98157,"name":"Cherepovetskiy Rayon","latitude":59.33333,"longitude":37.91667},{"id":98419,"name":"Ferapontovo","latitude":59.95425,"longitude":38.56745},{"id":98526,"name":"Goritsy","latitude":59.86949,"longitude":38.26016},{"id":98599,"name":"Gryazovets","latitude":58.88,"longitude":40.2525},{"id":98600,"name":"Gryazovetskiy Rayon","latitude":58.91667,"longitude":40.75},{"id":98661,"name":"Imeni Babushkina","latitude":59.75727,"longitude":43.12847},{"id":98672,"name":"Imeni Zhelyabova","latitude":58.9544,"longitude":36.5956},{"id":98768,"name":"Kadnikov","latitude":59.50218,"longitude":40.33803},{"id":98771,"name":"Kaduy","latitude":59.2,"longitude":37.15},{"id":98772,"name":"Kaduyskiy Rayon","latitude":59.33333,"longitude":37.0},{"id":98966,"name":"Kharovsk","latitude":59.96425,"longitude":40.19121},{"id":98967,"name":"Kharovskiy Rayon","latitude":60.08333,"longitude":40.25},{"id":98989,"name":"Khokhlovo","latitude":59.14923,"longitude":37.39978},{"id":99032,"name":"Kichmengskiy Gorodok","latitude":59.98164,"longitude":45.78543},{"id":99033,"name":"Kichmengsko-Gorodetskiy Rayon","latitude":60.0,"longitude":46.0},{"id":99055,"name":"Kirillov","latitude":59.86299,"longitude":38.38128},{"id":99056,"name":"Kirillovskiy Rayon","latitude":60.0,"longitude":38.58333},{"id":99274,"name":"Krasavino","latitude":60.96225,"longitude":46.48321},{"id":99504,"name":"Kuzino","latitude":59.77665,"longitude":38.3104},{"id":99634,"name":"Lipin Bor","latitude":60.263,"longitude":37.9785},{"id":99882,"name":"Mezhdurechenskiy Rayon","latitude":59.25,"longitude":41.0},{"id":99949,"name":"Molochnoye","latitude":59.29166,"longitude":39.67868},{"id":100026,"name":"Myaksa","latitude":58.8889,"longitude":38.1938},{"id":100097,"name":"Nelazskoye","latitude":59.18919,"longitude":37.63963},{"id":100143,"name":"Nikol’sk","latitude":59.53531,"longitude":45.45743},{"id":100381,"name":"Nyuksenitsa","latitude":60.41159,"longitude":44.23309},{"id":101142,"name":"Sazonovo","latitude":59.0919,"longitude":35.2268},{"id":101288,"name":"Sheksna","latitude":59.20998,"longitude":38.51066},{"id":101289,"name":"Sheksninskiy Rayon","latitude":59.25,"longitude":38.58333},{"id":101363,"name":"Shuyskoye","latitude":59.37356,"longitude":41.03047},{"id":101431,"name":"Sokol","latitude":59.46167,"longitude":40.12056},{"id":101442,"name":"Sokol’skiy Rayon","latitude":59.5,"longitude":40.33333},{"id":101641,"name":"Suda","latitude":59.15254,"longitude":37.5582},{"id":101717,"name":"Syamzha","latitude":60.01577,"longitude":41.06139},{"id":101718,"name":"Syamzhenskiy Rayon","latitude":60.0,"longitude":41.25},{"id":101777,"name":"Tarnogskiy Gorodok","latitude":60.49972,"longitude":43.57611},{"id":101778,"name":"Tarnogskiy Rayon","latitude":60.5,"longitude":43.5},{"id":101890,"name":"Tonshalovo","latitude":59.19483,"longitude":37.94746},{"id":101907,"name":"Tot’ma","latitude":59.97375,"longitude":42.76487},{"id":101905,"name":"Totemskiy Rayon","latitude":59.75,"longitude":42.5},{"id":102133,"name":"Ust’-Kubinskiy Rayon","latitude":59.91667,"longitude":39.5},{"id":102145,"name":"Ust’ye","latitude":59.63043,"longitude":39.73596},{"id":102111,"name":"Ustyuzhenskiy Rayon","latitude":58.83333,"longitude":36.5},{"id":102112,"name":"Ustyuzhna","latitude":58.8394,"longitude":36.4321},{"id":102212,"name":"Velikiy Ustyug","latitude":60.76186,"longitude":46.31352},{"id":102218,"name":"Velikoustyugskiy Rayon","latitude":60.75,"longitude":46.0},{"id":102279,"name":"Verkhovazh’ye","latitude":60.74717,"longitude":42.04652},{"id":102278,"name":"Verkhovazhskiy Rayon","latitude":60.58333,"longitude":42.25},{"id":102337,"name":"Vokhtoga","latitude":58.80949,"longitude":41.06245},{"id":102354,"name":"Vologda","latitude":59.2239,"longitude":39.88398},{"id":102355,"name":"Vologodskiy Rayon","latitude":59.16667,"longitude":39.75},{"id":102407,"name":"Vozhega","latitude":60.47246,"longitude":40.22134},{"id":102453,"name":"Vytegorskiy Rayon","latitude":61.0,"longitude":36.5},{"id":102454,"name":"Vytegra","latitude":61.00636,"longitude":36.44811},{"id":102771,"name":"Zubovo","latitude":60.3181,"longitude":36.9709}]