[{"id":85787,"name":"Augustów","latitude":53.84321,"longitude":22.97979},{"id":85845,"name":"Białowieża","latitude":52.7,"longitude":23.86667},{"id":85850,"name":"Białystok","latitude":53.13333,"longitude":23.16433},{"id":85860,"name":"Bielsk Podlaski","latitude":52.76512,"longitude":23.18647},{"id":85933,"name":"Boćki","latitude":52.65155,"longitude":23.04485},{"id":85937,"name":"Brańsk","latitude":52.7444,"longitude":22.83774},{"id":86052,"name":"Choroszcz","latitude":53.14332,"longitude":22.98889},{"id":86076,"name":"Ciechanowiec","latitude":52.67828,"longitude":22.49815},{"id":86105,"name":"Czarna Białostocka","latitude":53.30509,"longitude":23.28146},{"id":86126,"name":"Czeremcha","latitude":52.51667,"longitude":23.35},{"id":86148,"name":"Czyżew","latitude":52.79768,"longitude":22.31237},{"id":86238,"name":"Dąbrowa Białostocka","latitude":53.65364,"longitude":23.34792},{"id":86179,"name":"Dobrzyniewo Duże","latitude":53.20022,"longitude":23.01129},{"id":86200,"name":"Drohiczyn","latitude":52.40011,"longitude":22.65853},{"id":86270,"name":"Filipów","latitude":54.18037,"longitude":22.62076},{"id":86331,"name":"Goniadz","latitude":53.48953,"longitude":22.73578},{"id":86370,"name":"Grajewo","latitude":53.64728,"longitude":22.45537},{"id":86384,"name":"Grudki","latitude":53.09488,"longitude":23.66848},{"id":86439,"name":"Hajnówka","latitude":52.74328,"longitude":23.58122},{"id":86545,"name":"Jedwabne","latitude":53.28554,"longitude":22.30353},{"id":86646,"name":"Kleszczele","latitude":52.57314,"longitude":23.32539},{"id":86659,"name":"Knyszyn","latitude":53.31406,"longitude":22.91963},{"id":86679,"name":"Kolno","latitude":53.41148,"longitude":21.92905},{"id":86771,"name":"Krasnopol","latitude":54.11613,"longitude":23.20476},{"id":86797,"name":"Krynki","latitude":53.26444,"longitude":23.77304},{"id":86847,"name":"Kuźnica","latitude":53.51094,"longitude":23.64953},{"id":86921,"name":"Lipsk","latitude":53.73312,"longitude":23.40225},{"id":88768,"name":"Łapy","latitude":52.9911,"longitude":22.88422},{"id":88786,"name":"Łomża","latitude":53.17806,"longitude":22.05935},{"id":87010,"name":"Mały Płock","latitude":53.30385,"longitude":22.02836},{"id":87021,"name":"Michałowo","latitude":53.03492,"longitude":23.60996},{"id":87048,"name":"Milejczyce","latitude":52.51967,"longitude":23.13206},{"id":87100,"name":"Mońki","latitude":53.40496,"longitude":22.79791},{"id":87138,"name":"Narew","latitude":52.91418,"longitude":23.51984},{"id":87196,"name":"Nowogród","latitude":53.22698,"longitude":21.8821},{"id":87213,"name":"Nurzec-Stacja","latitude":52.46249,"longitude":23.08571},{"id":87266,"name":"Orla","latitude":52.70546,"longitude":23.33213},{"id":87402,"name":"Piątnica","latitude":53.19657,"longitude":22.09591},{"id":87458,"name":"Powiat augustowski","latitude":53.79742,"longitude":23.14275},{"id":87464,"name":"Powiat białostocki","latitude":53.09897,"longitude":23.59314},{"id":87466,"name":"Powiat bielski","latitude":52.74629,"longitude":23.00669},{"id":87512,"name":"Powiat grajewski","latitude":53.55509,"longitude":22.48995},{"id":87522,"name":"Powiat hajnowski","latitude":52.70845,"longitude":23.55719},{"id":87541,"name":"Powiat kolneński","latitude":53.39186,"longitude":21.93631},{"id":87750,"name":"Powiat łomżyński","latitude":53.20686,"longitude":22.08252},{"id":87591,"name":"Powiat moniecki","latitude":53.44561,"longitude":22.78144},{"id":87669,"name":"Powiat sejneński","latitude":54.09561,"longitude":23.30425},{"id":87671,"name":"Powiat siemiatycki","latitude":52.48842,"longitude":22.88642},{"id":87678,"name":"Powiat sokólski","latitude":53.43511,"longitude":23.41864},{"id":87690,"name":"Powiat suwalski","latitude":54.16655,"longitude":22.81818},{"id":87727,"name":"Powiat wysokomazowiecki","latitude":52.86458,"longitude":22.55541},{"id":87736,"name":"Powiat zambrowski","latitude":53.02256,"longitude":22.28505},{"id":87854,"name":"Puńsk","latitude":54.25114,"longitude":23.18124},{"id":87875,"name":"Raczki","latitude":53.98749,"longitude":22.78487},{"id":87901,"name":"Radziłów","latitude":53.40994,"longitude":22.40988},{"id":87907,"name":"Rajgród","latitude":53.73102,"longitude":22.70515},{"id":87974,"name":"Rudka","latitude":52.72439,"longitude":22.72676},{"id":87990,"name":"Rutki-Kossaki","latitude":53.08932,"longitude":22.44011},{"id":88055,"name":"Sejny","latitude":54.10802,"longitude":23.34698},{"id":88072,"name":"Siemiatycze","latitude":52.42719,"longitude":22.86231},{"id":88836,"name":"Śniadowo","latitude":53.03874,"longitude":21.99077},{"id":88141,"name":"Sokółka","latitude":53.40715,"longitude":23.50228},{"id":88138,"name":"Sokoły","latitude":52.99314,"longitude":22.7005},{"id":88200,"name":"Stawiski","latitude":53.37987,"longitude":22.15462},{"id":88251,"name":"Suchowola","latitude":53.57753,"longitude":23.10596},{"id":88264,"name":"Supraśl","latitude":53.20526,"longitude":23.33934},{"id":88265,"name":"Suraż","latitude":52.94908,"longitude":22.95653},{"id":88269,"name":"Suwałki","latitude":54.10272,"longitude":22.92914},{"id":88300,"name":"Szczuczyn","latitude":53.5633,"longitude":22.28534},{"id":88308,"name":"Szepietowo","latitude":52.87032,"longitude":22.54392},{"id":88318,"name":"Szumowo","latitude":52.91884,"longitude":22.08449},{"id":88426,"name":"Turośń Kościelna","latitude":53.01463,"longitude":23.05532},{"id":88438,"name":"Tykocin","latitude":53.20567,"longitude":22.77457},{"id":88484,"name":"Wasilków","latitude":53.19909,"longitude":23.20776},{"id":88635,"name":"Wąsosz","latitude":53.52209,"longitude":22.31915},{"id":88554,"name":"Wizna","latitude":53.19518,"longitude":22.38241},{"id":88622,"name":"Wysokie Mazowieckie","latitude":52.91661,"longitude":22.51712},{"id":88623,"name":"Wyszki","latitude":52.84129,"longitude":22.98119},{"id":88663,"name":"Zabłudów","latitude":53.01442,"longitude":23.33831},{"id":88690,"name":"Zambrów","latitude":52.9855,"longitude":22.24319},{"id":88712,"name":"Zbójna","latitude":53.24293,"longitude":21.78812}]