[{"id":131771,"name":"Dimapur","latitude":25.77852,"longitude":93.78508},{"id":132549,"name":"Kohima","latitude":25.67467,"longitude":94.11099},{"id":132989,"name":"Mokokchung","latitude":26.31393,"longitude":94.51675},{"id":132990,"name":"Mon","latitude":26.75,"longitude":94.83333},{"id":133416,"name":"Peren","latitude":25.51276,"longitude":93.73716},{"id":133438,"name":"Phek","latitude":25.75,"longitude":94.5},{"id":134215,"name":"Tuensang","latitude":26.26704,"longitude":94.82415},{"id":134216,"name":"Tuensang District","latitude":26.25,"longitude":94.75},{"id":134413,"name":"Wokha","latitude":26.16667,"longitude":94.25},{"id":134445,"name":"Zunheboto","latitude":26.0,"longitude":94.5}]