[{"id":110973,"name":"Aberdeen","latitude":39.50956,"longitude":-76.16412},{"id":110980,"name":"Aberdeen Proving Ground","latitude":39.46686,"longitude":-76.13066},{"id":110993,"name":"Accokeek","latitude":38.66762,"longitude":-77.02831},{"id":111029,"name":"Adamstown","latitude":39.31094,"longitude":-77.47471},{"id":111044,"name":"Adelphi","latitude":39.00317,"longitude":-76.97192},{"id":111166,"name":"Algonquin","latitude":38.5829,"longitude":-76.10577},{"id":111181,"name":"Allegany County","latitude":39.62148,"longitude":-78.6989},{"id":111332,"name":"Andrews AFB","latitude":38.80531,"longitude":-76.8746},{"id":111352,"name":"Annapolis","latitude":38.97845,"longitude":-76.49218},{"id":111353,"name":"Anne Arundel County","latitude":38.99416,"longitude":-76.5676},{"id":111417,"name":"Arbutus","latitude":39.25455,"longitude":-76.69997},{"id":111439,"name":"Arden on the Severn","latitude":39.06594,"longitude":-76.57885},{"id":111461,"name":"Arlington","latitude":39.34857,"longitude":-76.68324},{"id":111485,"name":"Arnold","latitude":39.03206,"longitude":-76.50274},{"id":111547,"name":"Ashton-Sandy Spring","latitude":39.14976,"longitude":-77.00504},{"id":111553,"name":"Aspen Hill","latitude":39.07955,"longitude":-77.07303},{"id":111722,"name":"Baden","latitude":38.65928,"longitude":-76.77775},{"id":111772,"name":"Ballenger Creek","latitude":39.3726,"longitude":-77.43526},{"id":111783,"name":"Baltimore","latitude":39.29038,"longitude":-76.61219},{"id":111784,"name":"Baltimore County","latitude":39.44307,"longitude":-76.61632},{"id":111785,"name":"Baltimore Highlands","latitude":39.23316,"longitude":-76.63663},{"id":111869,"name":"Bartonsville","latitude":39.3926,"longitude":-77.35804},{"id":112046,"name":"Bel Air","latitude":39.53594,"longitude":-76.34829},{"id":112047,"name":"Bel Air North","latitude":39.55429,"longitude":-76.37309},{"id":112048,"name":"Bel Air South","latitude":39.50506,"longitude":-76.31977},{"id":112151,"name":"Beltsville","latitude":39.03483,"longitude":-76.90747},{"id":112179,"name":"Bennsville","latitude":38.60929,"longitude":-77.0122},{"id":112234,"name":"Berlin","latitude":38.32262,"longitude":-75.21769},{"id":112266,"name":"Berwyn Heights","latitude":38.994,"longitude":-76.91053},{"id":112288,"name":"Bethesda","latitude":38.98067,"longitude":-77.10026},{"id":112400,"name":"Bladensburg","latitude":38.93928,"longitude":-76.93386},{"id":112565,"name":"Boonsboro","latitude":39.50621,"longitude":-77.65249},{"id":112623,"name":"Bowie","latitude":38.94278,"longitude":-76.73028},{"id":112626,"name":"Bowleys Quarters","latitude":39.33539,"longitude":-76.39024},{"id":112629,"name":"Bowling Green","latitude":39.6237,"longitude":-78.80446},{"id":112660,"name":"Braddock Heights","latitude":39.41871,"longitude":-77.5036},{"id":112692,"name":"Brandywine","latitude":38.69678,"longitude":-76.84775},{"id":112728,"name":"Brentwood","latitude":38.94317,"longitude":-76.95664},{"id":112832,"name":"Brock Hall","latitude":38.85011,"longitude":-76.76108},{"id":112876,"name":"Brooklyn Park","latitude":39.22844,"longitude":-76.61636},{"id":112878,"name":"Brookmont","latitude":38.94206,"longitude":-77.12026},{"id":112948,"name":"Brunswick","latitude":39.31427,"longitude":-77.62777},{"id":112962,"name":"Bryans Road","latitude":38.62706,"longitude":-77.07303},{"id":112978,"name":"Buckeystown","latitude":39.33482,"longitude":-77.43165},{"id":113098,"name":"Burtonsville","latitude":39.11122,"longitude":-76.93248},{"id":113105,"name":"Butcher's Hill","latitude":39.28955,"longitude":-76.5883},{"id":113152,"name":"Cabin John","latitude":38.97539,"longitude":-77.15803},{"id":113216,"name":"California","latitude":38.3004,"longitude":-76.50745},{"id":113235,"name":"Calvert County","latitude":38.53471,"longitude":-76.53056},{"id":113236,"name":"Calverton","latitude":39.05761,"longitude":-76.93581},{"id":113250,"name":"Cambridge","latitude":38.56317,"longitude":-76.07883},{"id":113293,"name":"Camp Springs","latitude":38.804,"longitude":-76.90664},{"id":113373,"name":"Cape Saint Claire","latitude":39.04317,"longitude":-76.44496},{"id":113375,"name":"Capitol Heights","latitude":38.88511,"longitude":-76.91581},{"id":113428,"name":"Carney","latitude":39.39427,"longitude":-76.52358},{"id":113437,"name":"Caroline County","latitude":38.87173,"longitude":-75.8316},{"id":113453,"name":"Carroll County","latitude":39.56286,"longitude":-77.02252},{"id":113575,"name":"Catonsville","latitude":39.27205,"longitude":-76.73192},{"id":113590,"name":"Cavetown","latitude":39.64426,"longitude":-77.58582},{"id":113598,"name":"Cecil County","latitude":39.56242,"longitude":-75.94811},{"id":113693,"name":"Centreville","latitude":39.04178,"longitude":-76.06633},{"id":113757,"name":"Charles County","latitude":38.47368,"longitude":-77.01348},{"id":113760,"name":"Charles Village","latitude":39.32316,"longitude":-76.6133},{"id":113771,"name":"Charlestown","latitude":39.57373,"longitude":-75.97495},{"id":113784,"name":"Charlotte Hall","latitude":38.48096,"longitude":-76.77802},{"id":113875,"name":"Chesapeake Beach","latitude":38.68623,"longitude":-76.53468},{"id":113876,"name":"Chesapeake Ranch Estates","latitude":38.34624,"longitude":-76.41773},{"id":113883,"name":"Chester","latitude":38.97539,"longitude":-76.2894},{"id":113910,"name":"Chestertown","latitude":39.209,"longitude":-76.06661},{"id":113919,"name":"Cheverly","latitude":38.92817,"longitude":-76.91581},{"id":113921,"name":"Chevy Chase","latitude":39.00287,"longitude":-77.07115},{"id":113923,"name":"Chevy Chase Village","latitude":38.96928,"longitude":-77.07887},{"id":113955,"name":"Chillum","latitude":38.96372,"longitude":-76.99081},{"id":114048,"name":"City of Baltimore","latitude":39.29038,"longitude":-76.61219},{"id":114143,"name":"Clarksburg","latitude":39.23872,"longitude":-77.27943},{"id":114272,"name":"Clinton","latitude":38.76511,"longitude":-76.89831},{"id":114308,"name":"Clover Hill","latitude":39.45621,"longitude":-77.42887},{"id":114313,"name":"Cloverly","latitude":39.10816,"longitude":-76.99775},{"id":114345,"name":"Cobb Island","latitude":38.25846,"longitude":-76.84386},{"id":114355,"name":"Cockeysville","latitude":39.48122,"longitude":-76.64386},{"id":114403,"name":"Colesville","latitude":39.07566,"longitude":-77.00192},{"id":114414,"name":"College Park","latitude":38.98067,"longitude":-76.93692},{"id":114441,"name":"Colmar Manor","latitude":38.93317,"longitude":-76.94581},{"id":114467,"name":"Columbia","latitude":39.24038,"longitude":-76.83942},{"id":114625,"name":"Coral Hills","latitude":38.87039,"longitude":-76.92108},{"id":114690,"name":"Cottage City","latitude":38.93817,"longitude":-76.94831},{"id":114793,"name":"Cresaptown","latitude":39.59287,"longitude":-78.83335},{"id":114822,"name":"Crisfield","latitude":37.98346,"longitude":-75.85382},{"id":114833,"name":"Crofton","latitude":39.00178,"longitude":-76.68747},{"id":114841,"name":"Croom","latitude":38.75262,"longitude":-76.76386},{"id":114869,"name":"Crownsville","latitude":39.02844,"longitude":-76.60135},{"id":114907,"name":"Cumberland","latitude":39.65287,"longitude":-78.76252},{"id":115009,"name":"Damascus","latitude":39.28844,"longitude":-77.20387},{"id":115053,"name":"Darnestown","latitude":39.10344,"longitude":-77.29082},{"id":115065,"name":"Davidsonville","latitude":38.92289,"longitude":-76.6283},{"id":115144,"name":"Deale","latitude":38.77651,"longitude":-76.55524},{"id":115245,"name":"Denton","latitude":38.88456,"longitude":-75.82716},{"id":115268,"name":"Derwood","latitude":39.11733,"longitude":-77.16109},{"id":115355,"name":"District Heights","latitude":38.85761,"longitude":-76.88942},{"id":115410,"name":"Dorchester County","latitude":38.42261,"longitude":-76.08332},{"id":115481,"name":"Drum Point","latitude":38.32679,"longitude":-76.42606},{"id":115526,"name":"Dundalk","latitude":39.25066,"longitude":-76.52052},{"id":115537,"name":"Dunkirk","latitude":38.72178,"longitude":-76.66052},{"id":115540,"name":"Dunkirk Town Center","latitude":38.72039,"longitude":-76.65857},{"id":115748,"name":"East Riverdale","latitude":38.96206,"longitude":-76.92192},{"id":115785,"name":"Easton","latitude":38.77428,"longitude":-76.07633},{"id":115844,"name":"Edgemere","latitude":39.24205,"longitude":-76.44802},{"id":115852,"name":"Edgewater","latitude":38.95706,"longitude":-76.54996},{"id":115859,"name":"Edgewood","latitude":39.41872,"longitude":-76.2944},{"id":115880,"name":"Edmonston","latitude":38.94678,"longitude":-76.93109},{"id":115949,"name":"Eldersburg","latitude":39.40371,"longitude":-76.95026},{"id":116011,"name":"Elkridge","latitude":39.21261,"longitude":-76.71358},{"id":116013,"name":"Elkton","latitude":39.60678,"longitude":-75.83327},{"id":116024,"name":"Ellicott City","latitude":39.26733,"longitude":-76.79831},{"id":116106,"name":"Emmitsburg","latitude":39.70454,"longitude":-77.32693},{"id":116191,"name":"Essex","latitude":39.30927,"longitude":-76.47496},{"id":116328,"name":"Fairland","latitude":39.07622,"longitude":-76.95775},{"id":116342,"name":"Fairmount Heights","latitude":38.90095,"longitude":-76.91553},{"id":116364,"name":"Fairwood","latitude":38.95665,"longitude":-76.77772},{"id":116385,"name":"Fallston","latitude":39.51455,"longitude":-76.41107},{"id":116466,"name":"Federalsburg","latitude":38.69428,"longitude":-75.77216},{"id":116486,"name":"Ferndale","latitude":39.18316,"longitude":-76.64024},{"id":116652,"name":"Forest Glen","latitude":39.01455,"longitude":-77.0547},{"id":116654,"name":"Forest Heights","latitude":38.80956,"longitude":-76.99803},{"id":116672,"name":"Forestville","latitude":38.84511,"longitude":-76.87497},{"id":116712,"name":"Fort George G Mead Junction","latitude":39.12594,"longitude":-76.78914},{"id":116729,"name":"Fort Meade","latitude":39.10815,"longitude":-76.74323},{"id":116761,"name":"Fort Washington","latitude":38.70734,"longitude":-77.02303},{"id":116786,"name":"Fountainhead-Orchard Hills","latitude":39.68636,"longitude":-77.71901},{"id":116787,"name":"Four Corners","latitude":39.02039,"longitude":-77.01275},{"id":116885,"name":"Frederick","latitude":39.41427,"longitude":-77.41054},{"id":116888,"name":"Frederick County","latitude":39.47222,"longitude":-77.39799},{"id":116947,"name":"Friendly","latitude":38.75178,"longitude":-76.97859},{"id":116951,"name":"Friendship Village","latitude":38.96289,"longitude":-77.08887},{"id":116964,"name":"Frostburg","latitude":39.65814,"longitude":-78.92836},{"id":116970,"name":"Fruitland","latitude":38.32206,"longitude":-75.6202},{"id":116987,"name":"Fulton","latitude":39.15094,"longitude":-76.92303},{"id":117019,"name":"Gaithersburg","latitude":39.14344,"longitude":-77.20137},{"id":117045,"name":"Gambrills","latitude":39.06705,"longitude":-76.66524},{"id":117100,"name":"Garrett County","latitude":39.5286,"longitude":-79.27388},{"id":117101,"name":"Garrett Park","latitude":39.03816,"longitude":-77.09303},{"id":117102,"name":"Garrison","latitude":39.40594,"longitude":-76.76053},{"id":117172,"name":"Germantown","latitude":39.17316,"longitude":-77.27165},{"id":117253,"name":"Glassmanor","latitude":38.819,"longitude":-76.99859},{"id":117262,"name":"Glen Burnie","latitude":39.16261,"longitude":-76.62469},{"id":117275,"name":"Glenarden","latitude":38.92928,"longitude":-76.86164},{"id":117293,"name":"Glenmont","latitude":39.05789,"longitude":-77.0497},{"id":117297,"name":"Glenn Dale","latitude":38.98761,"longitude":-76.82053},{"id":117333,"name":"Goddard","latitude":38.98955,"longitude":-76.85331},{"id":117347,"name":"Golden Beach","latitude":38.48985,"longitude":-76.68218},{"id":117541,"name":"Grasonville","latitude":38.95817,"longitude":-76.21023},{"id":117582,"name":"Greater Upper Marlboro","latitude":38.83142,"longitude":-76.74827},{"id":117597,"name":"Green Haven","latitude":39.13955,"longitude":-76.54774},{"id":117609,"name":"Green Valley","latitude":39.30927,"longitude":-77.29721},{"id":117616,"name":"Greenbelt","latitude":39.00455,"longitude":-76.87553},{"id":117666,"name":"Greensboro","latitude":38.97372,"longitude":-75.80493},{"id":117838,"name":"Hagerstown","latitude":39.64176,"longitude":-77.71999},{"id":117857,"name":"Halfway","latitude":39.62065,"longitude":-77.75888},{"id":117923,"name":"Hampstead","latitude":39.60483,"longitude":-76.84998},{"id":117928,"name":"Hampton","latitude":39.42288,"longitude":-76.58469},{"id":117947,"name":"Hancock","latitude":39.69898,"longitude":-78.17973},{"id":117967,"name":"Hanover","latitude":39.19289,"longitude":-76.72414},{"id":118012,"name":"Harford County","latitude":39.53644,"longitude":-76.29887},{"id":118155,"name":"Havre de Grace","latitude":39.54928,"longitude":-76.09162},{"id":118233,"name":"Hebron","latitude":38.42012,"longitude":-75.68771},{"id":118312,"name":"Herald Harbor","latitude":39.05372,"longitude":-76.56913},{"id":118390,"name":"Highfield-Cascade","latitude":39.71616,"longitude":-77.48282},{"id":118395,"name":"Highland","latitude":39.179,"longitude":-76.95748},{"id":118438,"name":"Hillandale","latitude":39.0265,"longitude":-76.97414},{"id":118441,"name":"Hillcrest Heights","latitude":38.83289,"longitude":-76.95942},{"id":118467,"name":"Hillsmere Shores","latitude":38.94011,"longitude":-76.49496},{"id":118713,"name":"Howard County","latitude":39.25072,"longitude":-76.93119},{"id":118762,"name":"Hughesville","latitude":38.53262,"longitude":-76.78386},{"id":118787,"name":"Hunt Valley","latitude":39.49983,"longitude":-76.64108},{"id":118810,"name":"Huntingtown","latitude":38.61595,"longitude":-76.61302},{"id":118811,"name":"Huntingtown Town Center","latitude":38.62095,"longitude":-76.61607},{"id":118823,"name":"Hurlock","latitude":38.62428,"longitude":-75.85438},{"id":118844,"name":"Hyattsville","latitude":38.95594,"longitude":-76.94553},{"id":118877,"name":"Ilchester","latitude":39.25094,"longitude":-76.76469},{"id":118903,"name":"Indian Head","latitude":38.60012,"longitude":-77.1622},{"id":119008,"name":"Irvington","latitude":39.28288,"longitude":-76.68608},{"id":119135,"name":"Jarrettsville","latitude":39.60455,"longitude":-76.47774},{"id":119164,"name":"Jefferson","latitude":39.36205,"longitude":-77.53165},{"id":119237,"name":"Jessup","latitude":39.14927,"longitude":-76.77525},{"id":119314,"name":"Joppatowne","latitude":39.45789,"longitude":-76.35524},{"id":119417,"name":"Keedysville","latitude":39.48621,"longitude":-77.69971},{"id":119436,"name":"Kemp Mill","latitude":39.039,"longitude":-77.01914},{"id":119480,"name":"Kensington","latitude":39.02567,"longitude":-77.07637},{"id":119491,"name":"Kent County","latitude":39.2356,"longitude":-76.09582},{"id":119526,"name":"Kettering","latitude":38.88456,"longitude":-76.81469},{"id":119633,"name":"Kingstown","latitude":39.20483,"longitude":-76.05133},{"id":119635,"name":"Kingsville","latitude":39.44872,"longitude":-76.41774},{"id":119773,"name":"La Plata","latitude":38.52929,"longitude":-76.97525},{"id":119791,"name":"La Vale","latitude":39.65564,"longitude":-78.81058},{"id":119864,"name":"Lake Arbor","latitude":38.90789,"longitude":-76.82969},{"id":119976,"name":"Lake Shore","latitude":39.10705,"longitude":-76.48496},{"id":120102,"name":"Landover","latitude":38.934,"longitude":-76.89664},{"id":120103,"name":"Landover Hills","latitude":38.94317,"longitude":-76.8922},{"id":120115,"name":"Langley Park","latitude":38.98872,"longitude":-76.98136},{"id":120117,"name":"Lanham","latitude":38.96875,"longitude":-76.8634},{"id":120118,"name":"Lanham-Seabrook","latitude":38.96835,"longitude":-76.85108},{"id":120122,"name":"Lansdowne","latitude":39.24511,"longitude":-76.66052},{"id":120144,"name":"Largo","latitude":38.89761,"longitude":-76.83025},{"id":120189,"name":"Laurel","latitude":39.09928,"longitude":-76.84831},{"id":120252,"name":"Layhill","latitude":39.09233,"longitude":-77.04442},{"id":120345,"name":"Leisure World","latitude":39.1023,"longitude":-77.06898},{"id":120390,"name":"Leonardtown","latitude":38.29124,"longitude":-76.63579},{"id":120455,"name":"Lexington Park","latitude":38.26679,"longitude":-76.45384},{"id":120578,"name":"Linganore","latitude":39.44038,"longitude":-77.20804},{"id":120588,"name":"Linthicum","latitude":39.20511,"longitude":-76.65275},{"id":120671,"name":"Lochearn","latitude":39.34066,"longitude":-76.72219},{"id":120719,"name":"Lonaconing","latitude":39.56592,"longitude":-78.9803},{"id":120725,"name":"Londontowne","latitude":38.93345,"longitude":-76.54941},{"id":120733,"name":"Long Beach","latitude":38.46096,"longitude":-76.46884},{"id":120891,"name":"Lusby","latitude":38.41068,"longitude":-76.45523},{"id":120895,"name":"Lutherville","latitude":39.42122,"longitude":-76.62608},{"id":120896,"name":"Lutherville-Timonium","latitude":39.43997,"longitude":-76.61099},{"id":121090,"name":"Manchester","latitude":39.66121,"longitude":-76.88498},{"id":121277,"name":"Marlboro Meadows","latitude":38.83622,"longitude":-76.71497},{"id":121278,"name":"Marlboro Village","latitude":38.83054,"longitude":-76.76965},{"id":121286,"name":"Marlow Heights","latitude":38.83345,"longitude":-76.95164},{"id":121287,"name":"Marlton","latitude":38.77373,"longitude":-76.78997},{"id":121355,"name":"Maryland City","latitude":39.09205,"longitude":-76.81775},{"id":121418,"name":"Maugansville","latitude":39.69287,"longitude":-77.74472},{"id":121443,"name":"Mayo","latitude":38.88761,"longitude":-76.5119},{"id":121446,"name":"Mays Chapel","latitude":39.43316,"longitude":-76.64941},{"id":121582,"name":"Mechanicsville","latitude":38.4429,"longitude":-76.74385},{"id":121626,"name":"Mellwood","latitude":38.81039,"longitude":-76.82414},{"id":121762,"name":"Middle River","latitude":39.33427,"longitude":-76.43941},{"id":121786,"name":"Middletown","latitude":39.44371,"longitude":-77.54471},{"id":121860,"name":"Milford Mill","latitude":39.34788,"longitude":-76.76997},{"id":122004,"name":"Mitchellville","latitude":38.92511,"longitude":-76.74275},{"id":122145,"name":"Montgomery County","latitude":39.13638,"longitude":-77.20424},{"id":122156,"name":"Montgomery Village","latitude":39.17677,"longitude":-77.19526},{"id":122257,"name":"Morningside","latitude":38.83011,"longitude":-76.89136},{"id":122330,"name":"Mount Airy","latitude":39.37621,"longitude":-77.1547},{"id":122387,"name":"Mount Rainier","latitude":38.9415,"longitude":-76.96498},{"id":122421,"name":"Mountain Lake Park","latitude":39.39843,"longitude":-79.38171},{"id":122519,"name":"Myersville","latitude":39.5051,"longitude":-77.56638},{"id":122592,"name":"National Harbor","latitude":38.78264,"longitude":-77.01506},{"id":122599,"name":"Naval Academy","latitude":38.98568,"longitude":-76.48774},{"id":122681,"name":"New Carrollton","latitude":38.96983,"longitude":-76.87997},{"id":122793,"name":"New Windsor","latitude":39.54205,"longitude":-77.10804},{"id":122977,"name":"North Beach","latitude":38.70734,"longitude":-76.53107},{"id":122979,"name":"North Bel Air","latitude":39.53983,"longitude":-76.35496},{"id":122989,"name":"North Bethesda","latitude":39.04455,"longitude":-77.11887},{"id":123017,"name":"North East","latitude":39.60011,"longitude":-75.94133},{"id":123046,"name":"North Kensington","latitude":39.03039,"longitude":-77.07248},{"id":123054,"name":"North Laurel","latitude":39.139,"longitude":-76.87053},{"id":123087,"name":"North Potomac","latitude":39.08289,"longitude":-77.26498},{"id":123284,"name":"Oakland","latitude":39.40787,"longitude":-79.40671},{"id":123326,"name":"Ocean City","latitude":38.3365,"longitude":-75.08491},{"id":123333,"name":"Ocean Pines","latitude":38.39539,"longitude":-75.15574},{"id":123356,"name":"Odenton","latitude":39.084,"longitude":-76.70025},{"id":123456,"name":"Olney","latitude":39.15316,"longitude":-77.06692},{"id":123652,"name":"Overlea","latitude":39.36344,"longitude":-76.52052},{"id":123668,"name":"Owings","latitude":38.71762,"longitude":-76.60135},{"id":123669,"name":"Owings Mills","latitude":39.41955,"longitude":-76.78025},{"id":123691,"name":"Oxon Hill","latitude":38.80345,"longitude":-76.9897},{"id":123692,"name":"Oxon Hill-Glassmanor","latitude":38.79615,"longitude":-76.97499},{"id":123825,"name":"Paramount-Long Meadow","latitude":39.68042,"longitude":-77.6929},{"id":123877,"name":"Parkville","latitude":39.37733,"longitude":-76.53969},{"id":123887,"name":"Parole","latitude":38.97956,"longitude":-76.53052},{"id":123895,"name":"Pasadena","latitude":39.10733,"longitude":-76.57108},{"id":124055,"name":"Peppermill Village","latitude":38.89472,"longitude":-76.88654},{"id":124083,"name":"Perry Hall","latitude":39.41261,"longitude":-76.46357},{"id":124085,"name":"Perryman","latitude":39.46955,"longitude":-76.2044},{"id":124090,"name":"Perryville","latitude":39.56011,"longitude":-76.07134},{"id":124197,"name":"Pikesville","latitude":39.37427,"longitude":-76.72247},{"id":124305,"name":"Pittsville","latitude":38.39539,"longitude":-75.41297},{"id":124373,"name":"Pleasant Hills","latitude":39.47955,"longitude":-76.39413},{"id":124420,"name":"Pocomoke City","latitude":38.07568,"longitude":-75.56798},{"id":124434,"name":"Point of Rocks","latitude":39.27594,"longitude":-77.53915},{"id":124480,"name":"Poolesville","latitude":39.14594,"longitude":-77.41693},{"id":124582,"name":"Potomac","latitude":39.01817,"longitude":-77.20859},{"id":124583,"name":"Potomac Heights","latitude":38.60873,"longitude":-77.14053},{"id":124585,"name":"Potomac Park","latitude":39.61176,"longitude":-78.80585},{"id":124673,"name":"Prince Frederick","latitude":38.5404,"longitude":-76.5844},{"id":124676,"name":"Prince George's County","latitude":38.82952,"longitude":-76.84729},{"id":124679,"name":"Princess Anne","latitude":38.2029,"longitude":-75.69243},{"id":124745,"name":"Pumphrey","latitude":39.21733,"longitude":-76.63719},{"id":124785,"name":"Queen Anne","latitude":38.89872,"longitude":-76.6783},{"id":124786,"name":"Queen Anne's County","latitude":39.03763,"longitude":-76.08504},{"id":124789,"name":"Queenland","latitude":38.80524,"longitude":-76.79126},{"id":124863,"name":"Randallstown","latitude":39.36733,"longitude":-76.79525},{"id":124974,"name":"Redland","latitude":39.14539,"longitude":-77.14415},{"id":125012,"name":"Reisterstown","latitude":39.46976,"longitude":-76.8319},{"id":125125,"name":"Ridgely","latitude":38.94789,"longitude":-75.88438},{"id":125170,"name":"Rising Sun","latitude":39.69789,"longitude":-76.06273},{"id":125175,"name":"Riva","latitude":38.95206,"longitude":-76.57802},{"id":125198,"name":"Riverdale Park","latitude":38.96344,"longitude":-76.93164},{"id":125202,"name":"Riverside","latitude":39.47372,"longitude":-76.24134},{"id":125222,"name":"Riviera Beach","latitude":39.16678,"longitude":-76.50802},{"id":125255,"name":"Robinwood","latitude":39.63704,"longitude":-77.65694},{"id":125278,"name":"Rock Hall","latitude":39.13817,"longitude":-76.23495},{"id":125322,"name":"Rockville","latitude":39.084,"longitude":-77.15276},{"id":125398,"name":"Rosaryville","latitude":38.75678,"longitude":-76.80969},{"id":125416,"name":"Rosedale","latitude":39.32011,"longitude":-76.51552},{"id":125453,"name":"Rossmoor","latitude":39.10372,"longitude":-77.07109},{"id":125458,"name":"Rossville","latitude":39.33844,"longitude":-76.47968},{"id":125611,"name":"Saint Charles","latitude":38.60317,"longitude":-76.93858},{"id":125652,"name":"Saint James","latitude":39.5626,"longitude":-77.75805},{"id":125691,"name":"Saint Mary's County","latitude":38.21586,"longitude":-76.52906},{"id":125698,"name":"Saint Michaels","latitude":38.78512,"longitude":-76.22439},{"id":125754,"name":"Salisbury","latitude":38.36067,"longitude":-75.59937},{"id":125971,"name":"Savage","latitude":39.13789,"longitude":-76.82386},{"id":125994,"name":"Scaggsville","latitude":39.14511,"longitude":-76.90025},{"id":126078,"name":"Seabrook","latitude":38.96805,"longitude":-76.84658},{"id":126103,"name":"Seat Pleasant","latitude":38.89622,"longitude":-76.90664},{"id":126131,"name":"Selby-on-the-Bay","latitude":38.91622,"longitude":-76.52246},{"id":126178,"name":"Severn","latitude":39.13705,"longitude":-76.6983},{"id":126179,"name":"Severna Park","latitude":39.07039,"longitude":-76.54524},{"id":126207,"name":"Shady Side","latitude":38.84178,"longitude":-76.51218},{"id":126426,"name":"Silver Hill","latitude":38.84178,"longitude":-76.94581},{"id":126434,"name":"Silver Spring","latitude":38.99067,"longitude":-77.02609},{"id":126524,"name":"Smithsburg","latitude":39.65482,"longitude":-77.57277},{"id":126545,"name":"Snow Hill","latitude":38.17706,"longitude":-75.3927},{"id":126570,"name":"Solomons","latitude":38.31846,"longitude":-76.45412},{"id":126579,"name":"Somerset","latitude":38.96594,"longitude":-77.09609},{"id":126586,"name":"Somerset County","latitude":38.08007,"longitude":-75.85347},{"id":126621,"name":"South Bel Air","latitude":39.53316,"longitude":-76.33746},{"id":126658,"name":"South Gate","latitude":39.129,"longitude":-76.6258},{"id":126682,"name":"South Kensington","latitude":39.019,"longitude":-77.07998},{"id":126686,"name":"South Laurel","latitude":39.06983,"longitude":-76.85025},{"id":126831,"name":"Spencerville","latitude":39.11427,"longitude":-76.97831},{"id":126872,"name":"Spring Ridge","latitude":39.40149,"longitude":-77.35248},{"id":126884,"name":"Springdale","latitude":38.93761,"longitude":-76.83886},{"id":127047,"name":"Stevensville","latitude":38.98067,"longitude":-76.3144},{"id":127178,"name":"Suitland","latitude":38.84872,"longitude":-76.92386},{"id":127179,"name":"Suitland-Silver Hill","latitude":38.84685,"longitude":-76.92591},{"id":127203,"name":"Summerfield","latitude":38.90454,"longitude":-76.8683},{"id":127352,"name":"Sykesville","latitude":39.37371,"longitude":-76.96776},{"id":127382,"name":"Takoma Park","latitude":38.97789,"longitude":-77.00748},{"id":127384,"name":"Talbot County","latitude":38.7491,"longitude":-76.17862},{"id":127411,"name":"Taneytown","latitude":39.65788,"longitude":-77.17443},{"id":127502,"name":"Temple Hills","latitude":38.814,"longitude":-76.94553},{"id":127629,"name":"Thurmont","latitude":39.62371,"longitude":-77.41082},{"id":127663,"name":"Timonium","latitude":39.43705,"longitude":-76.61969},{"id":127768,"name":"Towson","latitude":39.4015,"longitude":-76.60191},{"id":127781,"name":"Trappe","latitude":38.65845,"longitude":-76.058},{"id":127786,"name":"Travilah","latitude":39.069,"longitude":-77.26304},{"id":128032,"name":"University Park","latitude":38.97039,"longitude":-76.94192},{"id":128046,"name":"Upper Marlboro","latitude":38.81595,"longitude":-76.74969},{"id":128060,"name":"Urbana","latitude":39.32594,"longitude":-77.35137},{"id":128375,"name":"Waldorf","latitude":38.62456,"longitude":-76.93914},{"id":128389,"name":"Walker Mill","latitude":38.87539,"longitude":-76.88831},{"id":128390,"name":"Walkersville","latitude":39.48621,"longitude":-77.35193},{"id":128560,"name":"Washington County","latitude":39.60367,"longitude":-77.81398},{"id":128860,"name":"West Elkridge","latitude":39.20705,"longitude":-76.72692},{"id":128912,"name":"West Laurel","latitude":39.10122,"longitude":-76.8997},{"id":128943,"name":"West Ocean City","latitude":38.3315,"longitude":-75.10685},{"id":129026,"name":"Westernport","latitude":39.48537,"longitude":-79.04475},{"id":129043,"name":"Westminster","latitude":39.57538,"longitude":-76.99581},{"id":129069,"name":"Westphalia","latitude":38.84539,"longitude":-76.81108},{"id":129112,"name":"Wheaton","latitude":39.03983,"longitude":-77.05526},{"id":129145,"name":"White Marsh","latitude":39.38372,"longitude":-76.43218},{"id":129148,"name":"White Oak","latitude":39.03983,"longitude":-76.99303},{"id":129222,"name":"Wicomico County","latitude":38.36942,"longitude":-75.63151},{"id":129279,"name":"Williamsport","latitude":39.60065,"longitude":-77.82055},{"id":129338,"name":"Wilson-Conococheague","latitude":39.65351,"longitude":-77.83157},{"id":129534,"name":"Woodlawn","latitude":39.32288,"longitude":-76.72803},{"id":129544,"name":"Woodmore","latitude":38.92122,"longitude":-76.80303},{"id":129552,"name":"Woodsboro","latitude":39.53316,"longitude":-77.31471},{"id":129586,"name":"Worcester County","latitude":38.2165,"longitude":-75.29667}]