[{"id":66585,"name":"Aukstadvaris","latitude":54.57946,"longitude":24.52683},{"id":66586,"name":"Baltoji Vokė","latitude":54.60002,"longitude":25.19318},{"id":66596,"name":"Eišiškės","latitude":54.17414,"longitude":24.99917},{"id":66597,"name":"Elektrėnai","latitude":54.78544,"longitude":24.66302},{"id":66599,"name":"Fabijoniškės","latitude":54.73333,"longitude":25.24167},{"id":66603,"name":"Grigiškės","latitude":54.68333,"longitude":25.08333},{"id":66610,"name":"Justiniškės","latitude":54.71664,"longitude":25.2174},{"id":66631,"name":"Lazdynai","latitude":54.66815,"longitude":25.20684},{"id":66632,"name":"Lentvaris","latitude":54.64364,"longitude":25.05162},{"id":66641,"name":"Naujamiestis","latitude":54.67951,"longitude":25.26855},{"id":66643,"name":"Nemenčinė","latitude":54.84776,"longitude":25.46992},{"id":66647,"name":"Pabradė","latitude":54.981,"longitude":25.761},{"id":66655,"name":"Pašilaičiai","latitude":54.73429,"longitude":25.21912},{"id":66656,"name":"Pilaitė","latitude":54.69981,"longitude":25.18393},{"id":66667,"name":"Rasos","latitude":54.67877,"longitude":25.31173},{"id":66671,"name":"Rūdiškės","latitude":54.51609,"longitude":24.83084},{"id":66709,"name":"Šalčininkai","latitude":54.3,"longitude":25.38333},{"id":66676,"name":"Senieji Trakai","latitude":54.609,"longitude":24.98},{"id":66711,"name":"Šeškinė","latitude":54.70972,"longitude":25.25053},{"id":66679,"name":"Sirvintos","latitude":55.05,"longitude":24.95},{"id":66680,"name":"Skaidiškės","latitude":54.61398,"longitude":25.39573},{"id":66720,"name":"Švenčionėliai","latitude":55.16163,"longitude":26.00177},{"id":66682,"name":"Svencionys","latitude":55.15,"longitude":26.16667},{"id":66687,"name":"Trakai","latitude":54.63783,"longitude":24.93433},{"id":66689,"name":"Ukmerge","latitude":55.25,"longitude":24.75},{"id":66698,"name":"Vievis","latitude":54.76667,"longitude":24.8},{"id":66702,"name":"Vilkpėdė","latitude":54.66969,"longitude":25.2477},{"id":66703,"name":"Vilnius","latitude":54.68916,"longitude":25.2798},{"id":66704,"name":"Vilnius District Municipality","latitude":54.73333,"longitude":25.38333}]