[{"id":88910,"name":"Aguada de Cima","latitude":40.52291,"longitude":-8.427},{"id":89695,"name":"Águeda","latitude":40.5772,"longitude":-8.44442},{"id":88913,"name":"Albergaria-a-Velha","latitude":40.68706,"longitude":-8.50399},{"id":88967,"name":"Anadia","latitude":40.43841,"longitude":-8.43352},{"id":88976,"name":"Aradas","latitude":40.62084,"longitude":-8.64195},{"id":88980,"name":"Arcos","latitude":40.44779,"longitude":-8.44171},{"id":88986,"name":"Argoncilhe","latitude":41.02541,"longitude":-8.53885},{"id":88989,"name":"Arouca","latitude":40.92658,"longitude":-8.27251},{"id":88993,"name":"Arrifana","latitude":40.91565,"longitude":-8.49657},{"id":89001,"name":"Avanca","latitude":40.80771,"longitude":-8.5722},{"id":89003,"name":"Aveiro","latitude":40.64427,"longitude":-8.64554},{"id":89025,"name":"Beduido","latitude":40.76427,"longitude":-8.5611},{"id":89048,"name":"Branca","latitude":40.76653,"longitude":-8.48262},{"id":89106,"name":"Castelo de Paiva","latitude":41.03353,"longitude":-8.29822},{"id":89129,"name":"Cortegaça","latitude":40.94883,"longitude":-8.6213},{"id":89137,"name":"Cucujães","latitude":40.87413,"longitude":-8.50687},{"id":89141,"name":"Eixo","latitude":40.62758,"longitude":-8.56922},{"id":89147,"name":"Esgueira","latitude":40.64899,"longitude":-8.62943},{"id":89148,"name":"Esmoriz","latitude":40.95773,"longitude":-8.62753},{"id":89149,"name":"Espargo","latitude":40.92462,"longitude":-8.57495},{"id":89150,"name":"Espinho","latitude":41.00763,"longitude":-8.64125},{"id":89153,"name":"Estarreja","latitude":40.75463,"longitude":-8.57917},{"id":89170,"name":"Feira","latitude":40.92535,"longitude":-8.54277},{"id":89185,"name":"Fiães","latitude":40.99446,"longitude":-8.52537},{"id":89203,"name":"Gafanha da Encarnação","latitude":40.61806,"longitude":-8.73303},{"id":89204,"name":"Gafanha da Nazaré","latitude":40.63621,"longitude":-8.71338},{"id":89698,"name":"Ílhavo","latitude":40.60188,"longitude":-8.67021},{"id":89234,"name":"Lamas","latitude":40.98597,"longitude":-8.56923},{"id":89246,"name":"Lobão","latitude":40.98664,"longitude":-8.48566},{"id":89254,"name":"Lourosa","latitude":40.9842,"longitude":-8.55142},{"id":89257,"name":"Luso","latitude":40.38429,"longitude":-8.37845},{"id":89263,"name":"Macieira de Cambra","latitude":40.85939,"longitude":-8.37338},{"id":89287,"name":"Mealhada","latitude":40.36273,"longitude":-8.44781},{"id":89298,"name":"Milheirós de Poiares","latitude":40.92163,"longitude":-8.46788},{"id":89334,"name":"Mosteirô","latitude":40.89843,"longitude":-8.53196},{"id":89338,"name":"Murtosa","latitude":40.74301,"longitude":-8.64023},{"id":89349,"name":"Nogueira da Regedoura","latitude":41.0053,"longitude":-8.59195},{"id":89355,"name":"Oiã","latitude":40.54264,"longitude":-8.53856},{"id":89363,"name":"Oliveira de Azemeis","latitude":40.84101,"longitude":-8.47555},{"id":89366,"name":"Oliveira do Bairro","latitude":40.50977,"longitude":-8.56374},{"id":89370,"name":"Oliveirinha","latitude":40.60715,"longitude":-8.59198},{"id":89374,"name":"Ovar","latitude":40.85862,"longitude":-8.62513},{"id":89387,"name":"Paços de Brandão","latitude":40.97541,"longitude":-8.5835},{"id":89379,"name":"Pampilhosa do Botão","latitude":40.3358,"longitude":-8.42738},{"id":89381,"name":"Pardilhó","latitude":40.79925,"longitude":-8.62598},{"id":89473,"name":"Rio Meão","latitude":40.95775,"longitude":-8.57818},{"id":89484,"name":"Salreu","latitude":40.73971,"longitude":-8.5572},{"id":89492,"name":"Sanfins","latitude":40.92979,"longitude":-8.52563},{"id":89493,"name":"Sangalhos","latitude":40.48678,"longitude":-8.46968},{"id":89507,"name":"Santa Maria da Feira","latitude":40.96043,"longitude":-8.51545},{"id":89564,"name":"São João","latitude":40.86802,"longitude":-8.60672},{"id":89565,"name":"São João da Madeira","latitude":40.9007,"longitude":-8.4902},{"id":89570,"name":"São João de Ver","latitude":40.95527,"longitude":-8.55117},{"id":89587,"name":"São Roque","latitude":40.87216,"longitude":-8.47149},{"id":89541,"name":"Sever do Vouga","latitude":40.73156,"longitude":-8.35493},{"id":89542,"name":"Silvalde","latitude":40.99205,"longitude":-8.62567},{"id":89554,"name":"Souto","latitude":40.98496,"longitude":-8.62185},{"id":89619,"name":"Vagos","latitude":40.49943,"longitude":-8.6783},{"id":89625,"name":"Vale de Cambra","latitude":40.845,"longitude":-8.36022},{"id":89688,"name":"Válega","latitude":40.83629,"longitude":-8.58061},{"id":89630,"name":"Valongo","latitude":40.61667,"longitude":-8.45},{"id":89645,"name":"Vila Chã","latitude":40.86667,"longitude":-8.46667}]