[{"id":79926,"name":"Adam","latitude":22.37934,"longitude":57.52718},{"id":79930,"name":"Bahlā’","latitude":22.97886,"longitude":57.3047},{"id":79934,"name":"Bidbid","latitude":23.40787,"longitude":58.1283},{"id":79937,"name":"Izkī","latitude":22.93333,"longitude":57.76667},{"id":79942,"name":"Nizwá","latitude":22.93333,"longitude":57.53333},{"id":79948,"name":"Sufālat Samā’il","latitude":23.31667,"longitude":58.01667}]