[{"id":97554,"name":"Alagir","latitude":43.04222,"longitude":44.22222},{"id":97555,"name":"Alagirskiy Rayon","latitude":42.83333,"longitude":44.08333},{"id":97658,"name":"Ardon","latitude":43.1772,"longitude":44.29702},{"id":97670,"name":"Arkhonskaya","latitude":43.11,"longitude":44.5125},{"id":97910,"name":"Beslan","latitude":43.19217,"longitude":44.54313},{"id":98163,"name":"Chermen","latitude":43.15186,"longitude":44.71231},{"id":98194,"name":"Chikola","latitude":43.19055,"longitude":43.92093},{"id":98230,"name":"Dachnoye","latitude":43.08468,"longitude":44.7358},{"id":98273,"name":"Digora","latitude":43.15806,"longitude":44.15694},{"id":98274,"name":"Digorskiy Rayon","latitude":43.16667,"longitude":44.08333},{"id":98493,"name":"Gizel’","latitude":43.04,"longitude":44.57083},{"id":98686,"name":"Irafskiy Rayon","latitude":43.0,"longitude":43.75},{"id":98807,"name":"Kambileyevskoye","latitude":43.07858,"longitude":44.75216},{"id":98875,"name":"Kardzhin","latitude":43.27368,"longitude":44.29075},{"id":99018,"name":"Khumalag","latitude":43.24031,"longitude":44.47521},{"id":99070,"name":"Kirovskiy Rayon","latitude":43.33333,"longitude":44.33333},{"id":99093,"name":"Kizlyar","latitude":43.70379,"longitude":44.5944},{"id":99905,"name":"Mikhaylovskoye","latitude":43.09972,"longitude":44.63164},{"id":99934,"name":"Mizur","latitude":42.85376,"longitude":44.06393},{"id":99984,"name":"Mozdok","latitude":43.74359,"longitude":44.65177},{"id":100194,"name":"Nogir","latitude":43.08162,"longitude":44.6365},{"id":100565,"name":"Pavlodol’skaya","latitude":43.71923,"longitude":44.47815},{"id":100804,"name":"Pravoberezhnyy Rayon","latitude":43.16667,"longitude":44.66667},{"id":100822,"name":"Prigorodnyy Rayon","latitude":43.08333,"longitude":44.83333},{"id":101667,"name":"Sunzha","latitude":43.05862,"longitude":44.82281},{"id":101779,"name":"Tarskoye","latitude":42.96606,"longitude":44.7754},{"id":101837,"name":"Terskaya","latitude":43.72376,"longitude":44.72442},{"id":101923,"name":"Troitskoye","latitude":43.76219,"longitude":44.68415},{"id":102252,"name":"Verkhniy Fiagdon","latitude":42.83454,"longitude":44.30604},{"id":102325,"name":"Vladikavkaz","latitude":43.03667,"longitude":44.66778},{"id":102754,"name":"Zmeyskaya","latitude":43.33617,"longitude":44.15733}]