[{"id":64,"name":"Dasht-e Archī","latitude":37.13333,"longitude":69.16667},{"id":75,"name":"Imām Şāḩib","latitude":37.18897,"longitude":68.93644},{"id":83,"name":"Khanabad","latitude":36.6825,"longitude":69.11556},{"id":89,"name":"Kunduz","latitude":36.72895,"longitude":68.857},{"id":114,"name":"Qarāwul","latitude":37.21959,"longitude":68.7802}]