[{"id":17381,"name":"Aigle","latitude":46.3181,"longitude":6.96457},{"id":17382,"name":"Aigle District","latitude":46.30577,"longitude":7.02974},{"id":17401,"name":"Apples","latitude":46.55237,"longitude":6.42889},{"id":17412,"name":"Arzier","latitude":46.45962,"longitude":6.20813},{"id":17422,"name":"Aubonne","latitude":46.49514,"longitude":6.39155},{"id":17425,"name":"Avenches","latitude":46.88004,"longitude":7.04071},{"id":17436,"name":"Ballens","latitude":46.55485,"longitude":6.3731},{"id":17446,"name":"Bavois","latitude":46.68403,"longitude":6.5671},{"id":17449,"name":"Begnins","latitude":46.44152,"longitude":6.24762},{"id":17455,"name":"Belmont-sur-Lausanne","latitude":46.51891,"longitude":6.67636},{"id":17465,"name":"Berolle","latitude":46.55798,"longitude":6.33551},{"id":17470,"name":"Bex","latitude":46.24965,"longitude":7.0098},{"id":17539,"name":"Bière","latitude":46.53761,"longitude":6.33362},{"id":17543,"name":"Blécherette","latitude":46.53932,"longitude":6.62227},{"id":17541,"name":"Blonay","latitude":46.46778,"longitude":6.89615},{"id":17551,"name":"Bottens","latitude":46.61596,"longitude":6.66149},{"id":17569,"name":"Broye-Vully District","latitude":46.78082,"longitude":6.90161},{"id":17586,"name":"Bussigny","latitude":46.5511,"longitude":6.55597},{"id":17616,"name":"Caux","latitude":46.43241,"longitude":6.93855},{"id":17626,"name":"Chardonne","latitude":46.47676,"longitude":6.8268},{"id":17640,"name":"Château-d'Oex","latitude":46.47455,"longitude":7.13155},{"id":17629,"name":"Chavannes","latitude":46.53005,"longitude":6.57068},{"id":17630,"name":"Chavannes-le-Veyron","latitude":46.607,"longitude":6.45086},{"id":17631,"name":"Chavornay","latitude":46.70244,"longitude":6.5694},{"id":17633,"name":"Cheseaux","latitude":46.58624,"longitude":6.60587},{"id":17634,"name":"Chevilly","latitude":46.64272,"longitude":6.47661},{"id":17635,"name":"Chexbres","latitude":46.48208,"longitude":6.77805},{"id":17647,"name":"Colombier","latitude":46.55709,"longitude":6.47284},{"id":17652,"name":"Coppet","latitude":46.31682,"longitude":6.19114},{"id":17658,"name":"Cossonay","latitude":46.61443,"longitude":6.50631},{"id":17668,"name":"Crissier","latitude":46.54586,"longitude":6.57567},{"id":17669,"name":"Cuarnens","latitude":46.62545,"longitude":6.43713},{"id":17672,"name":"Cully","latitude":46.48892,"longitude":6.72945},{"id":17721,"name":"Echallens","latitude":46.6413,"longitude":6.63317},{"id":17722,"name":"Ecublens","latitude":46.52899,"longitude":6.56261},{"id":17756,"name":"Epalinges","latitude":46.54896,"longitude":6.66831},{"id":17785,"name":"Ferreyres","latitude":46.65804,"longitude":6.4852},{"id":17800,"name":"Founex","latitude":46.33277,"longitude":6.19243},{"id":17811,"name":"Froideville","latitude":46.60123,"longitude":6.68085},{"id":17826,"name":"Genolier","latitude":46.43537,"longitude":6.21809},{"id":17833,"name":"Gimel","latitude":46.50945,"longitude":6.30736},{"id":17838,"name":"Gland","latitude":46.42082,"longitude":6.2701},{"id":17860,"name":"Grancy","latitude":46.59214,"longitude":6.46391},{"id":17862,"name":"Grandson","latitude":46.80946,"longitude":6.646},{"id":17872,"name":"Gros-de-Vaud District","latitude":46.6518,"longitude":6.65728},{"id":17878,"name":"Gryon","latitude":46.27377,"longitude":7.05975},{"id":17961,"name":"Jongny","latitude":46.47883,"longitude":6.84114},{"id":17964,"name":"Jura-Nord vaudois District","latitude":46.72981,"longitude":6.45429},{"id":18026,"name":"La Sarraz","latitude":46.65863,"longitude":6.51077},{"id":18027,"name":"La Tour-de-Peilz","latitude":46.45312,"longitude":6.85856},{"id":18048,"name":"Lausanne","latitude":46.516,"longitude":6.63282},{"id":18049,"name":"Lausanne District","latitude":46.52131,"longitude":6.63334},{"id":18052,"name":"Lavaux-Oron District","latitude":46.53618,"longitude":6.77086},{"id":18054,"name":"Le Chenit","latitude":46.60688,"longitude":6.23062},{"id":18059,"name":"Le Mont-sur-Lausanne","latitude":46.55815,"longitude":6.63145},{"id":18061,"name":"Le Vaud","latitude":46.47753,"longitude":6.23603},{"id":18079,"name":"Leysin","latitude":46.34183,"longitude":7.01151},{"id":18094,"name":"Lucens","latitude":46.70854,"longitude":6.83931},{"id":18104,"name":"Lutry","latitude":46.50241,"longitude":6.68647},{"id":18137,"name":"Mauraz","latitude":46.60558,"longitude":6.42074},{"id":18161,"name":"Mollens","latitude":46.5776,"longitude":6.3632},{"id":18164,"name":"Montagny","latitude":46.79289,"longitude":6.61222},{"id":18169,"name":"Montreux","latitude":46.43301,"longitude":6.91143},{"id":18171,"name":"Morges","latitude":46.51127,"longitude":6.49854},{"id":18172,"name":"Morges District","latitude":46.53578,"longitude":6.48662},{"id":18174,"name":"Moudon","latitude":46.66758,"longitude":6.79781},{"id":18233,"name":"Nyon","latitude":46.38318,"longitude":6.23955},{"id":18234,"name":"Nyon District","latitude":46.42004,"longitude":6.22177},{"id":18282,"name":"Ollon","latitude":46.29524,"longitude":6.99314},{"id":18286,"name":"Orbe","latitude":46.72504,"longitude":6.53069},{"id":18288,"name":"Oron-la-Ville","latitude":46.57094,"longitude":6.82557},{"id":18295,"name":"Ouest Lausannois District","latitude":46.54589,"longitude":6.56995},{"id":18296,"name":"Pailly","latitude":46.70123,"longitude":6.6754},{"id":18297,"name":"Palézieux","latitude":46.54191,"longitude":6.83989},{"id":18298,"name":"Pampigny","latitude":46.58093,"longitude":6.42941},{"id":18299,"name":"Paudex","latitude":46.50548,"longitude":6.66819},{"id":18300,"name":"Payerne","latitude":46.82192,"longitude":6.93817},{"id":18301,"name":"Penthalaz","latitude":46.61077,"longitude":6.52519},{"id":18302,"name":"Penthéréaz","latitude":46.68171,"longitude":6.6039},{"id":18303,"name":"Perroy","latitude":46.4669,"longitude":6.35349},{"id":18317,"name":"Pompaples","latitude":46.66699,"longitude":6.50966},{"id":18322,"name":"Prangins","latitude":46.39518,"longitude":6.2496},{"id":18327,"name":"Préverenges","latitude":46.51854,"longitude":6.52682},{"id":18326,"name":"Prilly","latitude":46.53698,"longitude":6.60456},{"id":18328,"name":"Puidoux","latitude":46.50093,"longitude":6.78249},{"id":18329,"name":"Pully","latitude":46.51027,"longitude":6.66183},{"id":18364,"name":"Renens","latitude":46.53989,"longitude":6.5881},{"id":18380,"name":"Riviera-Pays-d'Enhaut District","latitude":46.46459,"longitude":6.88499},{"id":18386,"name":"Rolle","latitude":46.4582,"longitude":6.33499},{"id":18387,"name":"Romanel-sur-Lausanne","latitude":46.56403,"longitude":6.60538},{"id":18424,"name":"Saint-Cergue","latitude":46.4459,"longitude":6.15737},{"id":18426,"name":"Saint-Livres","latitude":46.50794,"longitude":6.38753},{"id":18430,"name":"Saint-Prex","latitude":46.47963,"longitude":6.45992},{"id":18431,"name":"Sainte-Croix","latitude":46.82203,"longitude":6.50283},{"id":18450,"name":"Saubraz","latitude":46.51606,"longitude":6.33018},{"id":18451,"name":"Savigny","latitude":46.53844,"longitude":6.73222},{"id":18531,"name":"Sottens","latitude":46.65521,"longitude":6.74197},{"id":18611,"name":"Trélex","latitude":46.41538,"longitude":6.20813},{"id":18659,"name":"Vallorbe","latitude":46.71256,"longitude":6.37894},{"id":18673,"name":"Vevey","latitude":46.46299,"longitude":6.84345},{"id":18680,"name":"Villars-sur-Ollon","latitude":46.29832,"longitude":7.05631},{"id":18682,"name":"Villeneuve","latitude":46.39869,"longitude":6.92654},{"id":18696,"name":"Vuarrens","latitude":46.68578,"longitude":6.64793},{"id":18790,"name":"Yverdon-les-Bains","latitude":46.77852,"longitude":6.64115},{"id":18791,"name":"Yvonand","latitude":46.80034,"longitude":6.74249}]