[{"id":63244,"name":"Ami","latitude":36.03333,"longitude":140.2},{"id":63281,"name":"Bandō","latitude":36.06997,"longitude":139.86705},{"id":63282,"name":"Bandō-shi","latitude":36.06384,"longitude":139.88787},{"id":63300,"name":"Chikusei","latitude":36.316,"longitude":139.98238},{"id":63301,"name":"Chikusei-shi","latitude":36.28938,"longitude":139.98692},{"id":63317,"name":"Daigo","latitude":36.76667,"longitude":140.35},{"id":63331,"name":"Edosaki","latitude":35.95,"longitude":140.31667},{"id":63354,"name":"Fujishiro","latitude":35.91667,"longitude":140.11667},{"id":63376,"name":"Funaishikawa","latitude":36.46667,"longitude":140.56667},{"id":63504,"name":"Hitachi","latitude":36.6,"longitude":140.65},{"id":63505,"name":"Hitachi-Naka","latitude":36.39659,"longitude":140.53479},{"id":63506,"name":"Hitachi-ota","latitude":36.5513,"longitude":140.52821},{"id":63507,"name":"Hitachi-shi","latitude":36.62492,"longitude":140.61876},{"id":63508,"name":"Hitachinaka-shi","latitude":36.39596,"longitude":140.55789},{"id":63509,"name":"Hitachiōmiya-shi","latitude":36.61371,"longitude":140.3399},{"id":63510,"name":"Hitachiōta-shi","latitude":36.64836,"longitude":140.50536},{"id":63515,"name":"Hokota-shi","latitude":36.17337,"longitude":140.51993},{"id":63570,"name":"Inashiki","latitude":35.95633,"longitude":140.32356},{"id":63571,"name":"Inashiki-shi","latitude":35.94563,"longitude":140.36889},{"id":63592,"name":"Ishige","latitude":36.11667,"longitude":139.96667},{"id":63601,"name":"Ishioka","latitude":36.18333,"longitude":140.26667},{"id":63602,"name":"Ishioka-shi","latitude":36.22776,"longitude":140.21786},{"id":63606,"name":"Itako","latitude":35.93333,"longitude":140.55},{"id":63607,"name":"Itako-shi","latitude":35.961,"longitude":140.5621},{"id":63620,"name":"Iwai","latitude":36.05,"longitude":139.9},{"id":63631,"name":"Iwase","latitude":36.35,"longitude":140.1},{"id":63653,"name":"Jōsō-shi","latitude":36.06409,"longitude":139.96397},{"id":63698,"name":"Kamisu-shi","latitude":35.85126,"longitude":140.71171},{"id":63727,"name":"Kasama","latitude":36.38333,"longitude":140.26667},{"id":63728,"name":"Kasama-shi","latitude":36.35651,"longitude":140.26935},{"id":63738,"name":"Kashima-shi","latitude":35.96536,"longitude":140.64474},{"id":63749,"name":"Kasumigaura","latitude":36.15326,"longitude":140.24635},{"id":63750,"name":"Kasumigaura-shi","latitude":36.10937,"longitude":140.30205},{"id":63759,"name":"Katsuta","latitude":36.38333,"longitude":140.53333},{"id":63802,"name":"Kitaibaraki","latitude":36.78671,"longitude":140.74901},{"id":63803,"name":"Kitaibaraki-shi","latitude":36.83987,"longitude":140.68736},{"id":63824,"name":"Koga","latitude":36.18333,"longitude":139.71667},{"id":63826,"name":"Koga-shi","latitude":36.17975,"longitude":139.77534},{"id":63914,"name":"Makabe","latitude":36.26667,"longitude":140.1},{"id":63990,"name":"Mito","latitude":36.35,"longitude":140.45},{"id":63991,"name":"Mito-shi","latitude":36.37053,"longitude":140.43559},{"id":63993,"name":"Mitsukaidō","latitude":36.01667,"longitude":139.98333},{"id":64032,"name":"Moriya","latitude":35.93333,"longitude":140.0},{"id":64033,"name":"Moriya-shi","latitude":35.9514,"longitude":139.97539},{"id":64081,"name":"Naka","latitude":36.05,"longitude":140.16667},{"id":64082,"name":"Naka-gun","latitude":36.46934,"longitude":140.47943},{"id":64093,"name":"Namegata","latitude":36.00705,"longitude":140.49623},{"id":64094,"name":"Namegata-shi","latitude":36.06526,"longitude":140.47173},{"id":64714,"name":"Ōarai","latitude":36.31409,"longitude":140.58389},{"id":64202,"name":"Okunoya","latitude":36.28333,"longitude":140.41667},{"id":64205,"name":"Omitama-shi","latitude":36.20403,"longitude":140.3598},{"id":64742,"name":"Ōmiya","latitude":36.55,"longitude":140.41667},{"id":64233,"name":"Ryūgasaki","latitude":35.9,"longitude":140.18333},{"id":64234,"name":"Ryūgasaki-shi","latitude":35.92249,"longitude":140.18527},{"id":64255,"name":"Sakai","latitude":36.1,"longitude":139.8},{"id":64271,"name":"Sakuragawa","latitude":36.25052,"longitude":140.11565},{"id":64272,"name":"Sakuragawa-shi","latitude":36.32746,"longitude":140.10792},{"id":64332,"name":"Shimodate","latitude":36.3,"longitude":139.98333},{"id":64337,"name":"Shimotsuma-shi","latitude":36.18743,"longitude":139.96642},{"id":64419,"name":"Takahagi","latitude":36.71667,"longitude":140.71667},{"id":64510,"name":"Tomobe","latitude":36.35,"longitude":140.3},{"id":64515,"name":"Toride","latitude":35.9,"longitude":140.08333},{"id":64516,"name":"Toride-shi","latitude":35.91286,"longitude":140.08009},{"id":64540,"name":"Tsuchiura-shi","latitude":36.08333,"longitude":140.2},{"id":64545,"name":"Tsukuba","latitude":36.2,"longitude":140.1},{"id":64546,"name":"Tsukuba-shi","latitude":36.10532,"longitude":140.08174},{"id":64547,"name":"Tsukubamirai","latitude":35.98411,"longitude":140.00929},{"id":64548,"name":"Tsukubamirai-shi","latitude":35.98201,"longitude":140.03812},{"id":64603,"name":"Ushiku","latitude":35.96667,"longitude":140.13333},{"id":64604,"name":"Ushiku-shi","latitude":35.97175,"longitude":140.18578},{"id":64706,"name":"Yūki","latitude":36.3,"longitude":139.88333},{"id":64707,"name":"Yūki-shi","latitude":36.26127,"longitude":139.86403}]