[{"id":19148,"name":"Bankim","latitude":6.08303,"longitude":11.4905},{"id":19150,"name":"Banyo","latitude":6.75,"longitude":11.81667},{"id":19162,"name":"Bélel","latitude":7.05,"longitude":14.43333},{"id":19168,"name":"Djohong","latitude":6.83333,"longitude":14.7},{"id":19187,"name":"Kontcha","latitude":7.96667,"longitude":12.23333},{"id":19203,"name":"Mayo-Banyo","latitude":6.58138,"longitude":11.73522},{"id":19218,"name":"Meïganga","latitude":6.51667,"longitude":14.3},{"id":19236,"name":"Ngaoundéré","latitude":7.32765,"longitude":13.58472},{"id":19256,"name":"Somié","latitude":6.45843,"longitude":11.43299},{"id":19258,"name":"Tibati","latitude":6.46504,"longitude":12.62843},{"id":19259,"name":"Tignère","latitude":7.36667,"longitude":12.65},{"id":19262,"name":"Vina","latitude":7.16365,"longitude":13.72711}]