[{"id":111974,"name":"Bear","latitude":39.62928,"longitude":-75.65826},{"id":112098,"name":"Bellefonte","latitude":39.76622,"longitude":-75.50936},{"id":112277,"name":"Bethany Beach","latitude":38.53956,"longitude":-75.05518},{"id":112401,"name":"Blades","latitude":38.63567,"longitude":-75.60993},{"id":112772,"name":"Bridgeville","latitude":38.74261,"longitude":-75.60437},{"id":112887,"name":"Brookside","latitude":39.66706,"longitude":-75.72688},{"id":113261,"name":"Camden","latitude":39.11345,"longitude":-75.54187},{"id":113914,"name":"Cheswold","latitude":39.21928,"longitude":-75.58576},{"id":114192,"name":"Claymont","latitude":39.80067,"longitude":-75.45964},{"id":114197,"name":"Clayton","latitude":39.29067,"longitude":-75.63437},{"id":115203,"name":"Delaware City","latitude":39.57789,"longitude":-75.58881},{"id":115217,"name":"Delmar","latitude":38.45651,"longitude":-75.57715},{"id":115445,"name":"Dover","latitude":39.15817,"longitude":-75.52437},{"id":115453,"name":"Dover Base Housing","latitude":39.11763,"longitude":-75.48393},{"id":115847,"name":"Edgemoor","latitude":39.75011,"longitude":-75.49964},{"id":116070,"name":"Elsmere","latitude":39.73928,"longitude":-75.59798},{"id":116470,"name":"Felton","latitude":39.00845,"longitude":-75.57798},{"id":117155,"name":"Georgetown","latitude":38.69011,"longitude":-75.38547},{"id":117245,"name":"Glasgow","latitude":39.60483,"longitude":-75.74521},{"id":117681,"name":"Greenville","latitude":39.779,"longitude":-75.59826},{"id":117700,"name":"Greenwood","latitude":38.80706,"longitude":-75.59132},{"id":118041,"name":"Harrington","latitude":38.92372,"longitude":-75.5777},{"id":118401,"name":"Highland Acres","latitude":39.12095,"longitude":-75.52187},{"id":118503,"name":"Hockessin","latitude":39.78761,"longitude":-75.6966},{"id":119488,"name":"Kent Acres","latitude":39.13178,"longitude":-75.52492},{"id":119490,"name":"Kent County","latitude":39.09595,"longitude":-75.50461},{"id":120187,"name":"Laurel","latitude":38.5565,"longitude":-75.57131},{"id":120410,"name":"Lewes","latitude":38.77456,"longitude":-75.13935},{"id":120748,"name":"Long Neck","latitude":38.62011,"longitude":-75.15074},{"id":121785,"name":"Middletown","latitude":39.44956,"longitude":-75.71632},{"id":121846,"name":"Milford","latitude":38.91261,"longitude":-75.42797},{"id":121900,"name":"Millsboro","latitude":38.5915,"longitude":-75.2913},{"id":121911,"name":"Milton","latitude":38.77761,"longitude":-75.30991},{"id":122683,"name":"New Castle","latitude":39.66206,"longitude":-75.56631},{"id":122690,"name":"New Castle County","latitude":39.57833,"longitude":-75.63898},{"id":122799,"name":"Newark","latitude":39.68372,"longitude":-75.74966},{"id":122838,"name":"Newport","latitude":39.71372,"longitude":-75.60937},{"id":123112,"name":"North Star","latitude":39.76122,"longitude":-75.7191},{"id":123338,"name":"Ocean View","latitude":38.54511,"longitude":-75.08907},{"id":124194,"name":"Pike Creek","latitude":39.73095,"longitude":-75.7041},{"id":124195,"name":"Pike Creek Valley","latitude":39.73622,"longitude":-75.69827},{"id":125005,"name":"Rehoboth Beach","latitude":38.72095,"longitude":-75.07601},{"id":125171,"name":"Rising Sun-Lebanon","latitude":39.09977,"longitude":-75.50488},{"id":125217,"name":"Riverview","latitude":39.0265,"longitude":-75.51076},{"id":125342,"name":"Rodney Village","latitude":39.13206,"longitude":-75.53242},{"id":126085,"name":"Seaford","latitude":38.64123,"longitude":-75.61104},{"id":126132,"name":"Selbyville","latitude":38.46039,"longitude":-75.22074},{"id":126534,"name":"Smyrna","latitude":39.29983,"longitude":-75.60465},{"id":127303,"name":"Sussex County","latitude":38.6833,"longitude":-75.33954},{"id":127764,"name":"Townsend","latitude":39.39511,"longitude":-75.6916},{"id":129321,"name":"Wilmington","latitude":39.74595,"longitude":-75.54659},{"id":129326,"name":"Wilmington Manor","latitude":39.68678,"longitude":-75.58437},{"id":129557,"name":"Woodside East","latitude":39.06756,"longitude":-75.53748},{"id":129634,"name":"Wyoming","latitude":39.11817,"longitude":-75.55881}]