[{"id":79776,"name":"Bluff","latitude":-46.6,"longitude":168.33333},{"id":79797,"name":"Gore","latitude":-46.10282,"longitude":168.94357},{"id":79804,"name":"Invercargill","latitude":-46.4,"longitude":168.35},{"id":79871,"name":"Riverton","latitude":-46.35,"longitude":168.01667},{"id":79881,"name":"Southland District","latitude":-45.77256,"longitude":167.85266},{"id":79890,"name":"Te Anau","latitude":-45.41667,"longitude":167.71667},{"id":79923,"name":"Winton","latitude":-46.15,"longitude":168.33333}]