[{"id":56329,"name":"Kabupaten Bangka","latitude":-1.91667,"longitude":105.93333},{"id":56330,"name":"Kabupaten Bangka Barat","latitude":-1.95839,"longitude":105.53741},{"id":56331,"name":"Kabupaten Bangka Selatan","latitude":-2.66803,"longitude":106.01257},{"id":56332,"name":"Kabupaten Bangka Tengah","latitude":-2.33989,"longitude":106.1142},{"id":56350,"name":"Kabupaten Belitung","latitude":-2.86667,"longitude":107.7},{"id":56351,"name":"Kabupaten Belitung Timur","latitude":-2.9627,"longitude":108.15216},{"id":56781,"name":"Kota Pangkal Pinang","latitude":-2.13333,"longitude":106.13333},{"id":56859,"name":"Manggar","latitude":-2.88333,"longitude":108.26667},{"id":56881,"name":"Muntok","latitude":-2.06719,"longitude":105.16228},{"id":56912,"name":"Pangkalpinang","latitude":-2.12914,"longitude":106.11377},{"id":57009,"name":"Sungailiat","latitude":-1.85442,"longitude":106.12215},{"id":57017,"name":"Tanjung Pandan","latitude":-2.73353,"longitude":107.63477}]