[{"id":144877,"name":"Andili","latitude":7.46194444,"longitude":125.97},{"id":144878,"name":"Andop","latitude":7.86111111,"longitude":125.75388889},{"id":144879,"name":"Anibongan","latitude":7.39333333,"longitude":125.71888889},{"id":144880,"name":"Astorga","latitude":6.90722222,"longitude":125.45583333},{"id":144881,"name":"Asuncion","latitude":7.58333,"longitude":125.76667},{"id":144882,"name":"Babag","latitude":7.73305556,"longitude":126.07138889},{"id":144883,"name":"Baculin","latitude":7.4525,"longitude":126.58416667},{"id":144884,"name":"Baganga","latitude":7.57388889,"longitude":126.56},{"id":144885,"name":"Balagunan","latitude":7.49222222,"longitude":125.52111111},{"id":144886,"name":"Balangonan","latitude":5.57333333,"longitude":125.35388889},{"id":144887,"name":"Balutakay","latitude":6.72111111,"longitude":125.35166667},{"id":144888,"name":"Banaybanay","latitude":6.96993611,"longitude":126.012575},{"id":144889,"name":"Bansalan","latitude":6.78333333,"longitude":125.21666667},{"id":144890,"name":"Bantacan","latitude":7.60388889,"longitude":126.12972222},{"id":144891,"name":"Baon","latitude":6.79555556,"longitude":126.08777778},{"id":144892,"name":"Baracatan","latitude":6.9675,"longitude":125.41583333},{"id":144893,"name":"Basiawan","latitude":6.53416667,"longitude":125.48694444},{"id":144894,"name":"Batiano","latitude":7.55333333,"longitude":126.49083333},{"id":144895,"name":"Bato","latitude":7.04305556,"longitude":125.47305556},{"id":144896,"name":"Batobato","latitude":6.82527778,"longitude":126.08444444},{"id":144897,"name":"Baylo","latitude":7.85527778,"longitude":126.05555556},{"id":144898,"name":"Biao","latitude":7.16333333,"longitude":125.52111111},{"id":144899,"name":"Bincoñgan","latitude":7.36666667,"longitude":125.75},{"id":144900,"name":"Bitaogan","latitude":6.76833333,"longitude":126.0775},{"id":144901,"name":"Bobon","latitude":6.86777778,"longitude":126.32833333},{"id":144902,"name":"Bolila","latitude":6.37166667,"longitude":125.57138889},{"id":144903,"name":"Boston","latitude":7.87111111,"longitude":126.36416667},{"id":144904,"name":"Buclad","latitude":7.52777778,"longitude":125.75055556},{"id":144905,"name":"Buhangin","latitude":6.49111111,"longitude":125.5475},{"id":144906,"name":"Bukid","latitude":5.57166667,"longitude":125.40555556},{"id":144907,"name":"Bulacan","latitude":6.5675,"longitude":125.42111111},{"id":144908,"name":"Bungabon","latitude":7.22222222,"longitude":125.87305556},{"id":144909,"name":"Butulan","latitude":5.61444444,"longitude":125.43166667},{"id":144910,"name":"Cabayangan","latitude":7.40722222,"longitude":125.73305556},{"id":144911,"name":"Cabinuangan","latitude":7.68333333,"longitude":126.03333333},{"id":144912,"name":"Caburan","latitude":5.91805556,"longitude":125.64111111},{"id":144913,"name":"Cambanugoy","latitude":7.54138889,"longitude":125.75527778},{"id":144914,"name":"Camudmud","latitude":7.17611111,"longitude":125.69333333},{"id":144915,"name":"Caraga","latitude":7.33333333,"longitude":126.56666667},{"id":144916,"name":"Carmen","latitude":7.36055556,"longitude":125.70638889},{"id":144917,"name":"Cateel","latitude":7.79138889,"longitude":126.45333333},{"id":144918,"name":"City of Mati","latitude":6.75381,"longitude":126.24592},{"id":144919,"name":"City of Panabo","latitude":7.33038,"longitude":125.60607},{"id":144920,"name":"City of Tagum","latitude":7.4,"longitude":125.83333},{"id":144921,"name":"Cogon","latitude":7.15083333,"longitude":125.71722222},{"id":144922,"name":"Concepcion","latitude":7.75055556,"longitude":125.71194444},{"id":144923,"name":"Corocotan","latitude":7.39972222,"longitude":125.77277778},{"id":144924,"name":"Coronon","latitude":6.87916667,"longitude":125.44888889},{"id":144925,"name":"Cuambog","latitude":7.30861111,"longitude":125.84805556},{"id":144926,"name":"Culaman","latitude":5.96027778,"longitude":125.65861111},{"id":144927,"name":"Dacudao","latitude":7.21527778,"longitude":125.47138889},{"id":144928,"name":"Dakbayan sa Digos","latitude":6.83333,"longitude":125.35},{"id":144929,"name":"Davan","latitude":6.915,"longitude":126.15333333},{"id":144930,"name":"Davao City","latitude":7.06666667,"longitude":125.6},{"id":144931,"name":"Del Pilar","latitude":7.56305556,"longitude":125.82666667},{"id":144932,"name":"Digos","latitude":6.75,"longitude":125.35},{"id":144933,"name":"Dolo","latitude":6.81027778,"longitude":125.19166667},{"id":144934,"name":"Don Marcelino","latitude":6.11667,"longitude":125.63333},{"id":144935,"name":"Dumlan","latitude":7.4275,"longitude":125.88194444},{"id":144936,"name":"Esperanza","latitude":7.49166667,"longitude":125.72805556},{"id":144937,"name":"Gabi","latitude":7.62138889,"longitude":126.09194444},{"id":144938,"name":"Gabuyan","latitude":7.60805556,"longitude":125.66888889},{"id":144939,"name":"Goma","latitude":6.79194444,"longitude":125.32083333},{"id":144940,"name":"Governor Generoso","latitude":6.65,"longitude":126.06666667},{"id":144941,"name":"Guihing Proper","latitude":6.68444444,"longitude":125.3525},{"id":144942,"name":"Gumalang","latitude":7.20833333,"longitude":125.40361111},{"id":144943,"name":"Gupitan","latitude":7.77583333,"longitude":125.64055556},{"id":144944,"name":"Hagonoy","latitude":6.68333333,"longitude":125.3},{"id":144945,"name":"Ignit","latitude":6.70083333,"longitude":125.29194444},{"id":144946,"name":"Ilangay","latitude":6.91277778,"longitude":126.05},{"id":144947,"name":"Inawayan","latitude":6.96083333,"longitude":125.47333333},{"id":144948,"name":"Island Garden City of Samal","latitude":7.08333,"longitude":125.75},{"id":144949,"name":"Jose Abad Santos","latitude":5.91666667,"longitude":125.65},{"id":144951,"name":"Jovellar","latitude":7.06361111,"longitude":126.45555556},{"id":144952,"name":"Kalbay","latitude":5.72333333,"longitude":125.49861111},{"id":144953,"name":"Kalian","latitude":6.12305556,"longitude":125.70027778},{"id":144954,"name":"Kaligutan","latitude":7.70305556,"longitude":125.81305556},{"id":144955,"name":"Kapalong","latitude":7.58541667,"longitude":125.70515278},{"id":144957,"name":"Katipunan","latitude":7.32027778,"longitude":125.62027778},{"id":144958,"name":"Kiblawan","latitude":6.61666667,"longitude":125.21666667},{"id":144959,"name":"Kinablangan","latitude":7.69277778,"longitude":126.54916667},{"id":144960,"name":"Kinamayan","latitude":7.49944444,"longitude":125.67361111},{"id":144961,"name":"Kinangan","latitude":6.30138889,"longitude":125.585},{"id":144962,"name":"La Libertad","latitude":7.48027778,"longitude":125.64722222},{"id":144963,"name":"La Paz","latitude":7.31583333,"longitude":125.73333333},{"id":144964,"name":"La Union","latitude":6.70416667,"longitude":126.08805556},{"id":144965,"name":"Lacaron","latitude":6.44888889,"longitude":125.57916667},{"id":144966,"name":"Lacson","latitude":7.21194444,"longitude":125.44222222},{"id":144967,"name":"Lais","latitude":6.33277778,"longitude":125.64638889},{"id":144968,"name":"Lamitan","latitude":6.08722222,"longitude":125.70222222},{"id":144969,"name":"Lapuan","latitude":6.14444444,"longitude":125.70083333},{"id":144970,"name":"Lasang","latitude":7.26694444,"longitude":125.665},{"id":144971,"name":"Libuganon","latitude":7.34888889,"longitude":125.77833333},{"id":144972,"name":"Limao","latitude":7.07916667,"longitude":125.67361111},{"id":144973,"name":"Limot","latitude":7.04055556,"longitude":126.27277778},{"id":144974,"name":"Linao","latitude":7.01722222,"longitude":125.99194444},{"id":144975,"name":"Linoan","latitude":7.62611111,"longitude":125.97416667},{"id":144976,"name":"Lukatan","latitude":7.00972222,"longitude":126.42111111},{"id":144977,"name":"Luna","latitude":7.57638889,"longitude":125.66722222},{"id":144978,"name":"Lungaog","latitude":7.52944444,"longitude":125.68777778},{"id":144979,"name":"Lupon","latitude":6.89814,"longitude":126.00961},{"id":144980,"name":"Luzon","latitude":6.51916667,"longitude":126.09416667},{"id":144981,"name":"Mabini","latitude":7.3,"longitude":125.85},{"id":144983,"name":"Mabuhay","latitude":7.33305556,"longitude":125.5475},{"id":144984,"name":"Maco","latitude":7.36194,"longitude":125.85528},{"id":144985,"name":"Maduao","latitude":7.29416667,"longitude":125.62583333},{"id":144986,"name":"Magatos","latitude":7.55555556,"longitude":125.72666667},{"id":144987,"name":"Magdug","latitude":6.54777778,"longitude":126.095},{"id":144988,"name":"Magnaga","latitude":7.16944444,"longitude":125.89305556},{"id":144989,"name":"Magsaysay","latitude":6.76666667,"longitude":125.18333333},{"id":144992,"name":"Mahanob","latitude":7.57333333,"longitude":126.50694444},{"id":144993,"name":"Mahayag","latitude":7.21666667,"longitude":125.61944444},{"id":144994,"name":"Malagos","latitude":7.185,"longitude":125.42222222},{"id":144995,"name":"Malalag","latitude":6.6,"longitude":125.4},{"id":144996,"name":"Malinao","latitude":6.65916667,"longitude":125.28666667},{"id":144997,"name":"Malita","latitude":6.4,"longitude":125.6},{"id":144998,"name":"Mambago","latitude":7.10555556,"longitude":125.69444444},{"id":144999,"name":"Managa","latitude":6.74611111,"longitude":125.26805556},{"id":145000,"name":"Manaloal","latitude":7.36611111,"longitude":125.66027778},{"id":145001,"name":"Manat","latitude":7.53277778,"longitude":126.01722222},{"id":145002,"name":"Manay","latitude":7.21666667,"longitude":126.53333333},{"id":145004,"name":"Mangili","latitude":6.00333333,"longitude":125.68388889},{"id":145005,"name":"Manikling","latitude":6.87916667,"longitude":126.06055556},{"id":145006,"name":"Matanao","latitude":6.75,"longitude":125.23333333},{"id":145008,"name":"Mati","latitude":6.95,"longitude":126.23333333},{"id":145009,"name":"Matiao","latitude":7.08277778,"longitude":125.93611111},{"id":145010,"name":"Matti","latitude":6.77055556,"longitude":125.30861111},{"id":145011,"name":"Mawab","latitude":7.5,"longitude":125.93333333},{"id":145013,"name":"Mayo","latitude":7.00222222,"longitude":126.33194444},{"id":145014,"name":"Monkayo","latitude":7.81528,"longitude":126.05444},{"id":145015,"name":"Montevista","latitude":7.7,"longitude":125.98333333},{"id":145016,"name":"Nabunturan","latitude":7.58333,"longitude":126.01667},{"id":145017,"name":"Nangan","latitude":6.47277778,"longitude":126.12444444},{"id":145018,"name":"Nanyo","latitude":7.33305556,"longitude":125.63777778},{"id":145019,"name":"New Baclayon","latitude":6.58416667,"longitude":125.36944444},{"id":145020,"name":"New Bataan","latitude":7.53333333,"longitude":126.13333333},{"id":145021,"name":"New Bohol","latitude":7.52333333,"longitude":125.83638889},{"id":145022,"name":"New Corella","latitude":7.5866,"longitude":125.8237},{"id":145023,"name":"New Leyte","latitude":7.5,"longitude":125.75},{"id":145024,"name":"New Sibonga","latitude":7.56083333,"longitude":125.92972222},{"id":145025,"name":"New Visayas","latitude":7.52333333,"longitude":125.62333333},{"id":145026,"name":"Nuing","latitude":5.63277778,"longitude":125.43527778},{"id":145027,"name":"Padada","latitude":6.63333333,"longitude":125.35},{"id":145028,"name":"Pag-asa","latitude":7.57555556,"longitude":125.68388889},{"id":145029,"name":"Pagsabangan","latitude":7.48111111,"longitude":125.74944444},{"id":145030,"name":"Palma Gil","latitude":7.64222222,"longitude":125.62916667},{"id":145031,"name":"Panabo","latitude":7.30805556,"longitude":125.68416667},{"id":145032,"name":"Pandasan","latitude":7.28388889,"longitude":125.85361111},{"id":145033,"name":"Pangian","latitude":6.46277778,"longitude":125.54527778},{"id":145034,"name":"Panikian","latitude":7.01083333,"longitude":126.02416667},{"id":145035,"name":"Pantukan","latitude":7.15,"longitude":125.95},{"id":145036,"name":"Pasian","latitude":7.92805556,"longitude":126.06722222},{"id":145037,"name":"Pondaguitan","latitude":6.36111111,"longitude":126.17777778},{"id":145038,"name":"Pung-Pang","latitude":6.4975,"longitude":125.46333333},{"id":145039,"name":"Samal","latitude":7.07444,"longitude":125.70833},{"id":145040,"name":"Sampao","latitude":7.59388889,"longitude":125.66111111},{"id":145041,"name":"San Alfonso","latitude":7.78027778,"longitude":126.42027778},{"id":145042,"name":"San Antonio","latitude":7.12,"longitude":125.73972222},{"id":145043,"name":"San Ignacio","latitude":7.11888889,"longitude":126.48833333},{"id":145044,"name":"San Isidro","latitude":6.76667,"longitude":126.13333},{"id":145045,"name":"San Luis","latitude":7.44138889,"longitude":126.55111111},{"id":145046,"name":"San Mariano","latitude":7.33819,"longitude":126.16464},{"id":145047,"name":"San Miguel","latitude":7.485,"longitude":125.67638889},{"id":145048,"name":"San Pedro","latitude":7.34194444,"longitude":126.5175},{"id":145049,"name":"San Rafael","latitude":7.76388889,"longitude":126.45583333},{"id":145050,"name":"San Remigio","latitude":6.92305556,"longitude":125.77583333},{"id":145051,"name":"San Vicente","latitude":7.86667,"longitude":125.83333},{"id":145052,"name":"Santa Cruz","latitude":6.83333333,"longitude":125.41666667},{"id":145053,"name":"Santa Maria","latitude":6.55361111,"longitude":125.47083333},{"id":145054,"name":"Santiago","latitude":7.28888889,"longitude":126.57333333},{"id":145055,"name":"Santo Niño","latitude":7.62361111,"longitude":125.62527778},{"id":145057,"name":"Santo Tomas","latitude":7.51667,"longitude":125.6},{"id":145058,"name":"Sarangani","latitude":5.4,"longitude":125.46666667},{"id":145059,"name":"Sibulan","latitude":6.93361111,"longitude":125.46222222},{"id":145060,"name":"Sigaboy","latitude":6.65416667,"longitude":126.07277778},{"id":145061,"name":"Simod","latitude":7.47583333,"longitude":125.34083333},{"id":145062,"name":"Sinawilan","latitude":6.75444444,"longitude":125.24638889},{"id":145063,"name":"Sinayawan","latitude":6.7125,"longitude":125.30944444},{"id":145064,"name":"Sirib","latitude":7.13333333,"longitude":125.40722222},{"id":145065,"name":"Sugal","latitude":5.66222222,"longitude":125.46166667},{"id":145066,"name":"Sulop","latitude":6.59861,"longitude":125.34361},{"id":145067,"name":"Surup","latitude":6.39027778,"longitude":126.14555556},{"id":145068,"name":"Suz-on","latitude":7.66277778,"longitude":125.63833333},{"id":145069,"name":"Tagakpan","latitude":7.11277778,"longitude":125.42916667},{"id":145070,"name":"Tagdanua","latitude":7.20416667,"longitude":125.88416667},{"id":145071,"name":"Tagnanan","latitude":7.28361111,"longitude":125.84222222},{"id":145072,"name":"Tagum","latitude":7.4475,"longitude":125.8046},{"id":145073,"name":"Takub","latitude":6.85638889,"longitude":125.4225},{"id":145074,"name":"Talagutong","latitude":6.26444444,"longitude":125.66777778},{"id":145075,"name":"Talisay","latitude":6.71972222,"longitude":126.1},{"id":145076,"name":"Talomo","latitude":7.52861111,"longitude":125.72277778},{"id":145077,"name":"Tamayong","latitude":7.13305556,"longitude":125.37972222},{"id":145078,"name":"Tambo","latitude":7.15694444,"longitude":125.69916667},{"id":145079,"name":"Tamisan","latitude":6.84361111,"longitude":126.29833333},{"id":145080,"name":"Tamugan","latitude":7.23083333,"longitude":125.37638889},{"id":145081,"name":"Tanlad","latitude":6.60222222,"longitude":125.445},{"id":145082,"name":"Tapia","latitude":7.75416667,"longitude":126.01194444},{"id":145083,"name":"Tarragona","latitude":7.0491,"longitude":126.44708},{"id":145084,"name":"Tawan tawan","latitude":7.16916667,"longitude":125.37277778},{"id":145085,"name":"Taytayan","latitude":7.73388889,"longitude":126.50194444},{"id":145086,"name":"Tibagon","latitude":7.23277778,"longitude":125.86277778},{"id":145087,"name":"Tibanbang","latitude":6.63166667,"longitude":126.10555556},{"id":145088,"name":"Tiblawan","latitude":6.47833333,"longitude":126.10833333},{"id":145089,"name":"Tombongon","latitude":7.07916667,"longitude":125.94861111},{"id":145090,"name":"Tubalan","latitude":6.495,"longitude":125.56611111},{"id":145091,"name":"Tuban","latitude":6.82277778,"longitude":125.38694444},{"id":145092,"name":"Tubod","latitude":7.37166667,"longitude":125.64472222},{"id":145093,"name":"Tuganay","latitude":7.36888889,"longitude":125.72305556},{"id":145094,"name":"Tuli","latitude":7.23333333,"longitude":125.41666667},{"id":145095,"name":"Ula","latitude":7.13222222,"longitude":125.49222222},{"id":145096,"name":"Wañgan","latitude":7.15972222,"longitude":125.44527778},{"id":145097,"name":"Wines","latitude":7.19388889,"longitude":125.38916667}]