[{"id":66581,"name":"Alytus","latitude":54.39635,"longitude":24.04142},{"id":66592,"name":"Daugai","latitude":54.36667,"longitude":24.33333},{"id":66593,"name":"Druskininkai","latitude":54.01573,"longitude":23.98703},{"id":66630,"name":"Lazdijai","latitude":54.23333,"longitude":23.51667},{"id":66678,"name":"Simnas","latitude":54.382,"longitude":23.646},{"id":66694,"name":"VarÄ—na","latitude":54.21667,"longitude":24.56667},{"id":66695,"name":"Veisiejai","latitude":54.1011,"longitude":23.69614}]