[{"id":150164,"name":"Avajiq","latitude":39.313889,"longitude":44.164722},{"id":150181,"name":"Baruq","latitude":36.9530288,"longitude":46.3141322},{"id":150179,"name":"Bazargan","latitude":39.3909326,"longitude":44.3732159},{"id":134829,"name":"Bukan","latitude":36.521,"longitude":46.1303018},{"id":134836,"name":"Chaldoran","latitude":39.06667,"longitude":44.33333},{"id":150182,"name":"Charburj","latitude":37.1218792,"longitude":45.958986},{"id":134611,"name":"Chaypareh","latitude":38.86667,"longitude":45.0},{"id":150168,"name":"Dizaj Diz","latitude":38.4612821,"longitude":45.0072525},{"id":150166,"name":"Evogli","latitude":38.7113992,"longitude":45.1979041},{"id":150170,"name":"Firuraq","latitude":38.5806101,"longitude":44.8403548},{"id":150163,"name":"Gerd Kashaneh","latitude":36.8113629,"longitude":45.247643},{"id":150175,"name":"Keshavarz","latitude":36.8348605,"longitude":46.3500952},{"id":150180,"name":"Khalifan","latitude":36.506816,"longitude":45.7909084},{"id":134676,"name":"Khowy","latitude":38.5503,"longitude":44.9521},{"id":150167,"name":"Khoy","latitude":38.5484923,"longitude":44.9166149},{"id":134949,"name":"Mahabad","latitude":36.76667,"longitude":45.73333},{"id":150176,"name":"Mahmoodabad","latitude":36.7141379,"longitude":46.4916487},{"id":134967,"name":"Maku","latitude":39.41669,"longitude":44.58336},{"id":150178,"name":"Marganlar","latitude":39.1431389,"longitude":44.9298762},{"id":134706,"name":"Miandoab","latitude":36.96667,"longitude":46.10961},{"id":150173,"name":"Mirabad","latitude":36.4059131,"longitude":45.3620982},{"id":150183,"name":"Mohammadyar","latitude":36.983511,"longitude":45.5103493},{"id":150160,"name":"Nalous","latitude":36.9838115,"longitude":45.1396036},{"id":134708,"name":"Naqadeh","latitude":36.9553,"longitude":45.388},{"id":150162,"name":"Nazok-e Olya","latitude":39.0102301,"longitude":45.050919},{"id":150158,"name":"Noshin","latitude":37.7320977,"longitude":45.0382803},{"id":150159,"name":"Oshnavieh","latitude":37.035787,"longitude":45.0818394},{"id":134725,"name":"Oshnaviyeh","latitude":37.0397,"longitude":45.0983},{"id":134727,"name":"Piranshahr","latitude":36.701,"longitude":45.1413},{"id":134729,"name":"Poldasht","latitude":39.348,"longitude":45.071},{"id":134736,"name":"Qarahziyaeddin","latitude":38.8915,"longitude":45.0255},{"id":150171,"name":"Qotur","latitude":38.4653804,"longitude":44.3881129},{"id":150157,"name":"Qushchi","latitude":37.9896341,"longitude":45.0270581},{"id":150172,"name":"Rabat","latitude":36.208333,"longitude":45.55},{"id":134763,"name":"Salmas","latitude":38.1973,"longitude":44.7653},{"id":134768,"name":"Sardasht","latitude":36.2167,"longitude":45.4832},{"id":150155,"name":"Serow","latitude":37.7275,"longitude":44.642778},{"id":135110,"name":"Shahin Dej","latitude":36.6793,"longitude":46.5669},{"id":150177,"name":"Showt","latitude":39.2209468,"longitude":44.7491597},{"id":150165,"name":"Siah Cheshmeh","latitude":39.064678,"longitude":44.3694447},{"id":150156,"name":"Silvana","latitude":37.4222616,"longitude":44.8499679},{"id":150161,"name":"Simmineh","latitude":36.729722,"longitude":46.151111},{"id":135128,"name":"Takab","latitude":36.4009,"longitude":47.1133},{"id":150174,"name":"Taze Shar","latitude":38.1766875,"longitude":44.6837782},{"id":134724,"name":"Urmia","latitude":37.55274,"longitude":45.07605},{"id":150169,"name":"Zurabad","latitude":38.8022005,"longitude":44.5770691}]