[{"id":54424,"name":"Brodarica","latitude":43.68,"longitude":15.91972},{"id":54468,"name":"Drniš","latitude":43.8625,"longitude":16.15556},{"id":54512,"name":"Grad Drniš","latitude":43.83333,"longitude":16.16667},{"id":54572,"name":"Grad Šibenik","latitude":43.73576,"longitude":15.89602},{"id":54646,"name":"Kistanje","latitude":43.98278,"longitude":15.965},{"id":54652,"name":"Knin","latitude":44.04063,"longitude":16.19662},{"id":54745,"name":"Murter","latitude":43.82043,"longitude":15.58988},{"id":54746,"name":"Murter-Kornati","latitude":43.80959,"longitude":15.60024},{"id":54808,"name":"Pirovac","latitude":43.81917,"longitude":15.67278},{"id":54839,"name":"Primošten","latitude":43.58632,"longitude":15.92302},{"id":54843,"name":"Promina","latitude":43.95798,"longitude":16.09737},{"id":54864,"name":"Rogoznica","latitude":43.52472,"longitude":15.97},{"id":54865,"name":"Rogoznica Općina","latitude":43.5362,"longitude":15.97086},{"id":55030,"name":"Šibenik","latitude":43.72722,"longitude":15.90583},{"id":54894,"name":"Skradin","latitude":43.82028,"longitude":15.92361},{"id":54936,"name":"Tisno","latitude":43.80417,"longitude":15.64333},{"id":54940,"name":"Tribunj","latitude":43.75547,"longitude":15.74444},{"id":54981,"name":"Vodice","latitude":43.76083,"longitude":15.78278}]