[{"id":97614,"name":"Amursk","latitude":50.23685,"longitude":136.88136},{"id":97727,"name":"Ayan","latitude":56.46314,"longitude":138.17777},{"id":97908,"name":"Berëzovyy","latitude":51.66897,"longitude":135.66584},{"id":97926,"name":"Bikin","latitude":46.81293,"longitude":134.25012},{"id":97927,"name":"Bikinskiy Rayon","latitude":47.0,"longitude":134.25},{"id":97974,"name":"Bogorodskoye","latitude":52.37397,"longitude":140.43579},{"id":98131,"name":"Chegdomyn","latitude":51.12853,"longitude":133.00827},{"id":98221,"name":"Chumikan","latitude":54.71857,"longitude":135.3163},{"id":98253,"name":"De-Kastri","latitude":51.47543,"longitude":140.76986},{"id":98525,"name":"Gorin","latitude":51.19861,"longitude":136.66216},{"id":98542,"name":"Gornyy","latitude":50.76344,"longitude":136.44951},{"id":98665,"name":"Imeni Poliny Osipenko","latitude":52.4227,"longitude":136.48692},{"id":98948,"name":"Khabarovsk","latitude":48.48271,"longitude":135.08379},{"id":98949,"name":"Khabarovsk Vtoroy","latitude":48.43776,"longitude":135.13329},{"id":99004,"name":"Khor","latitude":47.88696,"longitude":134.9463},{"id":99021,"name":"Khurba","latitude":50.40657,"longitude":136.88276},{"id":99115,"name":"Knyaze-Volkonskoye","latitude":48.46547,"longitude":135.45582},{"id":99171,"name":"Komsomolsk-on-Amur","latitude":50.55034,"longitude":137.00995},{"id":99206,"name":"Korfovskiy","latitude":48.22259,"longitude":135.05966},{"id":99548,"name":"Lazarev","latitude":52.22307,"longitude":141.51265},{"id":99585,"name":"Lermontovka","latitude":47.14795,"longitude":134.33477},{"id":99641,"name":"Litovko","latitude":49.23754,"longitude":135.17401},{"id":99668,"name":"Lososina","latitude":48.99652,"longitude":140.31462},{"id":99740,"name":"Mago","latitude":53.25851,"longitude":140.18269},{"id":99833,"name":"Mayskiy","latitude":48.99887,"longitude":140.20976},{"id":99936,"name":"Mnogovershinnyy","latitude":53.93345,"longitude":139.9274},{"id":99996,"name":"Mukhen","latitude":48.19672,"longitude":136.12691},{"id":100092,"name":"Nekrasovka","latitude":48.35208,"longitude":135.23221},{"id":100136,"name":"Nikolayevsk-on-Amure","latitude":53.14657,"longitude":140.72287},{"id":100353,"name":"Novyy Urgal","latitude":51.07089,"longitude":132.60075},{"id":100403,"name":"Okhotsk","latitude":59.362,"longitude":143.21468},{"id":101155,"name":"Selikhino","latitude":50.36832,"longitude":137.50163},{"id":101459,"name":"Solnechnyy","latitude":50.72367,"longitude":136.63831},{"id":101508,"name":"Sovetskaya Gavan’","latitude":48.97215,"longitude":140.28919},{"id":101895,"name":"Topolëvo","latitude":48.50264,"longitude":135.17611},{"id":101996,"name":"Tyrma","latitude":50.0477,"longitude":132.15011},{"id":102186,"name":"Vanino","latitude":49.09848,"longitude":140.25313},{"id":102421,"name":"Vyazemskiy","latitude":47.53757,"longitude":134.75556},{"id":102447,"name":"Vysokogornyy","latitude":50.09885,"longitude":139.12284},{"id":102671,"name":"Zavety Il’icha","latitude":49.03737,"longitude":140.26989}]