[{"id":17357,"name":"Aarau","latitude":47.39254,"longitude":8.04422},{"id":17359,"name":"Aarburg","latitude":47.32067,"longitude":7.89986},{"id":17407,"name":"Aristau","latitude":47.28692,"longitude":8.36356},{"id":17424,"name":"Auw","latitude":47.21082,"longitude":8.36583},{"id":17431,"name":"Bad Zurzach","latitude":47.58764,"longitude":8.29365},{"id":17432,"name":"Baden","latitude":47.47333,"longitude":8.30592},{"id":17460,"name":"Berikon","latitude":47.35155,"longitude":8.37232},{"id":17467,"name":"Besenbüren","latitude":47.31439,"longitude":8.34586},{"id":17471,"name":"Bezirk Aarau","latitude":47.37706,"longitude":8.05235},{"id":17475,"name":"Bezirk Baden","latitude":47.4566,"longitude":8.30059},{"id":17476,"name":"Bezirk Bremgarten","latitude":47.34927,"longitude":8.33343},{"id":17477,"name":"Bezirk Brugg","latitude":47.47776,"longitude":8.17798},{"id":17491,"name":"Bezirk Kulm","latitude":47.28757,"longitude":8.13302},{"id":17494,"name":"Bezirk Laufenburg","latitude":47.51844,"longitude":8.03878},{"id":17496,"name":"Bezirk Lenzburg","latitude":47.37184,"longitude":8.1891},{"id":17501,"name":"Bezirk Muri","latitude":47.25233,"longitude":8.35362},{"id":17506,"name":"Bezirk Rheinfelden","latitude":47.54048,"longitude":7.83331},{"id":17521,"name":"Bezirk Zofingen","latitude":47.28864,"longitude":7.95697},{"id":17522,"name":"Bezirk Zurzach","latitude":47.56182,"longitude":8.2802},{"id":17536,"name":"Birmenstorf","latitude":47.46152,"longitude":8.24816},{"id":17537,"name":"Birr","latitude":47.43432,"longitude":8.20891},{"id":17549,"name":"Boniswil","latitude":47.31725,"longitude":8.18963},{"id":17558,"name":"Bremgarten","latitude":47.35109,"longitude":8.34214},{"id":17565,"name":"Brittnau","latitude":47.25954,"longitude":7.94689},{"id":17570,"name":"Brugg","latitude":47.48096,"longitude":8.20869},{"id":17579,"name":"Buchs","latitude":47.39358,"longitude":8.08233},{"id":17588,"name":"Buttwil","latitude":47.26828,"longitude":8.31064},{"id":17682,"name":"Densbüren","latitude":47.4526,"longitude":8.0533},{"id":17705,"name":"Dottikon","latitude":47.38437,"longitude":8.23981},{"id":17717,"name":"Dürrenäsch","latitude":47.32094,"longitude":8.15874},{"id":17732,"name":"Egliswil","latitude":47.34922,"longitude":8.18553},{"id":17734,"name":"Ehrendingen","latitude":47.5025,"longitude":8.34729},{"id":17737,"name":"Eiken","latitude":47.53361,"longitude":7.98801},{"id":17749,"name":"Endingen","latitude":47.53742,"longitude":8.29036},{"id":17810,"name":"Frick","latitude":47.51169,"longitude":8.02471},{"id":17824,"name":"Gebenstorf","latitude":47.48136,"longitude":8.23949},{"id":17834,"name":"Gipf-Oberfrick","latitude":47.49875,"longitude":8.00497},{"id":17853,"name":"Gontenschwil","latitude":47.27166,"longitude":8.14396},{"id":17880,"name":"Gränichen","latitude":47.3593,"longitude":8.10243},{"id":17939,"name":"Hägglingen","latitude":47.38851,"longitude":8.25285},{"id":17895,"name":"Hausen","latitude":47.46396,"longitude":8.20988},{"id":17960,"name":"Jonen","latitude":47.2975,"longitude":8.39282},{"id":17966,"name":"Kaiseraugst","latitude":47.53966,"longitude":7.72605},{"id":17967,"name":"Kaisten","latitude":47.5416,"longitude":8.04337},{"id":17978,"name":"Killwangen","latitude":47.43223,"longitude":8.35097},{"id":17985,"name":"Klingnau","latitude":47.58361,"longitude":8.2488},{"id":17999,"name":"Koblenz","latitude":47.60972,"longitude":8.2375},{"id":18010,"name":"Kölliken","latitude":47.33337,"longitude":8.02237},{"id":18012,"name":"Künten","latitude":47.38887,"longitude":8.33045},{"id":18020,"name":"Küttigen","latitude":47.41484,"longitude":8.04979},{"id":18043,"name":"Laufenburg","latitude":47.55985,"longitude":8.06225},{"id":18044,"name":"Lauffohr (Brugg)","latitude":47.50154,"longitude":8.23122},{"id":18062,"name":"Leibstadt","latitude":47.5879,"longitude":8.17611},{"id":18066,"name":"Lenzburg","latitude":47.38853,"longitude":8.17503},{"id":18115,"name":"Magden","latitude":47.52868,"longitude":7.81128},{"id":18144,"name":"Meisterschwanden","latitude":47.29489,"longitude":8.22867},{"id":18148,"name":"Mellingen","latitude":47.41903,"longitude":8.27331},{"id":18151,"name":"Menziken","latitude":47.23965,"longitude":8.18996},{"id":18154,"name":"Merenschwand","latitude":47.25944,"longitude":8.37633},{"id":18191,"name":"Möhlin","latitude":47.55915,"longitude":7.84329},{"id":18176,"name":"Muhen","latitude":47.33578,"longitude":8.05536},{"id":18177,"name":"Mumpf","latitude":47.54563,"longitude":7.92123},{"id":18181,"name":"Murgenthal","latitude":47.27145,"longitude":7.83935},{"id":18182,"name":"Muri","latitude":47.27428,"longitude":8.33854},{"id":18215,"name":"Neuenhof","latitude":47.44985,"longitude":8.32682},{"id":18227,"name":"Niederlenz","latitude":47.40079,"longitude":8.1764},{"id":18228,"name":"Niederrohrdorf","latitude":47.42409,"longitude":8.30404},{"id":18250,"name":"Oberentfelden","latitude":47.35639,"longitude":8.04594},{"id":18257,"name":"Oberlunkhofen","latitude":47.31244,"longitude":8.39242},{"id":18263,"name":"Oberrohrdorf","latitude":47.41833,"longitude":8.31983},{"id":18264,"name":"Oberrüti","latitude":47.16673,"longitude":8.39441},{"id":18266,"name":"Obersiggenthal","latitude":47.4875,"longitude":8.29652},{"id":18281,"name":"Oftringen","latitude":47.31382,"longitude":7.92533},{"id":18293,"name":"Othmarsingen","latitude":47.40125,"longitude":8.21383},{"id":18363,"name":"Reinach","latitude":47.25732,"longitude":8.18091},{"id":18366,"name":"Rheinfelden","latitude":47.55437,"longitude":7.79403},{"id":18394,"name":"Rothrist","latitude":47.30508,"longitude":7.89196},{"id":18397,"name":"Rudolfstetten","latitude":47.37101,"longitude":8.38083},{"id":18399,"name":"Rupperswil","latitude":47.40131,"longitude":8.12877},{"id":18419,"name":"Safenwil","latitude":47.32163,"longitude":7.98254},{"id":18446,"name":"Sarmenstorf","latitude":47.31109,"longitude":8.2495},{"id":18456,"name":"Schafisheim","latitude":47.37664,"longitude":8.14263},{"id":18462,"name":"Schinznach Bad","latitude":47.44992,"longitude":8.16833},{"id":18463,"name":"Schinznach Dorf","latitude":47.4465,"longitude":8.14089},{"id":18483,"name":"Schöftland","latitude":47.3059,"longitude":8.05119},{"id":18474,"name":"Schwaderloch","latitude":47.58541,"longitude":8.14455},{"id":18501,"name":"Seengen","latitude":47.32503,"longitude":8.20724},{"id":18511,"name":"Seon","latitude":47.34848,"longitude":8.16072},{"id":18523,"name":"Sins","latitude":47.19296,"longitude":8.39384},{"id":18534,"name":"Spreitenbach","latitude":47.42285,"longitude":8.36792},{"id":18544,"name":"Staffelbach","latitude":47.28395,"longitude":8.04208},{"id":18548,"name":"Staufen","latitude":47.38197,"longitude":8.16681},{"id":18551,"name":"Stein","latitude":47.54403,"longitude":7.95256},{"id":18559,"name":"Strengelbach","latitude":47.27917,"longitude":7.92895},{"id":18562,"name":"Suhr","latitude":47.37172,"longitude":8.07967},{"id":18564,"name":"Sulz","latitude":47.53602,"longitude":8.09628},{"id":18577,"name":"Tegerfelden","latitude":47.55809,"longitude":8.28914},{"id":18580,"name":"Teufenthal","latitude":47.32896,"longitude":8.11777},{"id":18614,"name":"Turgi","latitude":47.49201,"longitude":8.25412},{"id":18625,"name":"Uerkheim","latitude":47.30353,"longitude":8.0232},{"id":18633,"name":"Unterkulm","latitude":47.30998,"longitude":8.11371},{"id":18634,"name":"Unterlunkhofen","latitude":47.3212,"longitude":8.38102},{"id":18636,"name":"Untersiggenthal","latitude":47.50213,"longitude":8.25554},{"id":18664,"name":"Veltheim","latitude":47.43796,"longitude":8.14722},{"id":18683,"name":"Villigen","latitude":47.52682,"longitude":8.21486},{"id":18684,"name":"Villmergen","latitude":47.35009,"longitude":8.24762},{"id":18685,"name":"Villnachern","latitude":47.47098,"longitude":8.15975},{"id":18692,"name":"Vordemwald","latitude":47.27585,"longitude":7.90114},{"id":18719,"name":"Waltenschwil","latitude":47.33339,"longitude":8.29791},{"id":18728,"name":"Wegenstetten","latitude":47.49797,"longitude":7.93141},{"id":18736,"name":"Wettingen","latitude":47.47049,"longitude":8.31636},{"id":18757,"name":"Windisch","latitude":47.47899,"longitude":8.21842},{"id":18760,"name":"Wittnau","latitude":47.48139,"longitude":7.97577},{"id":18761,"name":"Wohlen","latitude":47.35066,"longitude":8.27517},{"id":18782,"name":"Wölflinswil","latitude":47.4607,"longitude":7.99835},{"id":18788,"name":"Würenlingen","latitude":47.53356,"longitude":8.25666},{"id":18789,"name":"Würenlos","latitude":47.44205,"longitude":8.36261},{"id":18796,"name":"Zofingen","latitude":47.28779,"longitude":7.94586}]