[{"id":104009,"name":"Ånge","latitude":62.52495,"longitude":15.65904},{"id":104015,"name":"Ås","latitude":63.36667,"longitude":16.58333},{"id":103034,"name":"Bergeforsen","latitude":62.53074,"longitude":17.38123},{"id":103051,"name":"Bjästa","latitude":63.2,"longitude":18.5},{"id":103069,"name":"Bollstabruk","latitude":62.99777,"longitude":17.67348},{"id":103084,"name":"Bredbyn","latitude":63.44655,"longitude":18.11019},{"id":103185,"name":"Fränsta","latitude":62.49855,"longitude":16.17016},{"id":103322,"name":"Härnösand","latitude":62.63228,"longitude":17.93794},{"id":103311,"name":"Husum","latitude":63.33333,"longitude":19.16667},{"id":103352,"name":"Johannedal","latitude":62.43424,"longitude":17.37273},{"id":103445,"name":"Köpmanholmen","latitude":63.16667,"longitude":18.56667},{"id":103411,"name":"Kramfors","latitude":62.93161,"longitude":17.77646},{"id":103434,"name":"Kvissleby","latitude":62.29361,"longitude":17.375},{"id":103502,"name":"Långsele","latitude":63.18333,"longitude":17.06667},{"id":103534,"name":"Matfors","latitude":62.34864,"longitude":17.03173},{"id":103574,"name":"Njurundabommen","latitude":62.26339,"longitude":17.38354},{"id":103575,"name":"Nolby","latitude":62.2875,"longitude":17.36917},{"id":104039,"name":"Örnsköldsvik","latitude":63.29091,"longitude":18.71525},{"id":103710,"name":"Skottsund","latitude":62.29056,"longitude":17.38694},{"id":103735,"name":"Sollefteå","latitude":63.16667,"longitude":17.26667},{"id":103833,"name":"Söråker","latitude":62.50561,"longitude":17.51032},{"id":103760,"name":"Stockvik","latitude":62.33667,"longitude":17.36583},{"id":103785,"name":"Sundsbruk","latitude":62.45806,"longitude":17.34889},{"id":103786,"name":"Sundsvall","latitude":62.39129,"longitude":17.3063},{"id":103850,"name":"Timrå","latitude":62.48654,"longitude":17.32613},{"id":103939,"name":"Vi","latitude":62.43333,"longitude":17.41667}]