[{"id":19158,"name":"Bonabéri","latitude":4.07142,"longitude":9.68177},{"id":19164,"name":"Diang","latitude":4.25,"longitude":10.01667},{"id":19165,"name":"Dibombari","latitude":4.1787,"longitude":9.6561},{"id":19167,"name":"Dizangué","latitude":3.76667,"longitude":9.98333},{"id":19169,"name":"Douala","latitude":4.04827,"longitude":9.70428},{"id":19172,"name":"Edéa","latitude":3.8,"longitude":10.13333},{"id":19198,"name":"Loum","latitude":4.7182,"longitude":9.7351},{"id":19201,"name":"Manjo","latitude":4.8428,"longitude":9.8217},{"id":19212,"name":"Mbanga","latitude":4.5016,"longitude":9.5671},{"id":19217,"name":"Melong","latitude":5.12181,"longitude":9.96143},{"id":19225,"name":"Mouanko","latitude":3.63972,"longitude":9.77694},{"id":19234,"name":"Ndom","latitude":4.4978,"longitude":9.5628},{"id":19235,"name":"Ngambé","latitude":4.23343,"longitude":10.61532},{"id":19242,"name":"Nkongsamba","latitude":4.9547,"longitude":9.9404},{"id":19250,"name":"Penja","latitude":4.63911,"longitude":9.67987},{"id":19264,"name":"Yabassi","latitude":4.45697,"longitude":9.96822}]