[{"id":64883,"name":"Ala-Buka","latitude":41.40806,"longitude":71.46306},{"id":64889,"name":"Bazar-Korgon","latitude":41.0376,"longitude":72.74586},{"id":64899,"name":"Jalal-Abad","latitude":40.93333,"longitude":73.0},{"id":64910,"name":"Kazarman","latitude":41.405,"longitude":74.037},{"id":64912,"name":"Kerben","latitude":41.49399,"longitude":71.75826},{"id":64913,"name":"Kochkor-Ata","latitude":41.03709,"longitude":72.4832},{"id":64924,"name":"Suzak","latitude":40.8982,"longitude":72.90481},{"id":64927,"name":"Tash-Kumyr","latitude":41.34612,"longitude":72.21707},{"id":64929,"name":"Toktogul","latitude":41.87442,"longitude":72.94192},{"id":64930,"name":"Toktogul District","latitude":41.75,"longitude":73.0}]