[{"id":31909,"name":"Abenójar","latitude":38.88032,"longitude":-4.35702},{"id":31956,"name":"Agudo","latitude":38.98183,"longitude":-4.87133},{"id":31997,"name":"Alamillo","latitude":38.67842,"longitude":-4.79008},{"id":32017,"name":"Albaladejo","latitude":38.61887,"longitude":-2.80784},{"id":32136,"name":"Alcázar de San Juan","latitude":39.39011,"longitude":-3.20827},{"id":32096,"name":"Alcoba","latitude":39.25988,"longitude":-4.47715},{"id":32104,"name":"Alcolea de Calatrava","latitude":38.9868,"longitude":-4.11597},{"id":32128,"name":"Alcubillas","latitude":38.75312,"longitude":-3.13407},{"id":32146,"name":"Aldea del Rey","latitude":38.7383,"longitude":-3.84017},{"id":32237,"name":"Alhambra","latitude":38.89925,"longitude":-3.05333},{"id":32261,"name":"Almadén","latitude":38.77541,"longitude":-4.83156},{"id":152013,"name":"Almadenejos","latitude":0.0,"longitude":0.0},{"id":32263,"name":"Almagro","latitude":38.88941,"longitude":-3.71131},{"id":32276,"name":"Almedina","latitude":38.62453,"longitude":-2.95382},{"id":32293,"name":"Almodóvar del Campo","latitude":38.70936,"longitude":-4.17908},{"id":152014,"name":"Almuradiel","latitude":0.0,"longitude":0.0},{"id":32369,"name":"Anchuras","latitude":39.48059,"longitude":-4.83381},{"id":152032,"name":"Arenales de San Gregorio","latitude":0.0,"longitude":0.0},{"id":32446,"name":"Arenas de San Juan","latitude":39.21861,"longitude":-3.50211},{"id":32460,"name":"Argamasilla de Alba","latitude":39.12917,"longitude":-3.09247},{"id":32461,"name":"Argamasilla de Calatrava","latitude":38.72985,"longitude":-4.07627},{"id":152015,"name":"Arroba de los Montes","latitude":0.0,"longitude":0.0},{"id":32624,"name":"Ballesteros de Calatrava","latitude":38.8346,"longitude":-3.9447},{"id":32935,"name":"Bolaños de Calatrava","latitude":38.9069,"longitude":-3.66345},{"id":32971,"name":"Brazatortas","latitude":38.65869,"longitude":-4.29368},{"id":33083,"name":"Cabezarados","latitude":38.84469,"longitude":-4.2983},{"id":152016,"name":"Cabezarrubias del Puerto","latitude":0.0,"longitude":0.0},{"id":152017,"name":"Calzada de Calatrava","latitude":0.0,"longitude":0.0},{"id":33202,"name":"Campo de Criptana","latitude":39.40463,"longitude":-3.12492},{"id":33529,"name":"Cañada de Calatrava","latitude":38.85429,"longitude":-4.02103},{"id":152018,"name":"Caracuel de Calatrava","latitude":0.0,"longitude":0.0},{"id":33331,"name":"Carrión de Calatrava","latitude":39.01897,"longitude":-3.81683},{"id":33330,"name":"Carrizosa","latitude":38.84204,"longitude":-2.9925},{"id":33418,"name":"Castellar de Santiago","latitude":38.53928,"longitude":-3.27573},{"id":152020,"name":"Chillón","latitude":0.0,"longitude":0.0},{"id":33697,"name":"Ciudad Real","latitude":38.98626,"longitude":-3.92907},{"id":33800,"name":"Corral de Calatrava","latitude":38.85793,"longitude":-4.0814},{"id":152019,"name":"Cortijos Los","latitude":0.0,"longitude":0.0},{"id":33905,"name":"Cózar","latitude":38.66219,"longitude":-3.07205},{"id":33909,"name":"Daimiel","latitude":39.07004,"longitude":-3.61498},{"id":152021,"name":"Fernán Caballero","latitude":0.0,"longitude":0.0},{"id":34212,"name":"Fontanarejo","latitude":39.22014,"longitude":-4.51753},{"id":34275,"name":"Fuencaliente","latitude":39.18624,"longitude":-4.02576},{"id":34285,"name":"Fuenllana","latitude":38.7559,"longitude":-2.95814},{"id":34300,"name":"Fuente el Fresno","latitude":39.22839,"longitude":-3.77487},{"id":152022,"name":"Granátula de Calatrava","latitude":0.0,"longitude":0.0},{"id":34525,"name":"Guadalmez","latitude":38.72665,"longitude":-4.97104},{"id":34581,"name":"Herencia","latitude":39.36616,"longitude":-3.35735},{"id":34629,"name":"Hinojosas de Calatrava","latitude":38.61446,"longitude":-4.13979},{"id":152023,"name":"Horcajo de los Montes","latitude":0.0,"longitude":0.0},{"id":152024,"name":"Labores Las","latitude":0.0,"longitude":0.0},{"id":152033,"name":"Llanos del Caudillo","latitude":0.0,"longitude":0.0},{"id":152025,"name":"Luciana","latitude":0.0,"longitude":0.0},{"id":35219,"name":"Malagón","latitude":39.16668,"longitude":-3.85419},{"id":35265,"name":"Manzanares","latitude":38.99915,"longitude":-3.36991},{"id":35395,"name":"Membrilla","latitude":38.97198,"longitude":-3.3433},{"id":35412,"name":"Mestanza","latitude":38.57616,"longitude":-4.07096},{"id":35424,"name":"Miguelturra","latitude":38.96442,"longitude":-3.89047},{"id":35575,"name":"Montiel","latitude":38.69802,"longitude":-2.86441},{"id":35597,"name":"Moral de Calatrava","latitude":38.82989,"longitude":-3.57813},{"id":35757,"name":"Navalpino","latitude":39.22573,"longitude":-4.59133},{"id":35778,"name":"Navas de Estena","latitude":39.49481,"longitude":-4.52155},{"id":36101,"name":"Pedro Muñoz","latitude":39.40285,"longitude":-2.94664},{"id":36179,"name":"Picón","latitude":39.05074,"longitude":-4.06084},{"id":36180,"name":"Piedrabuena","latitude":39.03536,"longitude":-4.17512},{"id":36254,"name":"Poblete","latitude":38.9355,"longitude":-3.98137},{"id":36301,"name":"Porzuna","latitude":39.14618,"longitude":-4.15407},{"id":36333,"name":"Pozuelo de Calatrava","latitude":38.58333,"longitude":-3.83333},{"id":152026,"name":"Pozuelos de Calatrava Los","latitude":0.0,"longitude":0.0},{"id":36416,"name":"Puebla de Don Rodrigo","latitude":39.08564,"longitude":-4.61966},{"id":36430,"name":"Puebla del Príncipe","latitude":38.56766,"longitude":-2.92605},{"id":36446,"name":"Puerto Lápice","latitude":39.3236,"longitude":-3.48148},{"id":36457,"name":"Puertollano","latitude":38.68712,"longitude":-4.10734},{"id":152027,"name":"Retuerta del Bullaque","latitude":0.0,"longitude":0.0},{"id":152031,"name":"Robledo El","latitude":0.0,"longitude":0.0},{"id":36703,"name":"Ruidera","latitude":38.97775,"longitude":-2.88321},{"id":36730,"name":"Saceruela","latitude":38.94382,"longitude":-4.60768},{"id":36813,"name":"San Carlos del Valle","latitude":38.84399,"longitude":-3.24148},{"id":36857,"name":"San Lorenzo de Calatrava","latitude":38.47681,"longitude":-3.82605},{"id":37043,"name":"Santa Cruz de los Cáñamos","latitude":38.63759,"longitude":-2.86618},{"id":37032,"name":"Santa Cruz de Mudela","latitude":38.64241,"longitude":-3.4665},{"id":37277,"name":"Socuéllamos","latitude":39.28581,"longitude":-2.79205},{"id":152029,"name":"Solana del Pino","latitude":0.0,"longitude":0.0},{"id":152028,"name":"Solana La","latitude":0.0,"longitude":0.0},{"id":37413,"name":"Terrinches","latitude":38.61057,"longitude":-2.84215},{"id":37450,"name":"Tomelloso","latitude":39.15759,"longitude":-3.02156},{"id":37480,"name":"Torralba de Calatrava","latitude":39.01785,"longitude":-3.75105},{"id":37493,"name":"Torre de Juan Abad","latitude":38.58417,"longitude":-3.05994},{"id":37567,"name":"Torrenueva","latitude":38.6396,"longitude":-3.36259},{"id":37766,"name":"Valdemanco del Esteras","latitude":38.93858,"longitude":-4.8292},{"id":37782,"name":"Valdepeñas","latitude":38.76211,"longitude":-3.38483},{"id":37824,"name":"Valenzuela de Calatrava","latitude":38.85254,"longitude":-3.7721},{"id":38082,"name":"Villahermosa","latitude":38.75023,"longitude":-2.87066},{"id":38130,"name":"Villamanrique","latitude":38.54636,"longitude":-2.99729},{"id":38140,"name":"Villamayor de Calatrava","latitude":38.78763,"longitude":-4.13774},{"id":38198,"name":"Villanueva de la Fuente","latitude":38.69463,"longitude":-2.69637},{"id":38188,"name":"Villanueva de San Carlos","latitude":38.62173,"longitude":-3.90903},{"id":38259,"name":"Villar del Pozo","latitude":38.8501,"longitude":-3.96405},{"id":38303,"name":"Villarrubia de los Ojos","latitude":39.22085,"longitude":-3.60802},{"id":38307,"name":"Villarta de San Juan","latitude":39.23785,"longitude":-3.42333},{"id":38398,"name":"Viso del Marqués","latitude":38.52208,"longitude":-3.56348}]