[{"id":68092,"name":"Adolfo López Mateos (El Tamarindo)","latitude":24.89639,"longitude":-107.63278},{"id":68094,"name":"Adolfo Ruiz Cortines","latitude":25.70275,"longitude":-108.71975},{"id":68109,"name":"Agua Caliente Grande (De Gastélum)","latitude":26.53762,"longitude":-108.34814},{"id":68117,"name":"Agua Verde","latitude":22.89259,"longitude":-105.97355},{"id":68131,"name":"Ahome","latitude":25.91985,"longitude":-109.1732},{"id":68192,"name":"Alfonso G. Calderón (Poblado Siete)","latitude":26.06528,"longitude":-109.01972},{"id":68193,"name":"Alfonso G. Calderón Velarde","latitude":25.78556,"longitude":-108.60222},{"id":68200,"name":"Alfredo V. Bonfil (Siete Ejidos)","latitude":25.64306,"longitude":-108.23333},{"id":68202,"name":"Alhuey","latitude":25.37806,"longitude":-108.13028},{"id":68225,"name":"Altata","latitude":24.63403,"longitude":-107.93101},{"id":68274,"name":"Angostura","latitude":25.36586,"longitude":-108.16107},{"id":68311,"name":"Apoderado","latitude":22.90867,"longitude":-105.92458},{"id":68478,"name":"Baburia","latitude":25.84289,"longitude":-108.20276},{"id":68488,"name":"Bachigualatito","latitude":24.71344,"longitude":-107.46938},{"id":68489,"name":"Bachoco","latitude":25.69687,"longitude":-108.81437},{"id":68490,"name":"Bachomobampo Número Dos","latitude":25.73888,"longitude":-109.14776},{"id":68493,"name":"Bacorehuis","latitude":26.31749,"longitude":-109.0851},{"id":68494,"name":"Bacubirito","latitude":25.80944,"longitude":-107.915},{"id":68495,"name":"Badiraguato","latitude":25.36525,"longitude":-107.55083},{"id":68496,"name":"Bagojo Colectivo","latitude":25.87417,"longitude":-109.11778},{"id":68509,"name":"Bamoa","latitude":25.70523,"longitude":-108.34614},{"id":68517,"name":"Bariometo","latitude":24.76695,"longitude":-107.66254},{"id":68561,"name":"Barrón","latitude":23.12322,"longitude":-106.2765},{"id":68580,"name":"Bellavista","latitude":24.81373,"longitude":-107.46188},{"id":68600,"name":"Benito Juárez","latitude":25.77373,"longitude":-109.03311},{"id":68604,"name":"Benito Juárez (Vinatería)","latitude":25.97376,"longitude":-108.87315},{"id":68658,"name":"Buen Retiro (El Retiro)","latitude":25.46194,"longitude":-108.47833},{"id":68711,"name":"Cacalotán","latitude":23.06779,"longitude":-105.84194},{"id":68720,"name":"Caimanero","latitude":25.60564,"longitude":-108.44247},{"id":68774,"name":"Campo Balbuena","latitude":24.74688,"longitude":-107.54975},{"id":68781,"name":"Campo la Arrocera","latitude":25.845,"longitude":-108.91833},{"id":68778,"name":"Campo Pesquero el Colorado","latitude":25.75828,"longitude":-109.3151},{"id":68835,"name":"Carricitos","latitude":25.97595,"longitude":-108.9313},{"id":68847,"name":"Casa Blanca","latitude":25.43036,"longitude":-108.42308},{"id":68700,"name":"CERESO Nuevo","latitude":25.89139,"longitude":-109.04222},{"id":68909,"name":"Cerrillos (Campo 35)","latitude":25.87806,"longitude":-108.90139},{"id":68920,"name":"Cerro Agudo","latitude":25.59796,"longitude":-107.9631},{"id":68941,"name":"Ceuta","latitude":23.90042,"longitude":-106.92847},{"id":68966,"name":"Chametla","latitude":22.8775,"longitude":-105.9575},{"id":68993,"name":"Charay","latitude":26.0214,"longitude":-108.8309},{"id":69057,"name":"Chihuahuita","latitude":26.15469,"longitude":-109.05496},{"id":69086,"name":"Chinobampo","latitude":26.39,"longitude":-108.3644},{"id":69100,"name":"Choix","latitude":26.70901,"longitude":-108.32545},{"id":69250,"name":"Cofradía de Navolato (Cofradía de los Rocha)","latitude":24.76806,"longitude":-107.64806},{"id":69266,"name":"Colonia 24 de Febrero","latitude":25.64722,"longitude":-108.64917},{"id":69275,"name":"Colonia Agrícola México (Palmitas)","latitude":25.10972,"longitude":-107.94472},{"id":69328,"name":"Colonia Michoacana","latitude":24.72476,"longitude":-107.63201},{"id":69431,"name":"Concentración 5 de Febrero","latitude":25.85639,"longitude":-108.62944},{"id":69444,"name":"Concordia","latitude":23.28694,"longitude":-106.06389},{"id":69460,"name":"Constancia","latitude":25.96219,"longitude":-108.89937},{"id":69479,"name":"Corerepe","latitude":25.62786,"longitude":-108.71488},{"id":69496,"name":"Cosalá","latitude":24.41501,"longitude":-106.69073},{"id":69506,"name":"Costa Azul","latitude":25.10183,"longitude":-108.13735},{"id":69525,"name":"Coyotitán","latitude":23.79416,"longitude":-106.6008},{"id":69534,"name":"Cristo Rey","latitude":22.58167,"longitude":-105.72444},{"id":69542,"name":"Cruz Blanca","latitude":25.6746,"longitude":-108.3709},{"id":69602,"name":"Cubiri de Portelas","latitude":25.78677,"longitude":-108.25966},{"id":69632,"name":"Culiacán","latitude":24.79032,"longitude":-107.38782},{"id":69631,"name":"Culiacancito","latitude":24.82538,"longitude":-107.53445},{"id":69668,"name":"Dautillos","latitude":24.72167,"longitude":-107.97528},{"id":69722,"name":"Dos de Abril","latitude":25.91116,"longitude":-108.94077},{"id":69759,"name":"Ejido Cajón Ojo de Agua Número Dos","latitude":22.9,"longitude":-105.97139},{"id":69760,"name":"Ejido Cinco de Mayo","latitude":25.85055,"longitude":-108.95932},{"id":69761,"name":"Ejido Cohuibampo","latitude":25.94094,"longitude":-109.1588},{"id":69775,"name":"Ejido Mayocoba","latitude":25.93824,"longitude":-109.2213},{"id":69781,"name":"Ejido Ohuira","latitude":25.71663,"longitude":-108.9785},{"id":69796,"name":"Ejido Tosalibampo","latitude":25.981,"longitude":-109.1127},{"id":69826,"name":"El Aguajito","latitude":25.95965,"longitude":-109.3297},{"id":69851,"name":"El Burrión","latitude":25.53878,"longitude":-108.41286},{"id":69885,"name":"El Carrizo","latitude":24.01416,"longitude":-106.85196},{"id":69888,"name":"El Castillo","latitude":24.54353,"longitude":-107.70364},{"id":69943,"name":"El Diez","latitude":24.72389,"longitude":-107.45194},{"id":69945,"name":"El Dorado","latitude":24.32283,"longitude":-107.36298},{"id":69970,"name":"El Fuerte","latitude":26.41686,"longitude":-108.61828},{"id":69978,"name":"El Guayabo","latitude":25.94132,"longitude":-109.1388},{"id":69979,"name":"El Habal","latitude":23.35014,"longitude":-106.41834},{"id":69984,"name":"El Higueral","latitude":24.31044,"longitude":-107.348},{"id":69985,"name":"El Huajote","latitude":23.12889,"longitude":-106.05889},{"id":69990,"name":"El Huitusi","latitude":25.50974,"longitude":-108.77875},{"id":70018,"name":"El Limón de los Ramos","latitude":24.91361,"longitude":-107.52333},{"id":70046,"name":"El Molino","latitude":24.57147,"longitude":-107.66483},{"id":70064,"name":"El Nio","latitude":25.62455,"longitude":-108.40029},{"id":70112,"name":"El Pochotal","latitude":25.99541,"longitude":-108.84355},{"id":70127,"name":"El Potrero de Sataya","latitude":24.69,"longitude":-107.70917},{"id":70130,"name":"El Pozole","latitude":22.91472,"longitude":-105.91333},{"id":70131,"name":"El Progreso","latitude":25.43104,"longitude":-108.59195},{"id":70142,"name":"El Quelite","latitude":23.55897,"longitude":-106.46738},{"id":70151,"name":"El Refugio","latitude":25.99619,"longitude":-109.2999},{"id":70166,"name":"El Roble","latitude":23.24556,"longitude":-106.20583},{"id":70176,"name":"El Rosario","latitude":24.25556,"longitude":-107.18278},{"id":70180,"name":"El Sabino","latitude":25.68325,"longitude":-108.39349},{"id":70184,"name":"El Saladito","latitude":23.86987,"longitude":-106.84784},{"id":70249,"name":"El Varal (San Sebastián Número Uno)","latitude":25.64278,"longitude":-108.425},{"id":70254,"name":"El Verde","latitude":23.36461,"longitude":-106.13514},{"id":70259,"name":"El Walamo","latitude":23.14009,"longitude":-106.245},{"id":70269,"name":"Eldorado","latitude":24.32444,"longitude":-107.36722},{"id":70270,"name":"Elota","latitude":24.03463,"longitude":-106.84491},{"id":70300,"name":"Empaque Tarriba","latitude":23.90028,"longitude":-106.93111},{"id":70318,"name":"Escamillas","latitude":23.27217,"longitude":-106.2467},{"id":70322,"name":"Escuinapa","latitude":22.83279,"longitude":-105.77772},{"id":70333,"name":"Estacion Bamoa","latitude":25.70842,"longitude":-108.31298},{"id":70335,"name":"Estación Capomas","latitude":25.60066,"longitude":-108.22333},{"id":70336,"name":"Estación Chimaneco","latitude":24.9543,"longitude":-107.74913},{"id":70348,"name":"Estación Obispo","latitude":24.29306,"longitude":-107.15944},{"id":70352,"name":"Estación Rosales","latitude":24.83719,"longitude":-107.58005},{"id":70393,"name":"Felipe Angeles","latitude":25.86763,"longitude":-109.0408},{"id":70403,"name":"Flor Azul","latitude":25.86987,"longitude":-109.00839},{"id":70459,"name":"Fraccionamiento los Ángeles","latitude":23.18833,"longitude":-106.33},{"id":70503,"name":"Gabriel Leyva Solano (Zapotillo Dos)","latitude":25.88306,"longitude":-109.00917},{"id":70504,"name":"Gabriel Leyva Velázquez","latitude":25.79111,"longitude":-108.56333},{"id":70517,"name":"Gambino","latitude":25.65168,"longitude":-108.3868},{"id":70524,"name":"Genaro Estrada","latitude":25.93611,"longitude":-108.39639},{"id":70547,"name":"General Ángel Flores (La Palma)","latitude":24.81917,"longitude":-107.65667},{"id":70557,"name":"Goros Número Dos","latitude":25.87694,"longitude":-109.04417},{"id":70600,"name":"Guadalupe Victoria","latitude":24.29933,"longitude":-107.27061},{"id":70615,"name":"Guamúchil","latitude":25.4587,"longitude":-108.07732},{"id":70620,"name":"Guasave","latitude":25.56745,"longitude":-108.46756},{"id":70621,"name":"Guasavito","latitude":25.55298,"longitude":-108.43501},{"id":70640,"name":"Gustavo Díaz Ordaz","latitude":25.26692,"longitude":-108.09486},{"id":70666,"name":"Heriberto Valdez Romero (El Guayabo)","latitude":25.94056,"longitude":-109.13722},{"id":70694,"name":"Higuera de los Vega","latitude":25.655,"longitude":-107.95778},{"id":70693,"name":"Higuera de Zaragoza","latitude":25.96892,"longitude":-109.3042},{"id":70695,"name":"Higueras de Abuya","latitude":24.26058,"longitude":-107.0709},{"id":70696,"name":"Higueras de los Natoches","latitude":25.95653,"longitude":-108.97741},{"id":70769,"name":"Huepaco","latitude":25.98417,"longitude":-108.86056},{"id":70887,"name":"Isla del Bosque","latitude":22.73306,"longitude":-105.84556},{"id":71016,"name":"Javier Rojo Gómez","latitude":25.49472,"longitude":-108.3775},{"id":71029,"name":"Jesús María","latitude":25.08897,"longitude":-107.4522},{"id":71060,"name":"Jitzamuri","latitude":26.21508,"longitude":-109.2633},{"id":71114,"name":"Juan Aldama (El Tigre)","latitude":24.93972,"longitude":-107.82083},{"id":71121,"name":"Juan José Ríos","latitude":25.75781,"longitude":-108.8242},{"id":71186,"name":"La Brecha","latitude":25.37078,"longitude":-108.41922},{"id":71230,"name":"La Concepción","latitude":23.3945,"longitude":-106.1689},{"id":71241,"name":"La Concha (La Concepción)","latitude":22.5325,"longitude":-105.4525},{"id":71250,"name":"La Cruz","latitude":23.92126,"longitude":-106.8925},{"id":71259,"name":"La Despensa","latitude":25.99137,"longitude":-109.27274},{"id":71274,"name":"La Esperanza","latitude":25.34872,"longitude":-108.18678},{"id":71367,"name":"La Loma (La Loma de Quila)","latitude":24.38061,"longitude":-107.22649},{"id":71405,"name":"La Noria","latitude":25.70909,"longitude":-108.49185},{"id":71408,"name":"La Noria de San Antonio","latitude":23.50653,"longitude":-106.31459},{"id":71424,"name":"La Palma","latitude":25.38286,"longitude":-108.15909},{"id":71430,"name":"La Palmita y Anexos (La Presita)","latitude":24.90917,"longitude":-107.45194},{"id":71458,"name":"La Presita","latitude":25.70734,"longitude":-108.58523},{"id":71475,"name":"La Reforma","latitude":25.08164,"longitude":-108.05673},{"id":71509,"name":"La Trinidad","latitude":25.73367,"longitude":-108.48409},{"id":71543,"name":"Ladrilleras de Ocoro","latitude":25.59806,"longitude":-108.44944},{"id":71572,"name":"Las Aguamitas","latitude":24.57556,"longitude":-107.80056},{"id":71575,"name":"Las Arenitas","latitude":24.37245,"longitude":-107.53612},{"id":71580,"name":"Las Brisas","latitude":25.49022,"longitude":-108.24587},{"id":71592,"name":"Las Compuertas","latitude":25.84202,"longitude":-109.0198},{"id":71600,"name":"Las Grullas Margen Derecha","latitude":25.8777,"longitude":-109.33773},{"id":71601,"name":"Las Grullas Margen Izquierda","latitude":25.85306,"longitude":-109.32917},{"id":71625,"name":"Las Moras","latitude":25.65745,"longitude":-108.45807},{"id":71635,"name":"Las Quemazones","latitude":25.68583,"longitude":-108.45243},{"id":71892,"name":"Lázaro Cárdenas","latitude":26.04918,"longitude":-108.79858},{"id":71665,"name":"Leyva Solano","latitude":25.66163,"longitude":-108.637},{"id":71675,"name":"Licenciado Benito Juárez (Campo Gobierno)","latitude":24.65667,"longitude":-107.545},{"id":71686,"name":"Llano Grande","latitude":25.75187,"longitude":-108.08636},{"id":71700,"name":"Lo de Jesús (Campo Romero)","latitude":24.68,"longitude":-107.54556},{"id":71770,"name":"Los Angeles","latitude":25.60289,"longitude":-108.48095},{"id":71816,"name":"Los Mochis","latitude":25.79302,"longitude":-108.99808},{"id":71837,"name":"Los Pozos","latitude":23.00944,"longitude":-106.1525},{"id":71902,"name":"Macapule","latitude":25.88607,"longitude":-109.1482},{"id":71988,"name":"Marcol","latitude":25.49445,"longitude":-108.51586},{"id":71994,"name":"Maripa","latitude":25.86371,"longitude":-108.15737},{"id":72047,"name":"Mazatlán","latitude":23.2329,"longitude":-106.4062},{"id":72068,"name":"Melchor Ocampo","latitude":25.04699,"longitude":-107.89463},{"id":72083,"name":"Mesillas","latitude":23.24652,"longitude":-106.04783},{"id":72136,"name":"Miguel Valdez Quintero (El Corazón)","latitude":24.49417,"longitude":-107.31778},{"id":72171,"name":"Mochicahui","latitude":25.95095,"longitude":-108.92991},{"id":72172,"name":"Mochis","latitude":25.8272,"longitude":-109.0512},{"id":72176,"name":"Mocorito","latitude":25.48202,"longitude":-107.92008},{"id":72282,"name":"Naranjo","latitude":25.80633,"longitude":-108.48127},{"id":72298,"name":"Navolato","latitude":24.7661,"longitude":-107.70225},{"id":72412,"name":"Nuevo San Miguel","latitude":25.96306,"longitude":-109.05401},{"id":72493,"name":"Ojo de Agua de Palmillas","latitude":22.61972,"longitude":-105.60389},{"id":72516,"name":"Orba (Infiernito)","latitude":25.68944,"longitude":-108.36278},{"id":72533,"name":"Oso Viejo","latitude":24.39944,"longitude":-107.17139},{"id":72603,"name":"Palmito del Verde","latitude":22.65861,"longitude":-105.77111},{"id":72617,"name":"Palos Verdes","latitude":25.37937,"longitude":-108.45831},{"id":72733,"name":"Pericos","latitude":25.08093,"longitude":-107.69966},{"id":72757,"name":"Piaxtla de Abajo","latitude":23.83254,"longitude":-106.65923},{"id":72789,"name":"Pitahayal","latitude":25.47076,"longitude":-108.36818},{"id":72801,"name":"Plan de Ayala (Campo Cinco)","latitude":25.7691,"longitude":-109.04121},{"id":72828,"name":"Poblado Número Cinco","latitude":26.2225,"longitude":-109.06167},{"id":72853,"name":"Portaceli","latitude":24.34809,"longitude":-107.30594},{"id":72857,"name":"Portugués de Gálvez","latitude":25.7278,"longitude":-108.39572},{"id":72863,"name":"Potrerillo del Norote","latitude":24.02143,"longitude":-106.97397},{"id":72866,"name":"Potrero de los Sánchez (Estación Techa)","latitude":25.11,"longitude":-107.90111},{"id":72901,"name":"Primero de Mayo","latitude":25.73942,"longitude":-108.93491},{"id":72942,"name":"Pueblo Nuevo","latitude":23.99111,"longitude":-106.95639},{"id":72950,"name":"Pueblo Viejo","latitude":25.61413,"longitude":-108.41581},{"id":72954,"name":"Pueblos Unidos","latitude":24.2925,"longitude":-107.15139},{"id":73031,"name":"Quila","latitude":24.42362,"longitude":-107.22186},{"id":73054,"name":"Ranchito de Castro","latitude":25.58688,"longitude":-108.41767},{"id":73092,"name":"Recoveco","latitude":24.99356,"longitude":-107.72796},{"id":73110,"name":"Ricardo Flores Magón","latitude":25.74056,"longitude":-108.99583},{"id":73208,"name":"Salado","latitude":24.50775,"longitude":-107.15872},{"id":73444,"name":"San Blas","latitude":26.08019,"longitude":-108.7611},{"id":73488,"name":"San Diego","latitude":24.3825,"longitude":-107.33135},{"id":73614,"name":"San Francisco de Tacuichamona","latitude":24.3616,"longitude":-107.0763},{"id":73647,"name":"San Ignacio","latitude":23.94105,"longitude":-106.42467},{"id":73669,"name":"San Isidro","latitude":25.97722,"longitude":-109.25111},{"id":74225,"name":"San Miguel Zapotitlan","latitude":25.94831,"longitude":-109.04738},{"id":74337,"name":"San Pedro Guasave","latitude":25.53809,"longitude":-108.45673},{"id":74428,"name":"San Rafael","latitude":25.4939,"longitude":-108.30527},{"id":74514,"name":"Sanalona","latitude":24.80222,"longitude":-107.14},{"id":75090,"name":"Sinaloa","latitude":25.94103,"longitude":-108.09076},{"id":75091,"name":"Sinaloa de Leyva","latitude":25.8219,"longitude":-108.22261},{"id":75096,"name":"Siqueros","latitude":23.34177,"longitude":-106.24124},{"id":75179,"name":"Tamazula","latitude":25.44639,"longitude":-108.45528},{"id":75216,"name":"Tanques","latitude":24.06349,"longitude":-107.0136},{"id":75247,"name":"Taxtes","latitude":25.91625,"longitude":-108.93545},{"id":75255,"name":"Teacapan","latitude":22.53959,"longitude":-105.73623},{"id":75290,"name":"Tecualilla","latitude":22.76667,"longitude":-105.67167},{"id":75746,"name":"Topolobampo","latitude":25.60084,"longitude":-109.0523},{"id":75773,"name":"Tres Garantías","latitude":25.88567,"longitude":-108.71837},{"id":75932,"name":"Vallejo (Porvenir Vallejo)","latitude":25.88278,"longitude":-109.07361},{"id":76062,"name":"Villa de Costa Rica","latitude":24.59167,"longitude":-107.38836},{"id":76023,"name":"Villa Juárez","latitude":24.65869,"longitude":-107.54059},{"id":76052,"name":"Villa Unión","latitude":23.18992,"longitude":-106.21947}]