[{"id":80562,"name":"Ascope","latitude":-7.71444,"longitude":-79.10778},{"id":80595,"name":"Cascas","latitude":-7.48333,"longitude":-78.81667},{"id":80609,"name":"Chepen","latitude":-7.14367,"longitude":-79.45674},{"id":80611,"name":"Chicama","latitude":-7.84472,"longitude":-79.14694},{"id":80620,"name":"Chocope","latitude":-7.79139,"longitude":-79.22167},{"id":80643,"name":"Gran Chimu","latitude":-7.57976,"longitude":-78.64718},{"id":80644,"name":"Guadalupe","latitude":-7.25,"longitude":-79.48333},{"id":80649,"name":"Huamachuco","latitude":-7.8,"longitude":-78.06667},{"id":80682,"name":"Julcan","latitude":-8.17238,"longitude":-78.46356},{"id":80697,"name":"Laredo","latitude":-8.08965,"longitude":-78.9602},{"id":80715,"name":"Moche","latitude":-8.17111,"longitude":-79.00917},{"id":80736,"name":"Otuzco","latitude":-7.9,"longitude":-78.58333},{"id":80741,"name":"Pacanga","latitude":-7.16667,"longitude":-79.5},{"id":80742,"name":"Pacasmayo","latitude":-7.40056,"longitude":-79.57139},{"id":80745,"name":"Paiján","latitude":-7.73291,"longitude":-79.3015},{"id":80783,"name":"Provincia de Bolívar","latitude":-7.33333,"longitude":-77.75},{"id":80866,"name":"Provincia de Otuzco","latitude":-7.90457,"longitude":-78.56362},{"id":80868,"name":"Provincia de Pacasmayo","latitude":-7.25,"longitude":-79.5},{"id":80876,"name":"Provincia de Pataz","latitude":-8.25,"longitude":-77.33333},{"id":80892,"name":"Provincia de Santiago de Chuco","latitude":-8.33333,"longitude":-78.25},{"id":80904,"name":"Provincia de Trujillo","latitude":-8.08333,"longitude":-78.91667},{"id":80915,"name":"Pueblo Nuevo","latitude":-7.18806,"longitude":-79.51528},{"id":80931,"name":"Quiruvilca","latitude":-7.96667,"longitude":-78.2},{"id":80936,"name":"Salaverry","latitude":-8.221,"longitude":-78.97698},{"id":80955,"name":"San Pedro de Lloc","latitude":-7.4289,"longitude":-79.50416},{"id":80959,"name":"Sanchez Carrion","latitude":-7.78538,"longitude":-77.92586},{"id":80965,"name":"Santiago de Cao","latitude":-7.95889,"longitude":-79.23917},{"id":80966,"name":"Santiago de Chuco","latitude":-8.14099,"longitude":-78.17329},{"id":80998,"name":"Trujillo","latitude":-8.11599,"longitude":-79.02998},{"id":81010,"name":"Viru","latitude":-8.52199,"longitude":-78.60355}]