[{"id":65965,"name":"Anse La Raye","latitude":13.94619,"longitude":-61.03879},{"id":65969,"name":"Au Tabor","latitude":13.9454,"longitude":-61.04112},{"id":65970,"name":"Au Tabor Hill","latitude":13.94457,"longitude":-61.03559},{"id":66019,"name":"Bois D'Inde","latitude":13.94148,"longitude":-61.00966},{"id":66037,"name":"Caico/Millet","latitude":13.91948,"longitude":-60.99264},{"id":66040,"name":"Canaries","latitude":13.90224,"longitude":-61.06459},{"id":66064,"name":"Champen Estate","latitude":13.93575,"longitude":-61.02991},{"id":66112,"name":"Derriere Lagoon","latitude":13.94168,"longitude":-61.01891},{"id":66128,"name":"Durandeau","latitude":13.92277,"longitude":-60.99512},{"id":66132,"name":"Enbar Pwin","latitude":13.91175,"longitude":-60.99266},{"id":66198,"name":"Jacmel","latitude":13.94796,"longitude":-61.01297},{"id":66200,"name":"Jean Baptiste","latitude":13.94704,"longitude":-61.01578},{"id":66231,"name":"La Trielle","latitude":13.94014,"longitude":-60.99729},{"id":66260,"name":"Massacre","latitude":13.94872,"longitude":-61.03544},{"id":66266,"name":"Millet","latitude":13.90985,"longitude":-60.98884},{"id":66294,"name":"Morne Ciseaux","latitude":13.93597,"longitude":-61.0033},{"id":66296,"name":"Morne D'Or","latitude":13.94931,"longitude":-61.00601},{"id":66365,"name":"Roseau Valley","latitude":13.95317,"longitude":-61.02676},{"id":66381,"name":"St Lawrence","latitude":13.93852,"longitude":-61.02503},{"id":66382,"name":"St Lawrence Estate","latitude":13.94236,"longitude":-61.04248},{"id":66392,"name":"Tete Chemin","latitude":13.89092,"longitude":-60.99785},{"id":66416,"name":"Vanard","latitude":13.93558,"longitude":-60.99363},{"id":66417,"name":"Venus","latitude":13.91558,"longitude":-61.01676},{"id":66427,"name":"Village","latitude":13.93939,"longitude":-61.0415},{"id":66429,"name":"Village/Petite Bourgh","latitude":13.93801,"longitude":-61.04184}]