[{"id":9254,"name":"Anton","latitude":42.75,"longitude":24.28333},{"id":9282,"name":"Botevgrad","latitude":42.9,"longitude":23.78333},{"id":9285,"name":"Bozhurishte","latitude":42.75,"longitude":23.2},{"id":9296,"name":"Chavdar","latitude":42.65,"longitude":24.05},{"id":9297,"name":"Chelopech","latitude":42.7,"longitude":24.08333},{"id":9311,"name":"Dolna Banya","latitude":42.3,"longitude":23.76667},{"id":9316,"name":"Dragoman","latitude":42.92191,"longitude":22.93109},{"id":9326,"name":"Elin Pelin","latitude":42.66667,"longitude":23.6},{"id":9327,"name":"Etropole","latitude":42.83333,"longitude":24.0},{"id":9332,"name":"Godech","latitude":43.01682,"longitude":23.04852},{"id":9333,"name":"Gorna Malina","latitude":42.68333,"longitude":23.7},{"id":9346,"name":"Ihtiman","latitude":42.43333,"longitude":23.81667},{"id":9369,"name":"Koprivshtitsa","latitude":42.63333,"longitude":24.35},{"id":9370,"name":"Kostinbrod","latitude":42.81667,"longitude":23.21667},{"id":9382,"name":"Lakatnik","latitude":43.05,"longitude":23.4},{"id":9402,"name":"Mirkovo","latitude":42.7,"longitude":23.98333},{"id":9414,"name":"Obshtina Anton","latitude":42.76667,"longitude":24.3},{"id":9436,"name":"Obshtina Botevgrad","latitude":42.95,"longitude":23.75},{"id":9439,"name":"Obshtina Bozhurishte","latitude":42.78333,"longitude":23.11667},{"id":9445,"name":"Obshtina Chavdar","latitude":42.61667,"longitude":24.08333},{"id":9446,"name":"Obshtina Chelopech","latitude":42.71667,"longitude":24.06667},{"id":9459,"name":"Obshtina Dolna Banya","latitude":42.3,"longitude":23.76667},{"id":9464,"name":"Obshtina Dragoman","latitude":42.93333,"longitude":22.93333},{"id":9472,"name":"Obshtina Elin Pelin","latitude":42.66667,"longitude":23.6},{"id":9473,"name":"Obshtina Etropole","latitude":42.85,"longitude":24.03333},{"id":9480,"name":"Obshtina Gorna Malina","latitude":42.71667,"longitude":23.8},{"id":9505,"name":"Obshtina Koprivshtitsa","latitude":42.61667,"longitude":24.38333},{"id":9506,"name":"Obshtina Kostenets","latitude":42.3,"longitude":23.86667},{"id":9507,"name":"Obshtina Kostinbrod","latitude":42.88333,"longitude":23.2},{"id":9533,"name":"Obshtina Mirkovo","latitude":42.66667,"longitude":23.96667},{"id":9556,"name":"Obshtina Pirdop","latitude":42.7,"longitude":24.23333},{"id":9563,"name":"Obshtina Pravets","latitude":42.96667,"longitude":23.98333},{"id":9580,"name":"Obshtina Samokov","latitude":42.33333,"longitude":23.55},{"id":9592,"name":"Obshtina Slivnitsa","latitude":42.85,"longitude":22.98333},{"id":9609,"name":"Obshtina Svoge","latitude":43.0,"longitude":23.4},{"id":9638,"name":"Obshtina Zlatitsa","latitude":42.7,"longitude":24.13333},{"id":9654,"name":"Pirdop","latitude":42.7,"longitude":24.18333},{"id":9661,"name":"Pravets","latitude":42.88333,"longitude":23.91667},{"id":9679,"name":"Samokov","latitude":42.337,"longitude":23.5528},{"id":9698,"name":"Slivnitsa","latitude":42.85182,"longitude":23.03792},{"id":9718,"name":"Svoge","latitude":42.96667,"longitude":23.35},{"id":9750,"name":"Zlatitsa","latitude":42.71667,"longitude":24.13333}]