[{"id":107179,"name":"Ardahan","latitude":41.10871,"longitude":42.70222},{"id":108853,"name":"Çıldır İlçesi","latitude":41.13783,"longitude":43.14169},{"id":107444,"name":"Damal","latitude":41.34145,"longitude":42.8368},{"id":107692,"name":"Göle","latitude":40.78746,"longitude":42.60603},{"id":107788,"name":"Hanak","latitude":41.23344,"longitude":42.84037},{"id":108347,"name":"Posof","latitude":41.51111,"longitude":42.72917}]