[{"id":106848,"name":"Iliomar","latitude":-8.70917,"longitude":126.82833},{"id":106853,"name":"Lautem","latitude":-8.36514,"longitude":126.90389},{"id":106857,"name":"Lospalos","latitude":-8.52167,"longitude":126.99833},{"id":106858,"name":"Luro","latitude":-8.54359,"longitude":126.83003},{"id":106874,"name":"Tutuala","latitude":-8.39597,"longitude":127.25923}]