[{"id":63224,"name":"Aizu-wakamatsu Shi","latitude":37.45071,"longitude":139.96814},{"id":63323,"name":"Date-shi","latitude":37.81667,"longitude":140.51667},{"id":63370,"name":"Fukushima","latitude":37.75,"longitude":140.46667},{"id":63371,"name":"Fukushima Shi","latitude":37.78643,"longitude":140.38849},{"id":63377,"name":"Funehikimachi-funehiki","latitude":37.44722,"longitude":140.5771},{"id":63513,"name":"Hobaramachi","latitude":37.81667,"longitude":140.55},{"id":63572,"name":"Inawashiro","latitude":37.56667,"longitude":140.11667},{"id":63597,"name":"Ishikawa","latitude":37.15,"longitude":140.45},{"id":63621,"name":"Iwaki","latitude":37.05,"longitude":140.88333},{"id":63622,"name":"Iwaki-shi","latitude":37.08333,"longitude":140.83333},{"id":63806,"name":"Kitakata","latitude":37.65,"longitude":139.86667},{"id":63807,"name":"Kitakata-shi","latitude":37.68333,"longitude":139.9},{"id":63899,"name":"Kōriyama","latitude":37.4,"longitude":140.38333},{"id":63900,"name":"Kōriyama Shi","latitude":37.41277,"longitude":140.29507},{"id":63950,"name":"Miharu","latitude":37.43333,"longitude":140.48333},{"id":63962,"name":"Minami-Sōma","latitude":37.62908,"longitude":140.97868},{"id":63971,"name":"Minamisōma Shi","latitude":37.63108,"longitude":140.92852},{"id":64039,"name":"Motomiya","latitude":37.51391,"longitude":140.40063},{"id":64040,"name":"Motomiya-shi","latitude":37.51218,"longitude":140.39841},{"id":64097,"name":"Namie","latitude":37.48333,"longitude":141.0},{"id":64127,"name":"Nihommatsu","latitude":37.58333,"longitude":140.43333},{"id":64128,"name":"Nihonmatsu Shi","latitude":37.58402,"longitude":140.49543},{"id":64353,"name":"Shirakawa Shi","latitude":37.12225,"longitude":140.24963},{"id":64402,"name":"Sōma","latitude":37.79283,"longitude":140.92941},{"id":64403,"name":"Sōma Shi","latitude":37.78193,"longitude":140.87321},{"id":64381,"name":"Sukagawa","latitude":37.28333,"longitude":140.38333},{"id":64382,"name":"Sukagawa Shi","latitude":37.29342,"longitude":140.31691},{"id":64461,"name":"Tamura","latitude":37.43055,"longitude":140.60335},{"id":64462,"name":"Tamura-shi","latitude":37.43793,"longitude":140.57384},{"id":64652,"name":"Yanagawamachi-saiwaichō","latitude":37.85,"longitude":140.6}]