[{"id":38723,"name":"Ādīs ‘Alem","latitude":9.03333,"longitude":38.4},{"id":38724,"name":"Āgaro","latitude":7.85,"longitude":36.65},{"id":38594,"name":"Arsi Zone","latitude":7.5,"longitude":39.5},{"id":38726,"name":"Āsasa","latitude":7.1,"longitude":39.2},{"id":38727,"name":"Āsbe Teferī","latitude":9.08569,"longitude":40.86708},{"id":38601,"name":"Bedelē","latitude":8.456,"longitude":36.35302},{"id":38602,"name":"Bedēsa","latitude":8.9,"longitude":40.78333},{"id":38605,"name":"Bishoftu","latitude":8.75225,"longitude":38.97846},{"id":38617,"name":"Deder","latitude":9.31168,"longitude":41.44301},{"id":38620,"name":"Dembī Dolo","latitude":8.53333,"longitude":34.8},{"id":38623,"name":"Dodola","latitude":6.98333,"longitude":39.18333},{"id":38626,"name":"East Harerghe Zone","latitude":8.70114,"longitude":42.00241},{"id":38627,"name":"East Shewa Zone","latitude":8.21353,"longitude":38.84809},{"id":38628,"name":"East Wellega Zone","latitude":9.51928,"longitude":36.75762},{"id":38630,"name":"Fichē","latitude":9.8,"longitude":38.73333},{"id":38633,"name":"Gebre Guracha","latitude":9.8,"longitude":38.4},{"id":38646,"name":"Gēdo","latitude":9.01667,"longitude":37.45},{"id":38635,"name":"Gelemso","latitude":8.81667,"longitude":40.51667},{"id":38636,"name":"Genet","latitude":9.06667,"longitude":38.5},{"id":38638,"name":"Gimbi","latitude":9.17031,"longitude":35.83491},{"id":38639,"name":"Ginir","latitude":7.13952,"longitude":40.71083},{"id":38640,"name":"Goba","latitude":7.01667,"longitude":39.98333},{"id":38643,"name":"Gorē","latitude":8.15,"longitude":35.53333},{"id":38644,"name":"Guji Zone","latitude":5.588,"longitude":39.067},{"id":38654,"name":"Hāgere Hiywet","latitude":8.98333,"longitude":37.85},{"id":38649,"name":"Hagere Maryam","latitude":5.63418,"longitude":38.23603},{"id":38656,"name":"Hīrna","latitude":9.21667,"longitude":41.1},{"id":38653,"name":"Huruta","latitude":8.15,"longitude":39.35},{"id":38657,"name":"Illubabor Zone","latitude":8.27526,"longitude":35.75596},{"id":38660,"name":"Jimma","latitude":7.67344,"longitude":36.83441},{"id":38661,"name":"Jimma Zone","latitude":7.66667,"longitude":37.0},{"id":38665,"name":"Kibre Mengist","latitude":5.88333,"longitude":38.98333},{"id":38666,"name":"Kofelē","latitude":7.06667,"longitude":38.78333},{"id":38682,"name":"Mēga","latitude":4.05,"longitude":38.3},{"id":38677,"name":"Mendī","latitude":9.8,"longitude":35.1},{"id":38678,"name":"Metahāra","latitude":8.9,"longitude":39.91667},{"id":38680,"name":"Metu","latitude":8.3,"longitude":35.58333},{"id":38681,"name":"Mojo","latitude":8.58679,"longitude":39.12111},{"id":38684,"name":"Nazrēt","latitude":8.55,"longitude":39.26667},{"id":38685,"name":"Nejo","latitude":9.5,"longitude":35.5},{"id":38687,"name":"North Shewa Zone","latitude":9.66915,"longitude":38.8124},{"id":38690,"name":"Sebeta","latitude":8.91667,"longitude":38.61667},{"id":38692,"name":"Sendafa","latitude":9.15203,"longitude":39.02335},{"id":38693,"name":"Shakiso","latitude":5.76494,"longitude":38.91006},{"id":38694,"name":"Shambu","latitude":9.56667,"longitude":37.1},{"id":38695,"name":"Shashemenē","latitude":7.2,"longitude":38.6},{"id":38699,"name":"Sirre","latitude":8.31667,"longitude":39.48333},{"id":38706,"name":"Tulu Bolo","latitude":8.66667,"longitude":38.21667},{"id":38709,"name":"Waliso","latitude":8.53417,"longitude":37.96515},{"id":38711,"name":"Wenjī","latitude":8.45,"longitude":39.28333},{"id":38714,"name":"West Harerghe Zone","latitude":8.67245,"longitude":40.84885},{"id":38715,"name":"West Wellega Zone","latitude":9.17283,"longitude":35.05279},{"id":38717,"name":"Yabēlo","latitude":4.88333,"longitude":38.08333},{"id":38720,"name":"Ziway","latitude":7.93333,"longitude":38.71667}]