[{"id":21822,"name":"Caibarién","latitude":22.51996,"longitude":-79.46599},{"id":21823,"name":"Calabazar de Sagua","latitude":22.64515,"longitude":-79.8951},{"id":21826,"name":"Camajuaní","latitude":22.48333,"longitude":-79.75},{"id":21835,"name":"Cifuentes","latitude":22.6493,"longitude":-80.04935},{"id":21842,"name":"Corralillo","latitude":22.98212,"longitude":-80.58556},{"id":21850,"name":"Encrucijada","latitude":22.61802,"longitude":-79.86603},{"id":21852,"name":"Esperanza","latitude":22.4468,"longitude":-80.09711},{"id":21869,"name":"Isabela de Sagua","latitude":22.93924,"longitude":-80.01185},{"id":21892,"name":"Manicaragua","latitude":22.15021,"longitude":-79.97867},{"id":21930,"name":"Municipio de Placetas","latitude":22.22248,"longitude":-79.74268},{"id":21933,"name":"Municipio de Santa Clara","latitude":22.4,"longitude":-79.96667},{"id":21944,"name":"Placetas","latitude":22.31184,"longitude":-79.6544},{"id":21948,"name":"Quemado de Güines","latitude":22.78816,"longitude":-80.25226},{"id":21950,"name":"Rancho Veloz","latitude":22.88042,"longitude":-80.39098},{"id":21951,"name":"Ranchuelo","latitude":22.37266,"longitude":-80.15046},{"id":21957,"name":"Sagua la Grande","latitude":22.80667,"longitude":-80.07556},{"id":21969,"name":"Santa Clara","latitude":22.40694,"longitude":-79.96472},{"id":21974,"name":"Santo Domingo","latitude":22.58677,"longitude":-80.24261}]