[{"id":130266,"name":"Huyện Cái Bè","latitude":10.38824,"longitude":105.9462},{"id":130241,"name":"Huyện Cai Lậy","latitude":10.38943,"longitude":106.06774},{"id":130252,"name":"Huyện Châu Thành","latitude":10.386,"longitude":106.27311},{"id":130260,"name":"Huyện Chợ Gạo","latitude":10.37373,"longitude":106.44341},{"id":130293,"name":"Huyện Gò Công Đông","latitude":10.36784,"longitude":106.74592},{"id":130292,"name":"Huyện Gò Công Tây","latitude":10.34527,"longitude":106.59851},{"id":130486,"name":"Huyện Tân Phước","latitude":10.51489,"longitude":106.23312},{"id":130574,"name":"Mỹ Tho","latitude":10.36004,"longitude":106.35996},{"id":130599,"name":"Thành Phố Mỹ Tho","latitude":10.36221,"longitude":106.36824},{"id":130610,"name":"Thị Xã Gò Công","latitude":10.40005,"longitude":106.65847}]