[{"id":23978,"name":"Beckingen","latitude":49.4,"longitude":6.7},{"id":24094,"name":"Bexbach","latitude":49.34615,"longitude":7.25527},{"id":24182,"name":"Blieskastel","latitude":49.23724,"longitude":7.25617},{"id":24264,"name":"Bous","latitude":49.27732,"longitude":6.80131},{"id":24336,"name":"Britten","latitude":49.52061,"longitude":6.67651},{"id":24690,"name":"Dillingen","latitude":49.35557,"longitude":6.72781},{"id":25014,"name":"Ensdorf","latitude":49.3,"longitude":6.78333},{"id":25018,"name":"Eppelborn","latitude":49.4,"longitude":6.96667},{"id":25250,"name":"Freisen","latitude":49.55,"longitude":7.25},{"id":25294,"name":"Friedrichsthal","latitude":49.32786,"longitude":7.09622},{"id":25332,"name":"Fürstenhausen","latitude":49.24075,"longitude":6.86817},{"id":25460,"name":"Gersheim","latitude":49.15,"longitude":7.2},{"id":25701,"name":"Großrosseln","latitude":49.20296,"longitude":6.84148},{"id":25887,"name":"Hangard","latitude":49.3826,"longitude":7.21046},{"id":25990,"name":"Heidstock","latitude":49.25571,"longitude":6.88156},{"id":26125,"name":"Heusweiler","latitude":49.33632,"longitude":6.93036},{"id":26252,"name":"Homburg","latitude":49.32637,"longitude":7.33867},{"id":26369,"name":"Illingen","latitude":49.37362,"longitude":7.04758},{"id":26641,"name":"Kirkel","latitude":49.28333,"longitude":7.23333},{"id":26669,"name":"Kleinblittersdorf","latitude":49.1578,"longitude":7.03734},{"id":26994,"name":"Lebach","latitude":49.41122,"longitude":6.90988},{"id":27151,"name":"Losheim","latitude":49.5099,"longitude":6.74549},{"id":27162,"name":"Ludweiler-Warndt","latitude":49.22074,"longitude":6.81195},{"id":27173,"name":"Luisenthal","latitude":49.24932,"longitude":6.90057},{"id":27245,"name":"Mainzweiler","latitude":49.41714,"longitude":7.11804},{"id":27323,"name":"Marpingen","latitude":49.45228,"longitude":7.0582},{"id":27415,"name":"Merchweiler","latitude":49.35,"longitude":7.05},{"id":27430,"name":"Merzig","latitude":49.44331,"longitude":6.63874},{"id":27442,"name":"Mettlach","latitude":49.49489,"longitude":6.58562},{"id":27639,"name":"Nalbach","latitude":49.38333,"longitude":6.78333},{"id":27640,"name":"Namborn","latitude":49.52166,"longitude":7.1407},{"id":27780,"name":"Neunkirchen","latitude":49.34449,"longitude":7.18045},{"id":27907,"name":"Nohfelden","latitude":49.58693,"longitude":7.14283},{"id":27910,"name":"Nonnweiler","latitude":49.60762,"longitude":6.96986},{"id":28046,"name":"Oberthal","latitude":49.51257,"longitude":7.08382},{"id":28128,"name":"Orscholz","latitude":49.50593,"longitude":6.52502},{"id":28197,"name":"Ottweiler","latitude":49.40133,"longitude":7.16424},{"id":28423,"name":"Püttlingen","latitude":49.2855,"longitude":6.88723},{"id":28433,"name":"Quierschied","latitude":49.31667,"longitude":7.05},{"id":28639,"name":"Riegelsberg","latitude":49.3,"longitude":6.93333},{"id":28775,"name":"Röchling-Höhe","latitude":49.27102,"longitude":6.83457},{"id":28816,"name":"Saarbrücken","latitude":49.23262,"longitude":7.00982},{"id":28818,"name":"Saarhölzbach","latitude":49.51585,"longitude":6.60742},{"id":28819,"name":"Saarlouis","latitude":49.31366,"longitude":6.75154},{"id":28820,"name":"Saarwellingen","latitude":49.3543,"longitude":6.80487},{"id":28869,"name":"Sankt Ingbert","latitude":49.27697,"longitude":7.11672},{"id":28883,"name":"Sankt Wendel","latitude":49.46633,"longitude":7.16814},{"id":28944,"name":"Schiffweiler","latitude":49.36667,"longitude":7.13333},{"id":28990,"name":"Schmelz","latitude":49.43333,"longitude":6.85},{"id":29049,"name":"Schwalbach","latitude":49.3,"longitude":6.81667},{"id":29302,"name":"Spiesen-Elversberg","latitude":49.31667,"longitude":7.13333},{"id":29467,"name":"Sulzbach","latitude":49.29882,"longitude":7.05696},{"id":29596,"name":"Tholey","latitude":49.48374,"longitude":7.03691},{"id":30554,"name":"Überherrn","latitude":49.24187,"longitude":6.6984},{"id":29892,"name":"Völklingen","latitude":49.25162,"longitude":6.85873},{"id":29910,"name":"Wadern","latitude":49.54122,"longitude":6.88774},{"id":29912,"name":"Wadgassen","latitude":49.26667,"longitude":6.78333},{"id":29977,"name":"Wallerfangen","latitude":49.32749,"longitude":6.71102},{"id":30110,"name":"Weiskirchen","latitude":49.55,"longitude":6.81667},{"id":30115,"name":"Weiten","latitude":49.53011,"longitude":6.54064}]