[{"id":109090,"name":"Kakonko","latitude":-3.28278,"longitude":30.96417},{"id":109095,"name":"Kasulu","latitude":-4.57667,"longitude":30.1025},{"id":109105,"name":"Kibondo","latitude":-3.58639,"longitude":30.72028},{"id":109108,"name":"Kigoma","latitude":-4.87694,"longitude":29.62667},{"id":109152,"name":"Mabamba","latitude":-3.59833,"longitude":30.50194},{"id":109230,"name":"Mwandiga","latitude":-4.83,"longitude":29.65806},{"id":109255,"name":"Nguruka","latitude":-5.10917,"longitude":31.04194},{"id":109299,"name":"Uvinza","latitude":-5.10361,"longitude":30.39111}]