[{"id":89885,"name":"Adunații-Copăceni","latitude":44.25413,"longitude":26.04929},{"id":90439,"name":"Bâcu","latitude":44.48259,"longitude":25.88904},{"id":90531,"name":"Băneasa","latitude":44.04611,"longitude":26.06417},{"id":90213,"name":"Bolintin Deal","latitude":44.45917,"longitude":25.82111},{"id":90214,"name":"Bolintin Vale","latitude":44.44889,"longitude":25.75778},{"id":90339,"name":"Brăniștari","latitude":44.17626,"longitude":26.05953},{"id":90271,"name":"Braniștea","latitude":43.96315,"longitude":26.03812},{"id":90365,"name":"Bucşani","latitude":44.37611,"longitude":25.65528},{"id":90401,"name":"Bulbucata","latitude":44.28333,"longitude":25.80333},{"id":90429,"name":"Buturugeni","latitude":44.36528,"longitude":25.83528},{"id":93845,"name":"Călugăreni","latitude":44.17167,"longitude":25.99556},{"id":93803,"name":"Câmpurelu","latitude":44.23392,"longitude":26.18719},{"id":90582,"name":"Cartojani","latitude":44.43221,"longitude":25.48994},{"id":93873,"name":"Căscioarele","latitude":44.49911,"longitude":25.63817},{"id":90648,"name":"Cetatea","latitude":43.95105,"longitude":25.9345},{"id":90677,"name":"Chiriacu","latitude":44.05036,"longitude":25.77726},{"id":90766,"name":"Clejani","latitude":44.31972,"longitude":25.69944},{"id":90795,"name":"Colibaşi","latitude":44.20222,"longitude":26.19472},{"id":90803,"name":"Comana","latitude":44.17056,"longitude":26.145},{"id":90823,"name":"Comuna Adunaţii-Copăceni","latitude":44.25847,"longitude":26.06477},{"id":91231,"name":"Comuna Băneasa","latitude":44.03785,"longitude":26.06071},{"id":91041,"name":"Comuna Bolintin Deal","latitude":44.44593,"longitude":25.82301},{"id":91141,"name":"Comuna Bucşani","latitude":44.35805,"longitude":25.65081},{"id":91158,"name":"Comuna Bulbucata","latitude":44.29537,"longitude":25.82284},{"id":91177,"name":"Comuna Buturugeni","latitude":44.34661,"longitude":25.83382},{"id":91575,"name":"Comuna Călugăreni","latitude":44.16412,"longitude":25.99392},{"id":91380,"name":"Comuna Clejani","latitude":44.31582,"longitude":25.7356},{"id":91398,"name":"Comuna Colibaşi","latitude":44.21838,"longitude":26.19239},{"id":91404,"name":"Comuna Comana","latitude":44.17965,"longitude":26.14905},{"id":91452,"name":"Comuna Cosoba","latitude":44.52268,"longitude":25.81903},{"id":91490,"name":"Comuna Crevedia Mare","latitude":44.4367,"longitude":25.6105},{"id":91600,"name":"Comuna Daia","latitude":43.99944,"longitude":25.99228},{"id":93585,"name":"Comună Floreşti-Stoeneşti","latitude":44.49152,"longitude":25.7114},{"id":91794,"name":"Comuna Frăteşti","latitude":43.95495,"longitude":25.96212},{"id":91977,"name":"Comuna Gãiseni","latitude":44.51633,"longitude":25.63261},{"id":91987,"name":"Comuna Găujani","latitude":43.73995,"longitude":25.71079},{"id":91856,"name":"Comuna Ghimpaţi","latitude":44.19231,"longitude":25.7836},{"id":91890,"name":"Comuna Gogoşari","latitude":43.86611,"longitude":25.68497},{"id":91909,"name":"Comuna Goştinari","latitude":44.17765,"longitude":26.23792},{"id":91907,"name":"Comuna Gostinu","latitude":43.99738,"longitude":26.12297},{"id":91937,"name":"Comuna Grădinari","latitude":44.39546,"longitude":25.81702},{"id":91913,"name":"Comuna Greaca","latitude":44.12591,"longitude":26.33371},{"id":91998,"name":"Comuna Herăşti","latitude":44.21077,"longitude":26.36678},{"id":92025,"name":"Comuna Hotarele","latitude":44.17536,"longitude":26.37078},{"id":92064,"name":"Comuna Iepureşti","latitude":44.26376,"longitude":25.8804},{"id":92096,"name":"Comuna Isvoarele","latitude":44.16855,"longitude":26.29673},{"id":92103,"name":"Comuna Izvoarele","latitude":44.04869,"longitude":25.80326},{"id":92128,"name":"Comuna Joiţa","latitude":44.49002,"longitude":25.87205},{"id":92157,"name":"Comuna Letca Nouă","latitude":44.23326,"longitude":25.70941},{"id":92235,"name":"Comuna Malu","latitude":43.81518,"longitude":25.81863},{"id":92373,"name":"Comuna Mârşa","latitude":44.37355,"longitude":25.55974},{"id":92270,"name":"Comuna Mihai Bravu","latitude":44.14129,"longitude":26.05812},{"id":92486,"name":"Comuna Ogrezeni","latitude":44.39727,"longitude":25.77888},{"id":92489,"name":"Comuna Oinacu","latitude":43.95609,"longitude":26.03403},{"id":92685,"name":"Comuna Prundu","latitude":44.08334,"longitude":26.2121},{"id":92700,"name":"Comuna Putineiu","latitude":43.90072,"longitude":25.78225},{"id":92850,"name":"Comuna Răsuceni","latitude":44.08416,"longitude":25.68758},{"id":92773,"name":"Comuna Roata De Jos","latitude":44.41388,"longitude":25.53061},{"id":93079,"name":"Comuna Săbăreni","latitude":44.50185,"longitude":25.8882},{"id":92888,"name":"Comuna Schitu","latitude":44.14574,"longitude":25.8424},{"id":92940,"name":"Comuna Singureni","latitude":44.22975,"longitude":25.95363},{"id":92952,"name":"Comuna Slobozia","latitude":43.85671,"longitude":25.91074},{"id":93016,"name":"Comuna Stăneşti","latitude":43.93344,"longitude":25.87967},{"id":92994,"name":"Comuna Stoeneşti","latitude":44.14164,"longitude":25.89349},{"id":93180,"name":"Comuna Toporu","latitude":43.99588,"longitude":25.64737},{"id":93263,"name":"Comuna Ulmi","latitude":44.4934,"longitude":25.76687},{"id":93305,"name":"Comuna Valea Dragului","latitude":44.21135,"longitude":26.30682},{"id":93437,"name":"Comuna Vânătorii Mici","latitude":44.49072,"longitude":25.56116},{"id":93466,"name":"Comuna Vărăşti","latitude":44.24616,"longitude":26.25221},{"id":93339,"name":"Comuna Vedea","latitude":43.78217,"longitude":25.7886},{"id":93600,"name":"Copaciu","latitude":44.18178,"longitude":25.76921},{"id":93656,"name":"Cosoba","latitude":44.52268,"longitude":25.81903},{"id":93711,"name":"Crevedia Mare","latitude":44.42917,"longitude":25.62556},{"id":93761,"name":"Cucuruzu","latitude":44.0802,"longitude":25.73242},{"id":93888,"name":"Daia","latitude":44.0,"longitude":25.98333},{"id":94135,"name":"Dărăști-Vlașca","latitude":44.29401,"longitude":26.01119},{"id":93899,"name":"Dealu","latitude":44.39938,"longitude":25.64857},{"id":93952,"name":"Dobreni","latitude":44.2543,"longitude":26.21344},{"id":94148,"name":"Falaștoaca","latitude":44.19098,"longitude":26.18475},{"id":94187,"name":"Florești","latitude":44.51313,"longitude":25.69658},{"id":94219,"name":"Frăteşti","latitude":43.96667,"longitude":25.96667},{"id":94502,"name":"Găiseni","latitude":44.515,"longitude":25.64528},{"id":94514,"name":"Găujani","latitude":43.73333,"longitude":25.7},{"id":94325,"name":"Ghimpați","latitude":44.19586,"longitude":25.78336},{"id":94353,"name":"Giurgiu","latitude":43.88664,"longitude":25.9627},{"id":94371,"name":"Gogoşari","latitude":43.86667,"longitude":25.7},{"id":94393,"name":"Gostinari","latitude":44.18624,"longitude":26.22807},{"id":94396,"name":"Goştinari-Văcăreşti","latitude":44.18333,"longitude":26.21667},{"id":94394,"name":"Gostinu","latitude":44.0,"longitude":26.11667},{"id":94435,"name":"Grădinari","latitude":44.39222,"longitude":25.81556},{"id":94441,"name":"Grădiștea","latitude":44.21062,"longitude":26.16547},{"id":94402,"name":"Greaca","latitude":44.10944,"longitude":26.33944},{"id":94533,"name":"Herăști","latitude":44.21174,"longitude":26.35903},{"id":94570,"name":"Hotarele","latitude":44.1725,"longitude":26.37028},{"id":94574,"name":"Hulubești","latitude":44.16748,"longitude":25.94146},{"id":94636,"name":"Icoana","latitude":44.49309,"longitude":25.74623},{"id":94643,"name":"Iepureşti","latitude":44.25806,"longitude":25.88222},{"id":94707,"name":"Izvoarele","latitude":44.03389,"longitude":25.77472},{"id":94744,"name":"Joiţa","latitude":44.49417,"longitude":25.85389},{"id":94786,"name":"Letca Nouă","latitude":44.23496,"longitude":25.74262},{"id":94787,"name":"Letca Veche","latitude":44.19911,"longitude":25.68681},{"id":94915,"name":"Malu","latitude":43.81518,"longitude":25.81863},{"id":94918,"name":"Malu Spart","latitude":44.44391,"longitude":25.71758},{"id":95222,"name":"Mârşa","latitude":44.37417,"longitude":25.55694},{"id":94976,"name":"Mihai Bravu","latitude":44.14056,"longitude":26.06278},{"id":94981,"name":"Mihai Vodă","latitude":44.43916,"longitude":25.81957},{"id":94995,"name":"Mihăileşti","latitude":44.32667,"longitude":25.90833},{"id":95003,"name":"Milcovățu","latitude":44.2657,"longitude":25.69882},{"id":95147,"name":"Municipiul Giurgiu","latitude":43.89051,"longitude":25.96609},{"id":95299,"name":"Naipu","latitude":44.15187,"longitude":25.76175},{"id":95356,"name":"Novaci","latitude":44.30109,"longitude":25.98632},{"id":95416,"name":"Ogrezeni","latitude":44.41972,"longitude":25.76833},{"id":95419,"name":"Oinacu","latitude":43.95,"longitude":26.01667},{"id":95466,"name":"Oraş Bolintin-Vale","latitude":44.44356,"longitude":25.7393},{"id":95541,"name":"Oraş Mihãileşti","latitude":44.31666,"longitude":25.94103},{"id":96009,"name":"Pădureni","latitude":44.34576,"longitude":25.80469},{"id":95699,"name":"Palanca","latitude":44.47575,"longitude":25.72565},{"id":95779,"name":"Pietrele","latitude":44.06258,"longitude":26.12019},{"id":95782,"name":"Pietrișu","latitude":43.72508,"longitude":25.67464},{"id":95826,"name":"Plopșoru","latitude":44.0119,"longitude":25.99306},{"id":95913,"name":"Popești","latitude":44.30444,"longitude":25.9637},{"id":95966,"name":"Prundu","latitude":44.09472,"longitude":26.22694},{"id":95978,"name":"Puieni","latitude":44.07675,"longitude":26.19114},{"id":95988,"name":"Putineiu","latitude":43.9,"longitude":25.73333},{"id":96209,"name":"Răsuceni","latitude":44.09167,"longitude":25.66389},{"id":96086,"name":"Remuș","latitude":43.94295,"longitude":25.98039},{"id":96096,"name":"Roata de Jos","latitude":44.41083,"longitude":25.54333},{"id":105989,"name":"Săbăreni","latitude":44.50185,"longitude":25.8882},{"id":96223,"name":"Sadina","latitude":44.41143,"longitude":25.52953},{"id":96270,"name":"Schitu","latitude":44.14083,"longitude":25.83667},{"id":96355,"name":"Singureni","latitude":44.23361,"longitude":25.94333},{"id":96370,"name":"Slobozia","latitude":43.85,"longitude":25.9},{"id":96477,"name":"Stăneşti","latitude":43.91667,"longitude":25.83333},{"id":96435,"name":"Stoeneşti","latitude":44.14444,"longitude":25.895},{"id":96579,"name":"Tântava","latitude":44.41511,"longitude":25.8245},{"id":106138,"name":"Toporu","latitude":44.01056,"longitude":25.65278},{"id":106153,"name":"Trestieni","latitude":44.50449,"longitude":25.75789},{"id":96648,"name":"Ulmi","latitude":44.48667,"longitude":25.78028},{"id":96693,"name":"Uzunu","latitude":44.14716,"longitude":25.96719},{"id":96723,"name":"Valea Dragului","latitude":44.21222,"longitude":26.30361},{"id":96934,"name":"Vânătorii Mari","latitude":44.48898,"longitude":25.54548},{"id":96935,"name":"Vânătorii Mici","latitude":44.49028,"longitude":25.55889},{"id":96974,"name":"Vărăşti","latitude":44.23778,"longitude":26.24861},{"id":96783,"name":"Vedea","latitude":43.78333,"longitude":25.78333},{"id":96811,"name":"Vieru","latitude":43.88787,"longitude":25.80974},{"id":96856,"name":"Vlad Țepeș","latitude":44.13282,"longitude":26.13355},{"id":97003,"name":"Zorile","latitude":44.37864,"longitude":25.80678}]