[{"id":130081,"name":"Guacara","latitude":10.22609,"longitude":-67.877},{"id":130085,"name":"Güigüe","latitude":10.08344,"longitude":-67.77799},{"id":130098,"name":"Los Guayos","latitude":10.18932,"longitude":-67.93828},{"id":130105,"name":"Mariara","latitude":10.29532,"longitude":-67.7177},{"id":130108,"name":"Morón","latitude":10.48715,"longitude":-68.20078},{"id":130132,"name":"Puerto Cabello","latitude":10.47306,"longitude":-68.0125},{"id":130147,"name":"San Joaquín","latitude":10.26061,"longitude":-67.79348},{"id":130156,"name":"Tacarigua","latitude":10.08621,"longitude":-67.91982},{"id":130158,"name":"Tocuyito","latitude":10.11347,"longitude":-68.06783},{"id":130165,"name":"Valencia","latitude":10.16202,"longitude":-68.00765}]