[{"id":19029,"name":"Antártica","latitude":-75.0,"longitude":-71.5},{"id":148404,"name":"Cabo de Hornos","latitude":-54.93333333,"longitude":-67.61666667},{"id":148405,"name":"Laguna Blanca","latitude":-52.25,"longitude":-71.91666667},{"id":148406,"name":"Natales","latitude":-51.73333333,"longitude":-72.51666667},{"id":19028,"name":"Porvenir","latitude":-53.3,"longitude":-70.36666667},{"id":148407,"name":"Primavera","latitude":-52.71666667,"longitude":-69.25},{"id":19088,"name":"Punta Arenas","latitude":-53.1627,"longitude":-70.9081},{"id":148408,"name":"Río Verde","latitude":-52.65,"longitude":-71.48333333},{"id":148409,"name":"San Gregorio","latitude":-52.31666667,"longitude":-69.68333333},{"id":148410,"name":"Timaukel","latitude":-53.66666667,"longitude":-69.9},{"id":148411,"name":"Torres del Paine","latitude":-51.26666667,"longitude":-72.35}]