[{"id":80567,"name":"Ayabaca","latitude":-4.63983,"longitude":-79.71491},{"id":80577,"name":"Bernal","latitude":-5.45,"longitude":-80.75},{"id":80578,"name":"Buenos Aires","latitude":-5.26083,"longitude":-79.96417},{"id":80596,"name":"Catacaos","latitude":-5.26667,"longitude":-80.68333},{"id":80624,"name":"Chulucanas","latitude":-5.0925,"longitude":-80.1625},{"id":80638,"name":"El Alto","latitude":-4.26851,"longitude":-81.21719},{"id":80650,"name":"Huancabamba","latitude":-5.23861,"longitude":-79.45056},{"id":80686,"name":"La Breita","latitude":-4.25691,"longitude":-80.88599},{"id":80687,"name":"La Huaca","latitude":-4.91167,"longitude":-80.96},{"id":80692,"name":"La Unión","latitude":-5.40232,"longitude":-80.74224},{"id":80698,"name":"Las Lomas","latitude":-4.65333,"longitude":-80.24667},{"id":80727,"name":"Máncora","latitude":-4.10778,"longitude":-81.0475},{"id":80711,"name":"Marcavelica","latitude":-4.87778,"longitude":-80.70528},{"id":80721,"name":"Morropon","latitude":-5.25,"longitude":-80.0},{"id":80746,"name":"Paita","latitude":-5.08917,"longitude":-81.11444},{"id":80765,"name":"Piura","latitude":-5.19449,"longitude":-80.63282},{"id":80778,"name":"Provincia de Ayabaca","latitude":-4.75,"longitude":-79.83333},{"id":80831,"name":"Provincia de Huancabamba","latitude":-5.5,"longitude":-79.58333},{"id":80870,"name":"Provincia de Paita","latitude":-5.10189,"longitude":-81.09695},{"id":80879,"name":"Provincia de Piura","latitude":-5.21416,"longitude":-80.40617},{"id":80896,"name":"Provincia de Sullana","latitude":-4.5,"longitude":-80.66667},{"id":80899,"name":"Provincia de Talara","latitude":-4.41667,"longitude":-81.08333},{"id":80927,"name":"Querecotillo","latitude":-4.83778,"longitude":-80.64556},{"id":80937,"name":"Salinera Colán","latitude":-5.03333,"longitude":-81.06667},{"id":80938,"name":"Salitral","latitude":-4.85722,"longitude":-80.68111},{"id":80973,"name":"Sechura","latitude":-5.55694,"longitude":-80.82222},{"id":80979,"name":"Sullana","latitude":-4.90389,"longitude":-80.68528},{"id":80983,"name":"Talara","latitude":-4.57722,"longitude":-81.27194},{"id":80986,"name":"Tambo Grande","latitude":-4.92694,"longitude":-80.34472},{"id":81007,"name":"Vice","latitude":-5.41667,"longitude":-80.78333}]