[{"id":97575,"name":"Aleksandrovskoye","latitude":56.74083,"longitude":85.39056},{"id":97701,"name":"Asino","latitude":56.99987,"longitude":86.14393},{"id":97759,"name":"Bakchar","latitude":57.01861,"longitude":82.07111},{"id":97881,"name":"Belyy Yar","latitude":58.44472,"longitude":85.0425},{"id":97961,"name":"Bogashevo","latitude":56.36798,"longitude":85.14414},{"id":98801,"name":"Kaltay","latitude":56.27917,"longitude":84.87861},{"id":98877,"name":"Kargasok","latitude":59.05556,"longitude":80.85722},{"id":98935,"name":"Kedrovyy","latitude":57.51972,"longitude":79.51556},{"id":99146,"name":"Kolpashevo","latitude":58.31306,"longitude":82.90889},{"id":99263,"name":"Kozhevnikovo","latitude":56.25889,"longitude":83.97139},{"id":99378,"name":"Krasnyy Yar","latitude":57.1275,"longitude":84.53028},{"id":99393,"name":"Krivosheino","latitude":57.34306,"longitude":83.92611},{"id":99859,"name":"Mel’nikovo","latitude":56.55738,"longitude":84.0835},{"id":99947,"name":"Molchanovo","latitude":57.58167,"longitude":83.76917},{"id":99948,"name":"Molchanovskiy Rayon","latitude":57.75,"longitude":84.33333},{"id":99969,"name":"Moryakovskiy Zaton","latitude":56.69448,"longitude":84.65145},{"id":100540,"name":"Parabel’","latitude":58.69778,"longitude":81.4825},{"id":100627,"name":"Pervomayskoye","latitude":57.0761,"longitude":86.2313},{"id":100717,"name":"Podgornoye","latitude":57.78861,"longitude":82.65194},{"id":101094,"name":"Samus’","latitude":56.74482,"longitude":84.70422},{"id":101222,"name":"Seversk","latitude":56.60056,"longitude":84.88639},{"id":101628,"name":"Strezhevoy","latitude":60.7333,"longitude":77.5889},{"id":101707,"name":"Svetlyy","latitude":56.91667,"longitude":85.96667},{"id":101810,"name":"Tegul’det","latitude":57.30679,"longitude":88.16004},{"id":101811,"name":"Tegul’detskiy Rayon","latitude":57.5,"longitude":88.16667},{"id":101860,"name":"Timiryazevskoye","latitude":56.48988,"longitude":84.87795},{"id":101872,"name":"Togur","latitude":58.3631,"longitude":82.8265},{"id":101887,"name":"Tomsk","latitude":56.49771,"longitude":84.97437},{"id":101888,"name":"Tomskiy Rayon","latitude":56.5,"longitude":84.66667},{"id":102788,"name":"Zyryanskoye","latitude":56.83058,"longitude":86.62734}]