[{"id":105210,"name":"Amphoe Ban Phaeo","latitude":13.58747,"longitude":100.11789},{"id":105455,"name":"Amphoe Krathum Baen","latitude":13.6557,"longitude":100.27282},{"id":105585,"name":"Amphoe Mueang Samut Sakhon","latitude":13.53163,"longitude":100.25326},{"id":106405,"name":"Ban Phaeo","latitude":13.59072,"longitude":100.10748},{"id":106542,"name":"Krathum Baen","latitude":13.6533,"longitude":100.25972},{"id":106681,"name":"Samut Sakhon","latitude":13.54753,"longitude":100.27362}]