[{"id":153265,"name":"Azmour","latitude":36.9244,"longitude":11.0069},{"id":153266,"name":"Beni Khalled","latitude":36.65038,"longitude":10.59004},{"id":153268,"name":"Béni Khiar","latitude":36.46666667,"longitude":10.78333333},{"id":153267,"name":"Bou Argoub","latitude":36.53853,"longitude":10.55093},{"id":153269,"name":"Dar Chaabane","latitude":36.47,"longitude":10.75},{"id":153270,"name":"El Haouaria","latitude":37.05,"longitude":11.01111111},{"id":153271,"name":"El Maâmoura","latitude":36.46666667,"longitude":10.8},{"id":153272,"name":"El Mida","latitude":36.73333333,"longitude":10.85},{"id":153273,"name":"El Mrezga","latitude":36.42163,"longitude":10.66411},{"id":153274,"name":"Grombalia","latitude":36.61,"longitude":10.5},{"id":153275,"name":"Hammamet","latitude":36.41666667,"longitude":10.6},{"id":153276,"name":"Kelibia","latitude":36.8475,"longitude":11.09388889},{"id":153277,"name":"Korba","latitude":36.56666667,"longitude":10.86666667},{"id":153278,"name":"Korbous","latitude":36.81638889,"longitude":10.56861111},{"id":153279,"name":"Menzel Bouzelfa","latitude":36.6817,"longitude":10.5847},{"id":153280,"name":"Menzel Horr","latitude":36.73333333,"longitude":10.95},{"id":153281,"name":"Menzel Temime","latitude":36.78333333,"longitude":10.98333333},{"id":153282,"name":"Nabeul","latitude":36.451389,"longitude":10.736111},{"id":153283,"name":"Soliman","latitude":36.695126,"longitude":10.491257},{"id":153284,"name":"Takelsa","latitude":36.79,"longitude":10.63},{"id":153285,"name":"Tazerka","latitude":36.55,"longitude":10.8},{"id":153286,"name":"Zaouiet Djedidi","latitude":36.65,"longitude":10.6},{"id":153287,"name":"Zriba","latitude":36.35585,"longitude":10.206034}]