[{"id":102808,"name":"Ad Dawādimī","latitude":24.50772,"longitude":44.39237},{"id":102809,"name":"Ad Dilam","latitude":23.99104,"longitude":47.16181},{"id":102811,"name":"Afif","latitude":23.9065,"longitude":42.91724},{"id":102812,"name":"Ain AlBaraha","latitude":24.75806,"longitude":43.77389},{"id":102813,"name":"Al Arţāwīyah","latitude":26.50387,"longitude":45.34813},{"id":149017,"name":"Al Bir","latitude":25.3,"longitude":45.9667},{"id":149018,"name":"Al Hair","latitude":24.39072,"longitude":46.98677},{"id":149019,"name":"Al Jurayfah","latitude":25.52932,"longitude":45.25644},{"id":102826,"name":"Al Kharj","latitude":24.15541,"longitude":47.33457},{"id":149020,"name":"Ar Rayn","latitude":23.54995,"longitude":45.50463},{"id":149021,"name":"As Salamiyah","latitude":24.20154,"longitude":47.28872},{"id":102844,"name":"As Sulayyil","latitude":20.46067,"longitude":45.57792},{"id":102847,"name":"Az Zulfī","latitude":26.29945,"longitude":44.81542},{"id":149022,"name":"Dawadmi","latitude":24.50772,"longitude":44.39237},{"id":149023,"name":"Diriyah","latitude":24.75187,"longitude":46.53874},{"id":149024,"name":"Harmah","latitude":25.91666667,"longitude":45.33333333},{"id":149025,"name":"Jalajil","latitude":25.66666667,"longitude":45.45},{"id":149026,"name":"Layla","latitude":22.2833,"longitude":46.7333},{"id":149027,"name":"Manfuha","latitude":24.59611111,"longitude":46.72722222},{"id":102863,"name":"Marāt","latitude":25.07064,"longitude":45.45775},{"id":149028,"name":"Najan","latitude":24.07746,"longitude":47.1659},{"id":102874,"name":"Riyadh","latitude":24.68773,"longitude":46.72185},{"id":102880,"name":"Sājir","latitude":25.18251,"longitude":44.59964},{"id":102893,"name":"shokhaibٍ","latitude":24.49023,"longitude":46.26871},{"id":102885,"name":"Tumayr","latitude":25.70347,"longitude":45.86835}]