[{"id":23470,"name":"Abtsdorf","latitude":51.88984,"longitude":12.72526},{"id":23506,"name":"Ahlsdorf","latitude":51.54543,"longitude":11.46655},{"id":23530,"name":"Aken","latitude":51.85274,"longitude":12.04461},{"id":23563,"name":"Allstedt","latitude":51.40379,"longitude":11.38689},{"id":23573,"name":"Alsleben","latitude":51.70161,"longitude":11.67648},{"id":23656,"name":"Angern","latitude":52.35,"longitude":11.73333},{"id":23657,"name":"Angersdorf","latitude":51.46025,"longitude":11.90705},{"id":23662,"name":"Annaburg","latitude":51.73298,"longitude":13.04729},{"id":23675,"name":"Apollensdorf","latitude":51.87634,"longitude":12.55012},{"id":23685,"name":"Arneburg","latitude":52.67565,"longitude":12.00514},{"id":23707,"name":"Aschersleben","latitude":51.75742,"longitude":11.46084},{"id":23719,"name":"Atzendorf","latitude":51.91954,"longitude":11.59906},{"id":23742,"name":"Ausleben","latitude":52.09049,"longitude":11.11192},{"id":23750,"name":"Baalberge","latitude":51.76469,"longitude":11.7988},{"id":23771,"name":"Bad Bibra","latitude":51.20796,"longitude":11.58517},{"id":23786,"name":"Bad Dürrenberg","latitude":51.29545,"longitude":12.06583},{"id":23820,"name":"Bad Kösen","latitude":51.13431,"longitude":11.72203},{"id":23825,"name":"Bad Lauchstädt","latitude":51.38652,"longitude":11.86956},{"id":23862,"name":"Bad Schmiedeberg","latitude":51.68516,"longitude":12.73483},{"id":23872,"name":"Bad Suderode","latitude":51.73333,"longitude":11.11667},{"id":23912,"name":"Ballenstedt","latitude":51.719,"longitude":11.23265},{"id":23925,"name":"Barby","latitude":51.96711,"longitude":11.88261},{"id":23935,"name":"Barleben","latitude":52.20193,"longitude":11.6177},{"id":23939,"name":"Barnstädt","latitude":51.34401,"longitude":11.63735},{"id":23985,"name":"Beesenlaublingen","latitude":51.71274,"longitude":11.69729},{"id":23986,"name":"Beesenstedt","latitude":51.56828,"longitude":11.73323},{"id":23989,"name":"Beetzendorf","latitude":52.70226,"longitude":11.0889},{"id":24001,"name":"Belleben","latitude":51.67499,"longitude":11.6342},{"id":24010,"name":"Benndorf","latitude":51.57035,"longitude":11.4929},{"id":24011,"name":"Benneckenstein","latitude":51.66823,"longitude":10.71716},{"id":24015,"name":"Bennstedt","latitude":51.48201,"longitude":11.8262},{"id":24016,"name":"Bennungen","latitude":51.46085,"longitude":11.11816},{"id":24028,"name":"Berga","latitude":51.45561,"longitude":11.0071},{"id":24049,"name":"Bergwitz","latitude":51.79479,"longitude":12.58954},{"id":24063,"name":"Bernburg","latitude":51.79464,"longitude":11.7401},{"id":24087,"name":"Beuna","latitude":51.31667,"longitude":11.95},{"id":24106,"name":"Biederitz","latitude":52.15,"longitude":11.71667},{"id":24110,"name":"Biere","latitude":51.97431,"longitude":11.65443},{"id":24154,"name":"Bismark","latitude":52.66195,"longitude":11.55638},{"id":24160,"name":"Bitterfeld-Wolfen","latitude":51.62355,"longitude":12.32395},{"id":24166,"name":"Blankenburg","latitude":51.79025,"longitude":10.95509},{"id":24170,"name":"Blankenheim","latitude":51.50717,"longitude":11.42878},{"id":24188,"name":"Bobbau","latitude":51.68747,"longitude":12.27253},{"id":24251,"name":"Borne","latitude":51.94881,"longitude":11.55865},{"id":24284,"name":"Braschwitz","latitude":51.52284,"longitude":12.05867},{"id":24290,"name":"Braunsbedra","latitude":51.28602,"longitude":11.88987},{"id":24299,"name":"Brehna","latitude":51.5579,"longitude":12.21276},{"id":24357,"name":"Brumby","latitude":51.89635,"longitude":11.71751},{"id":24410,"name":"Burg bei Magdeburg","latitude":52.27152,"longitude":11.85493},{"id":24437,"name":"Burgwerben","latitude":51.2227,"longitude":11.98396},{"id":24514,"name":"Calbe","latitude":51.90668,"longitude":11.77478},{"id":24518,"name":"Calvörde","latitude":52.39551,"longitude":11.29463},{"id":24546,"name":"Cochstedt","latitude":51.88247,"longitude":11.41085},{"id":24548,"name":"Colbitz","latitude":52.31708,"longitude":11.60534},{"id":24555,"name":"Coswig","latitude":51.88618,"longitude":12.45009},{"id":24581,"name":"Dahlenwarsleben","latitude":52.19519,"longitude":11.53736},{"id":24596,"name":"Darlingerode","latitude":51.84712,"longitude":10.73097},{"id":24636,"name":"Derenburg","latitude":51.87086,"longitude":10.91029},{"id":24643,"name":"Dessau","latitude":51.83864,"longitude":12.24555},{"id":24655,"name":"Deuben","latitude":51.10968,"longitude":12.07259},{"id":24674,"name":"Diesdorf","latitude":52.13075,"longitude":11.56483},{"id":24675,"name":"Dieskau","latitude":51.43553,"longitude":12.04035},{"id":24706,"name":"Ditfurt","latitude":51.83333,"longitude":11.2},{"id":24716,"name":"Dobien","latitude":51.90519,"longitude":12.61068},{"id":24795,"name":"Dölbau","latitude":51.46701,"longitude":12.05735},{"id":24796,"name":"Döllnitz","latitude":51.40777,"longitude":12.02831},{"id":24725,"name":"Domersleben","latitude":52.09199,"longitude":11.43757},{"id":24772,"name":"Droyßig","latitude":51.04247,"longitude":12.0259},{"id":24773,"name":"Drübeck","latitude":51.8582,"longitude":10.71839},{"id":24822,"name":"Ebendorf","latitude":52.18551,"longitude":11.57478},{"id":24848,"name":"Eckartsberga","latitude":51.1238,"longitude":11.56045},{"id":24852,"name":"Edderitz","latitude":51.69933,"longitude":11.93712},{"id":24857,"name":"Edersleben","latitude":51.41667,"longitude":11.28333},{"id":24865,"name":"Egeln","latitude":51.94384,"longitude":11.43265},{"id":24876,"name":"Eggersdorf","latitude":51.97621,"longitude":11.70971},{"id":24899,"name":"Eichenbarleben","latitude":52.16688,"longitude":11.40125},{"id":24908,"name":"Eickendorf","latitude":51.94765,"longitude":11.67538},{"id":24914,"name":"Eilsleben","latitude":52.14708,"longitude":11.21035},{"id":24933,"name":"Eisleben Lutherstadt","latitude":51.52754,"longitude":11.54835},{"id":24940,"name":"Elbingerode","latitude":51.77039,"longitude":10.80557},{"id":24969,"name":"Elster","latitude":51.83011,"longitude":12.82424},{"id":25031,"name":"Erdeborn","latitude":51.47554,"longitude":11.63487},{"id":25062,"name":"Ermlitz","latitude":51.39182,"longitude":12.15946},{"id":25072,"name":"Erxleben","latitude":52.21812,"longitude":11.24245},{"id":25144,"name":"Farnstädt","latitude":51.43333,"longitude":11.56667},{"id":25186,"name":"Flechtingen","latitude":52.33083,"longitude":11.24176},{"id":25190,"name":"Flessau","latitude":52.75996,"longitude":11.67093},{"id":25322,"name":"Förderstedt","latitude":51.89717,"longitude":11.63349},{"id":25223,"name":"Frankleben","latitude":51.31144,"longitude":11.92932},{"id":25262,"name":"Freyburg","latitude":51.21362,"longitude":11.76804},{"id":25278,"name":"Friedersdorf","latitude":51.64809,"longitude":12.36555},{"id":25285,"name":"Friedrichsbrunn","latitude":51.69028,"longitude":11.03737},{"id":25292,"name":"Friedrichstadt","latitude":51.88751,"longitude":12.66947},{"id":25309,"name":"Frose","latitude":51.79581,"longitude":11.37914},{"id":25364,"name":"Gardelegen","latitude":52.5252,"longitude":11.39523},{"id":25375,"name":"Gatersleben","latitude":51.82215,"longitude":11.28661},{"id":25428,"name":"Genthin","latitude":52.40668,"longitude":12.1592},{"id":25439,"name":"Gerbstedt","latitude":51.63281,"longitude":11.62669},{"id":25447,"name":"Gernrode","latitude":51.72575,"longitude":11.13876},{"id":25466,"name":"Gerwisch","latitude":52.17662,"longitude":11.73972},{"id":25477,"name":"Geusa","latitude":51.33914,"longitude":11.94382},{"id":25485,"name":"Giersleben","latitude":51.76667,"longitude":11.56667},{"id":25514,"name":"Glindenberg","latitude":52.23857,"longitude":11.68361},{"id":25517,"name":"Glöthe","latitude":51.91,"longitude":11.67471},{"id":25530,"name":"Goldbeck","latitude":52.71695,"longitude":11.8606},{"id":25539,"name":"Gommern","latitude":52.07391,"longitude":11.82297},{"id":25785,"name":"Görzig","latitude":51.66381,"longitude":11.99759},{"id":25545,"name":"Goseck","latitude":51.2,"longitude":11.86667},{"id":25724,"name":"Gräfenhainichen","latitude":51.72892,"longitude":12.45651},{"id":25576,"name":"Granschütz","latitude":51.18431,"longitude":12.05149},{"id":25600,"name":"Greppin","latitude":51.64682,"longitude":12.30066},{"id":25728,"name":"Gröbers","latitude":51.4305,"longitude":12.11623},{"id":25729,"name":"Gröbzig","latitude":51.68226,"longitude":11.87453},{"id":25732,"name":"Gröningen","latitude":51.93744,"longitude":11.21601},{"id":25619,"name":"Groß Ammensleben","latitude":52.23279,"longitude":11.52195},{"id":25620,"name":"Groß Börnecke","latitude":51.88468,"longitude":11.47032},{"id":25635,"name":"Groß Quenstedt","latitude":51.93333,"longitude":11.11667},{"id":25637,"name":"Groß Rodensleben","latitude":52.12139,"longitude":11.38367},{"id":25638,"name":"Groß Rosenburg","latitude":51.91696,"longitude":11.89184},{"id":25639,"name":"Groß Santersleben","latitude":52.19143,"longitude":11.45486},{"id":25683,"name":"Großkayna","latitude":51.29068,"longitude":11.93269},{"id":25685,"name":"Großkorbetha","latitude":51.26002,"longitude":12.03012},{"id":25687,"name":"Großkugel","latitude":51.41728,"longitude":12.14641},{"id":25715,"name":"Großörner","latitude":51.61527,"longitude":11.4898},{"id":25795,"name":"Günthersdorf","latitude":51.3457,"longitude":12.17175},{"id":25798,"name":"Güsten","latitude":51.79637,"longitude":11.61246},{"id":25767,"name":"Gutenberg","latitude":51.5471,"longitude":11.97181},{"id":25813,"name":"Hadmersleben","latitude":51.99275,"longitude":11.30283},{"id":25844,"name":"Halberstadt","latitude":51.89562,"longitude":11.05622},{"id":25846,"name":"Haldensleben I","latitude":52.28906,"longitude":11.40982},{"id":25853,"name":"Halle (Saale)","latitude":51.48158,"longitude":11.97947},{"id":25854,"name":"Halle Neustadt","latitude":51.47924,"longitude":11.91605},{"id":25896,"name":"Harbke","latitude":52.18877,"longitude":11.04624},{"id":25909,"name":"Harsleben","latitude":51.86667,"longitude":11.1},{"id":25919,"name":"Harzgerode","latitude":51.64189,"longitude":11.1433},{"id":25932,"name":"Hasselfelde","latitude":51.69051,"longitude":10.85373},{"id":25956,"name":"Havelberg","latitude":52.83088,"longitude":12.07552},{"id":25970,"name":"Hecklingen","latitude":51.84705,"longitude":11.53416},{"id":25972,"name":"Hedersleben","latitude":51.54891,"longitude":11.64983},{"id":26020,"name":"Helbra","latitude":51.55,"longitude":11.5},{"id":26070,"name":"Hergisdorf","latitude":51.53333,"longitude":11.48333},{"id":26080,"name":"Hermsdorf","latitude":52.1874,"longitude":11.47556},{"id":26114,"name":"Hettstedt","latitude":51.6503,"longitude":11.51146},{"id":26121,"name":"Heudeber","latitude":51.90245,"longitude":10.84321},{"id":26202,"name":"Hohendodeleben","latitude":52.10412,"longitude":11.50473},{"id":26212,"name":"Hohenmölsen","latitude":51.15769,"longitude":12.1},{"id":26218,"name":"Hohenthurm","latitude":51.51807,"longitude":12.09749},{"id":26219,"name":"Hohenwarsleben","latitude":52.17898,"longitude":11.49994},{"id":26221,"name":"Hohenwarthe","latitude":52.22968,"longitude":11.71528},{"id":26312,"name":"Höhnstedt","latitude":51.50268,"longitude":11.73844},{"id":26230,"name":"Holleben","latitude":51.44047,"longitude":11.89915},{"id":26241,"name":"Holzdorf","latitude":51.77873,"longitude":13.12756},{"id":26249,"name":"Holzweißig","latitude":51.59819,"longitude":12.30842},{"id":26269,"name":"Hornhausen","latitude":52.0451,"longitude":11.17104},{"id":26324,"name":"Hötensleben","latitude":52.11974,"longitude":11.02238},{"id":26278,"name":"Hoym","latitude":51.78292,"longitude":11.31244},{"id":26343,"name":"Hüttenrode","latitude":51.7688,"longitude":10.90384},{"id":26294,"name":"Huy-Neinstedt","latitude":51.96585,"longitude":10.91457},{"id":26363,"name":"Ilberstedt","latitude":51.8,"longitude":11.66667},{"id":26375,"name":"Ilsenburg","latitude":51.86695,"longitude":10.67817},{"id":26410,"name":"Irxleben","latitude":52.16689,"longitude":11.48064},{"id":26465,"name":"Jävenitz","latitude":52.5241,"longitude":11.49909},{"id":26437,"name":"Jerichow","latitude":52.50049,"longitude":12.02383},{"id":26444,"name":"Jessen","latitude":51.79337,"longitude":12.95762},{"id":26451,"name":"Jeßnitz","latitude":51.68307,"longitude":12.29992},{"id":26486,"name":"Kalbe","latitude":52.65656,"longitude":11.38456},{"id":26525,"name":"Karsdorf","latitude":51.27134,"longitude":11.65775},{"id":26549,"name":"Kayna","latitude":50.99414,"longitude":12.2371},{"id":26555,"name":"Kelbra","latitude":51.43528,"longitude":11.04143},{"id":26563,"name":"Kemberg","latitude":51.77189,"longitude":12.63227},{"id":26666,"name":"Klein Wanzleben","latitude":52.07005,"longitude":11.36594},{"id":26684,"name":"Klieken","latitude":51.88806,"longitude":12.3707},{"id":26685,"name":"Klietz","latitude":52.66835,"longitude":12.06812},{"id":26695,"name":"Klostermansfeld","latitude":51.58333,"longitude":11.5},{"id":26698,"name":"Klötze","latitude":52.62725,"longitude":11.16424},{"id":26841,"name":"Könnern","latitude":51.6712,"longitude":11.77068},{"id":26846,"name":"Köthen","latitude":51.75185,"longitude":11.97093},{"id":26847,"name":"Kötzschau","latitude":51.31244,"longitude":12.13044},{"id":26753,"name":"Kretzschau","latitude":51.05,"longitude":12.06667},{"id":26774,"name":"Kroppenstedt","latitude":51.94211,"longitude":11.30841},{"id":26775,"name":"Kropstädt","latitude":51.96307,"longitude":12.7455},{"id":26781,"name":"Krumpa","latitude":51.29724,"longitude":11.84412},{"id":26806,"name":"Kusey","latitude":52.57987,"longitude":11.09056},{"id":26893,"name":"Landsberg","latitude":51.52698,"longitude":12.16076},{"id":26900,"name":"Langeln","latitude":51.91188,"longitude":10.79436},{"id":26911,"name":"Langenbogen","latitude":51.483,"longitude":11.77786},{"id":26914,"name":"Langendorf","latitude":51.17972,"longitude":11.9614},{"id":26915,"name":"Langeneichstädt","latitude":51.34537,"longitude":11.7433},{"id":26930,"name":"Langenstein","latitude":51.85551,"longitude":10.98822},{"id":26958,"name":"Laucha","latitude":51.22422,"longitude":11.67988},{"id":27032,"name":"Leißling","latitude":51.1826,"longitude":11.90954},{"id":27030,"name":"Leitzkau","latitude":52.05818,"longitude":11.95203},{"id":27056,"name":"Letzlingen","latitude":52.44615,"longitude":11.48518},{"id":27062,"name":"Leuna","latitude":51.31783,"longitude":12.01589},{"id":27095,"name":"Lieskau","latitude":51.50395,"longitude":11.86208},{"id":27103,"name":"Lindau","latitude":52.03751,"longitude":12.10788},{"id":27186,"name":"Löbejün","latitude":51.63533,"longitude":11.90106},{"id":27187,"name":"Löberitz","latitude":51.65393,"longitude":12.14655},{"id":27126,"name":"Loburg","latitude":52.11509,"longitude":12.0784},{"id":27127,"name":"Lochau","latitude":51.39738,"longitude":12.05303},{"id":27152,"name":"Lostau","latitude":52.20871,"longitude":11.73795},{"id":27213,"name":"Lüderitz","latitude":52.50912,"longitude":11.74301},{"id":27168,"name":"Luftkurort Arendsee","latitude":52.88073,"longitude":11.48621},{"id":27225,"name":"Lützen","latitude":51.25671,"longitude":12.14164},{"id":27230,"name":"Magdeburg","latitude":52.12773,"longitude":11.62916},{"id":27267,"name":"Mansfeld","latitude":51.59234,"longitude":11.45223},{"id":27378,"name":"Mehringen","latitude":51.72663,"longitude":11.51264},{"id":27387,"name":"Meitzendorf","latitude":52.21308,"longitude":11.56174},{"id":27422,"name":"Merseburg","latitude":51.35478,"longitude":11.98923},{"id":27462,"name":"Mieste","latitude":52.48226,"longitude":11.2064},{"id":27555,"name":"Möckern","latitude":52.14099,"longitude":11.95203},{"id":27560,"name":"Möhlau","latitude":51.73126,"longitude":12.35282},{"id":27578,"name":"Möser","latitude":52.21397,"longitude":11.79279},{"id":27583,"name":"Mücheln","latitude":51.29688,"longitude":11.80759},{"id":27590,"name":"Mühlanger","latitude":51.85,"longitude":12.75},{"id":27536,"name":"Muldenstein","latitude":51.67192,"longitude":12.34548},{"id":27548,"name":"Muschwitz","latitude":51.19296,"longitude":12.12065},{"id":27632,"name":"Nachterstedt","latitude":51.80081,"longitude":11.33489},{"id":27648,"name":"Nauendorf","latitude":51.60178,"longitude":11.88525},{"id":27649,"name":"Naumburg","latitude":51.14987,"longitude":11.80979},{"id":27657,"name":"Nebra","latitude":51.2881,"longitude":11.57749},{"id":27671,"name":"Neinstedt","latitude":51.7495,"longitude":11.08721},{"id":27681,"name":"Nessa","latitude":51.14565,"longitude":12.00874},{"id":27715,"name":"Neue Neustadt","latitude":52.15,"longitude":11.63333},{"id":27776,"name":"Neundorf","latitude":51.8208,"longitude":11.57484},{"id":27861,"name":"Niederndodeleben","latitude":52.13416,"longitude":11.50085},{"id":27890,"name":"Niemberg","latitude":51.55035,"longitude":12.09089},{"id":27893,"name":"Nienburg/Saale","latitude":51.83747,"longitude":11.76979},{"id":27939,"name":"Nudersdorf","latitude":51.93025,"longitude":12.59554},{"id":28027,"name":"Oberröblingen","latitude":51.43705,"longitude":11.3075},{"id":28058,"name":"Obhausen","latitude":51.39172,"longitude":11.65312},{"id":28072,"name":"Oebisfelde","latitude":52.43421,"longitude":10.98786},{"id":28121,"name":"Oppin","latitude":51.55136,"longitude":12.03274},{"id":28123,"name":"Oranienbaum","latitude":51.7986,"longitude":12.40583},{"id":28137,"name":"Oschersleben","latitude":52.03039,"longitude":11.22898},{"id":28147,"name":"Osterburg","latitude":52.78721,"longitude":11.75297},{"id":28150,"name":"Osterfeld","latitude":51.08014,"longitude":11.93047},{"id":28151,"name":"Osterhausen","latitude":51.45417,"longitude":11.50456},{"id":28154,"name":"Osternienburg","latitude":51.79384,"longitude":12.02616},{"id":28155,"name":"Osternienburger Land","latitude":51.8,"longitude":12.01667},{"id":28159,"name":"Osterwieck","latitude":51.9699,"longitude":10.71042},{"id":28245,"name":"Peißen","latitude":51.74347,"longitude":11.75756},{"id":28301,"name":"Piesteritz","latitude":51.86956,"longitude":12.59835},{"id":28332,"name":"Plötzkau","latitude":51.75,"longitude":11.68333},{"id":28333,"name":"Plötzky","latitude":52.05207,"longitude":11.80202},{"id":28344,"name":"Polleben","latitude":51.57966,"longitude":11.59931},{"id":28365,"name":"Pouch","latitude":51.62324,"longitude":12.40133},{"id":28369,"name":"Pratau","latitude":51.84226,"longitude":12.64373},{"id":28379,"name":"Prettin","latitude":51.66077,"longitude":12.92353},{"id":28381,"name":"Pretzier","latitude":52.83224,"longitude":11.26105},{"id":28382,"name":"Pretzsch","latitude":51.71466,"longitude":12.80663},{"id":28390,"name":"Prittitz","latitude":51.14996,"longitude":11.9302},{"id":28426,"name":"Quedlinburg","latitude":51.78843,"longitude":11.15006},{"id":28428,"name":"Queis","latitude":51.47626,"longitude":12.13455},{"id":28429,"name":"Quellendorf","latitude":51.74916,"longitude":12.12796},{"id":28430,"name":"Querfurt","latitude":51.38124,"longitude":11.60047},{"id":28444,"name":"Radegast","latitude":51.65654,"longitude":12.09485},{"id":28447,"name":"Radis","latitude":51.75226,"longitude":12.51453},{"id":28450,"name":"Raguhn","latitude":51.71167,"longitude":12.27531},{"id":28466,"name":"Ramsin","latitude":51.61095,"longitude":12.23812},{"id":28499,"name":"Raßnitz","latitude":51.39085,"longitude":12.09406},{"id":28535,"name":"Reichardtswerben","latitude":51.24851,"longitude":11.95349},{"id":28597,"name":"Reußen","latitude":51.50109,"longitude":12.13044},{"id":28633,"name":"Rieder","latitude":51.73333,"longitude":11.16667},{"id":28649,"name":"Riestedt","latitude":51.49496,"longitude":11.36023},{"id":28774,"name":"Röblingen am See","latitude":51.45944,"longitude":11.68231},{"id":28681,"name":"Rodleben","latitude":51.89607,"longitude":12.20061},{"id":28686,"name":"Rogätz","latitude":52.31667,"longitude":11.76667},{"id":28695,"name":"Roitzsch","latitude":51.57526,"longitude":12.26331},{"id":28743,"name":"Roßla","latitude":51.46331,"longitude":11.07576},{"id":28744,"name":"Roßlau","latitude":51.88736,"longitude":12.24192},{"id":28738,"name":"Rottleberode","latitude":51.51636,"longitude":10.94658},{"id":28797,"name":"Rübeland","latitude":51.75591,"longitude":10.8466},{"id":28843,"name":"Salzmünde","latitude":51.52662,"longitude":11.8265},{"id":28844,"name":"Salzwedel","latitude":52.85435,"longitude":11.1525},{"id":28847,"name":"Samswegen","latitude":52.26059,"longitude":11.56174},{"id":28850,"name":"Sandau","latitude":52.78968,"longitude":12.04582},{"id":28853,"name":"Sandersdorf","latitude":51.62841,"longitude":12.26492},{"id":28854,"name":"Sandersleben","latitude":51.67745,"longitude":11.56795},{"id":28858,"name":"Sangerhausen","latitude":51.47221,"longitude":11.29533},{"id":28905,"name":"Schafstädt","latitude":51.38131,"longitude":11.77302},{"id":28933,"name":"Schermen","latitude":52.23206,"longitude":11.81382},{"id":28956,"name":"Schkopau","latitude":51.39186,"longitude":11.95224},{"id":28961,"name":"Schlaitz","latitude":51.65871,"longitude":12.42839},{"id":29006,"name":"Schneidlingen","latitude":51.89454,"longitude":11.44487},{"id":29012,"name":"Schochwitz","latitude":51.53174,"longitude":11.75485},{"id":29114,"name":"Schönburg","latitude":51.16667,"longitude":11.86667},{"id":29115,"name":"Schönebeck","latitude":52.01682,"longitude":11.7307},{"id":29125,"name":"Schönhausen","latitude":52.58076,"longitude":12.03923},{"id":29029,"name":"Schraplau","latitude":51.4375,"longitude":11.66823},{"id":29058,"name":"Schwanebeck","latitude":51.9679,"longitude":11.12393},{"id":29152,"name":"Seehausen","latitude":52.88872,"longitude":11.75236},{"id":29193,"name":"Sennewitz","latitude":51.54326,"longitude":11.95218},{"id":29203,"name":"Seyda","latitude":51.88163,"longitude":12.90812},{"id":29222,"name":"Siersleben","latitude":51.60411,"longitude":11.54334},{"id":29267,"name":"Sommersdorf","latitude":52.16667,"longitude":11.08333},{"id":29298,"name":"Spergau","latitude":51.29347,"longitude":12.02292},{"id":29339,"name":"Stapelburg","latitude":51.90075,"longitude":10.6624},{"id":29347,"name":"Staßfurt","latitude":51.85186,"longitude":11.58508},{"id":29349,"name":"Stedten","latitude":51.44308,"longitude":11.69291},{"id":29398,"name":"Stendal","latitude":52.6069,"longitude":11.85867},{"id":29415,"name":"Stolberg","latitude":51.57426,"longitude":10.95582},{"id":29454,"name":"Stößen","latitude":51.1144,"longitude":11.92405},{"id":29440,"name":"Ströbeck","latitude":51.91406,"longitude":10.94445},{"id":29505,"name":"Süplingen","latitude":52.28759,"longitude":11.3245},{"id":29517,"name":"Tangerhütte","latitude":52.4353,"longitude":11.80724},{"id":29518,"name":"Tangermünde","latitude":52.54463,"longitude":11.97647},{"id":29546,"name":"Teicha","latitude":51.55887,"longitude":11.95482},{"id":29567,"name":"Teuchel","latitude":51.88842,"longitude":12.64587},{"id":29568,"name":"Teuchern","latitude":51.12094,"longitude":12.0241},{"id":29573,"name":"Teutschenthal","latitude":51.45,"longitude":11.8},{"id":29575,"name":"Thale","latitude":51.74861,"longitude":11.041},{"id":29578,"name":"Thalheim","latitude":51.65268,"longitude":12.22756},{"id":29589,"name":"Theißen","latitude":51.08748,"longitude":12.10659},{"id":29615,"name":"Timmenrode","latitude":51.77113,"longitude":11.00624},{"id":29630,"name":"Tollwitz","latitude":51.28601,"longitude":12.09733},{"id":29651,"name":"Trebitz","latitude":51.58615,"longitude":11.91965},{"id":29688,"name":"Tucheim","latitude":52.28923,"longitude":12.18423},{"id":29714,"name":"Uchtspringe","latitude":52.54011,"longitude":11.59959},{"id":29726,"name":"Uenglingen","latitude":52.61797,"longitude":11.80893},{"id":29732,"name":"Uftrungen","latitude":51.49859,"longitude":10.98066},{"id":29736,"name":"Uichteritz","latitude":51.20652,"longitude":11.92215},{"id":29741,"name":"Ummendorf","latitude":52.15645,"longitude":11.18151},{"id":29750,"name":"Unseburg","latitude":51.93284,"longitude":11.51281},{"id":29818,"name":"Veckenstedt","latitude":51.90113,"longitude":10.73203},{"id":29864,"name":"Vockerode","latitude":51.84698,"longitude":12.35208},{"id":29876,"name":"Volkstedt","latitude":51.56267,"longitude":11.55658},{"id":29893,"name":"Völpke","latitude":52.13865,"longitude":11.09877},{"id":29918,"name":"Wahlitz","latitude":52.10376,"longitude":11.77947},{"id":29974,"name":"Wallendorf","latitude":51.35983,"longitude":12.07537},{"id":29983,"name":"Wallhausen","latitude":51.46117,"longitude":11.2076},{"id":29989,"name":"Wallwitz","latitude":51.58029,"longitude":11.92888},{"id":30010,"name":"Wansleben","latitude":51.46034,"longitude":11.75135},{"id":30011,"name":"Wanzleben","latitude":52.06087,"longitude":11.4408},{"id":30034,"name":"Wasserleben","latitude":51.92089,"longitude":10.7567},{"id":30047,"name":"Weddersleben","latitude":51.76533,"longitude":11.08531},{"id":30054,"name":"Wefensleben","latitude":52.18319,"longitude":11.16074},{"id":30055,"name":"Weferlingen","latitude":52.31205,"longitude":11.05791},{"id":30057,"name":"Wegeleben","latitude":51.88376,"longitude":11.17347},{"id":30121,"name":"Weißandt-Gölzau","latitude":51.6707,"longitude":12.07338},{"id":30130,"name":"Weißenfels","latitude":51.20148,"longitude":11.96843},{"id":30143,"name":"Wellen","latitude":52.14518,"longitude":11.44106},{"id":30147,"name":"Welsleben","latitude":52.00304,"longitude":11.63851},{"id":30184,"name":"Wernigerode","latitude":51.83652,"longitude":10.78216},{"id":30205,"name":"Westeregeln","latitude":51.96328,"longitude":11.39265},{"id":30207,"name":"Westerhausen","latitude":51.80566,"longitude":11.05631},{"id":30226,"name":"Wetterzeube","latitude":51.0,"longitude":12.01667},{"id":30227,"name":"Wettin","latitude":51.58604,"longitude":11.8063},{"id":30242,"name":"Wiederstedt","latitude":51.66526,"longitude":11.52723},{"id":30307,"name":"Wimmelburg","latitude":51.52069,"longitude":11.50696},{"id":30340,"name":"Wippra","latitude":51.573,"longitude":11.27498},{"id":30351,"name":"Wittenberg","latitude":51.8661,"longitude":12.64973},{"id":30376,"name":"Wolfen","latitude":51.66122,"longitude":12.26873},{"id":30378,"name":"Wolferode","latitude":51.5065,"longitude":11.51299},{"id":30394,"name":"Wolmirsleben","latitude":51.95,"longitude":11.48333},{"id":30395,"name":"Wolmirstedt","latitude":52.24856,"longitude":11.62945},{"id":30443,"name":"Wörlitz","latitude":51.84172,"longitude":12.42116},{"id":30413,"name":"Wulfen","latitude":51.81938,"longitude":11.93063},{"id":30465,"name":"Zahna","latitude":51.9141,"longitude":12.78561},{"id":30470,"name":"Zappendorf","latitude":51.51024,"longitude":11.79514},{"id":30482,"name":"Zeitz","latitude":51.04962,"longitude":12.1369},{"id":30494,"name":"Zerbst","latitude":51.9662,"longitude":12.08517},{"id":30501,"name":"Zielitz","latitude":52.28958,"longitude":11.67572},{"id":30542,"name":"Zörbig","latitude":51.62894,"longitude":12.1174},{"id":30543,"name":"Zöschen","latitude":51.35802,"longitude":12.11652},{"id":30520,"name":"Zscherben","latitude":51.46709,"longitude":11.87058},{"id":30521,"name":"Zscherndorf","latitude":51.61087,"longitude":12.26755},{"id":30524,"name":"Zschornewitz","latitude":51.71585,"longitude":12.39998}]