[{"id":10463,"name":"Açailândia","latitude":-4.69214,"longitude":-47.34302},{"id":10088,"name":"Afonso Cunha","latitude":-4.21479,"longitude":-43.29743},{"id":15657,"name":"Água Doce do Maranhão","latitude":-2.91251,"longitude":-42.14125},{"id":10119,"name":"Alcântara","latitude":-2.32768,"longitude":-44.50617},{"id":10121,"name":"Aldeias Altas","latitude":-4.58522,"longitude":-43.46277},{"id":10154,"name":"Altamira do Maranhão","latitude":-4.14072,"longitude":-45.46154},{"id":10162,"name":"Alto Alegre do Maranhão","latitude":-4.20288,"longitude":-44.41966},{"id":10163,"name":"Alto Alegre do Pindaré","latitude":-3.83592,"longitude":-46.03871},{"id":10179,"name":"Alto Parnaíba","latitude":-9.5348,"longitude":-46.13899},{"id":10205,"name":"Amapá do Maranhão","latitude":-1.6947,"longitude":-45.92994},{"id":10210,"name":"Amarante do Maranhão","latitude":-5.56939,"longitude":-46.64105},{"id":10230,"name":"Anajatuba","latitude":-3.27409,"longitude":-44.53278},{"id":10237,"name":"Anapurus","latitude":-3.56073,"longitude":-43.04307},{"id":10295,"name":"Apicum-Açu","latitude":-1.48035,"longitude":-45.0854},{"id":10321,"name":"Araguanã","latitude":-3.04178,"longitude":-45.75874},{"id":10328,"name":"Araioses","latitude":-2.89792,"longitude":-42.02298},{"id":10332,"name":"Arame","latitude":-5.03155,"longitude":-45.86324},{"id":10352,"name":"Arari","latitude":-3.45361,"longitude":-44.78},{"id":10440,"name":"Atins","latitude":-2.57017,"longitude":-42.74229},{"id":10461,"name":"Axixá","latitude":-2.84586,"longitude":-44.10516},{"id":10467,"name":"Bacabal","latitude":-4.29167,"longitude":-44.79167},{"id":10468,"name":"Bacabeira","latitude":-2.86866,"longitude":-44.34505},{"id":10469,"name":"Bacuri","latitude":-1.65142,"longitude":-45.21995},{"id":10470,"name":"Bacurituba","latitude":-2.64645,"longitude":-44.65477},{"id":10492,"name":"Balsas","latitude":-7.5325,"longitude":-46.03556},{"id":10574,"name":"Barão de Grajaú","latitude":-6.62978,"longitude":-43.20317},{"id":10534,"name":"Barra do Corda","latitude":-5.50556,"longitude":-45.24333},{"id":10554,"name":"Barreirinhas","latitude":-2.75136,"longitude":-42.83432},{"id":10598,"name":"Bela Vista do Maranhão","latitude":-3.7914,"longitude":-45.29546},{"id":10613,"name":"Belágua","latitude":-3.08799,"longitude":-43.45673},{"id":10623,"name":"Benedito Leite","latitude":-7.10697,"longitude":-44.58763},{"id":10631,"name":"Bequimão","latitude":-2.44889,"longitude":-44.7825},{"id":10637,"name":"Bernardo do Mearim","latitude":-4.67175,"longitude":-44.64279},{"id":10672,"name":"Boa Vista do Gurupi","latitude":-1.73082,"longitude":-46.19635},{"id":10693,"name":"Bom Jardim","latitude":-3.77409,"longitude":-46.21707},{"id":10706,"name":"Bom Jesus das Selvas","latitude":-4.51333,"longitude":-46.60686},{"id":10718,"name":"Bom Lugar","latitude":-4.34667,"longitude":-45.02098},{"id":10788,"name":"Brejo","latitude":-3.68444,"longitude":-42.75028},{"id":10794,"name":"Brejo de Areia","latitude":-4.3245,"longitude":-45.5397},{"id":10823,"name":"Buriti","latitude":-3.94799,"longitude":-42.8581},{"id":10825,"name":"Buriti Bravo","latitude":-5.83722,"longitude":-43.83361},{"id":10830,"name":"Buriticupu","latitude":-4.51967,"longitude":-46.37712},{"id":10833,"name":"Buritirana","latitude":-5.59248,"longitude":-46.99721},{"id":10865,"name":"Cachoeira Grande","latitude":-3.12007,"longitude":-43.93132},{"id":10912,"name":"Cajapió","latitude":-2.86374,"longitude":-44.57287},{"id":10913,"name":"Cajari","latitude":-3.38514,"longitude":-45.02197},{"id":10961,"name":"Campestre do Maranhão","latitude":-6.15156,"longitude":-47.23427},{"id":11546,"name":"Cândido Mendes","latitude":-1.44667,"longitude":-45.71667},{"id":11055,"name":"Cantanhede","latitude":-3.63333,"longitude":-44.37667},{"id":11077,"name":"Capinzal do Norte","latitude":-4.74767,"longitude":-44.25167},{"id":11161,"name":"Carolina","latitude":-7.33561,"longitude":-47.46218},{"id":11167,"name":"Carutapera","latitude":-1.18025,"longitude":-45.95966},{"id":11218,"name":"Caxias","latitude":-4.85889,"longitude":-43.35611},{"id":11228,"name":"Cedral","latitude":-1.96086,"longitude":-44.57424},{"id":11240,"name":"Central do Maranhão","latitude":-2.25521,"longitude":-44.84104},{"id":11243,"name":"Centro do Guilherme","latitude":-2.28072,"longitude":-46.07349},{"id":11242,"name":"Centro Novo do Maranhão","latitude":-3.31669,"longitude":-46.79364},{"id":11265,"name":"Chapadinha","latitude":-3.74167,"longitude":-43.36028},{"id":11292,"name":"Cidelândia","latitude":-5.05234,"longitude":-47.86857},{"id":11314,"name":"Codó","latitude":-4.45528,"longitude":-43.88556},{"id":11315,"name":"Coelho Neto","latitude":-4.25667,"longitude":-43.01278},{"id":11322,"name":"Colinas","latitude":-6.02583,"longitude":-44.24917},{"id":11359,"name":"Conceição do Lago-Açu","latitude":-3.73591,"longitude":-44.79669},{"id":11413,"name":"Coroatá","latitude":-4.13,"longitude":-44.12417},{"id":11535,"name":"Cururupu","latitude":-1.82833,"longitude":-44.86833},{"id":11565,"name":"Davinópolis","latitude":-5.57008,"longitude":-47.3064},{"id":11633,"name":"Dom Pedro","latitude":-5.03749,"longitude":-44.43857},{"id":11668,"name":"Duque Bacelar","latitude":-4.11143,"longitude":-43.03176},{"id":11730,"name":"Esperantinópolis","latitude":-4.86667,"longitude":-44.70833},{"id":11747,"name":"Estreito","latitude":-5.78333,"longitude":-43.25},{"id":11792,"name":"Feira Nova do Maranhão","latitude":-6.99561,"longitude":-46.64999},{"id":11804,"name":"Fernando Falcão","latitude":-6.35293,"longitude":-45.3281},{"id":11853,"name":"Formosa da Serra Negra","latitude":-6.69535,"longitude":-46.1954},{"id":11866,"name":"Fortaleza dos Nogueiras","latitude":-6.86722,"longitude":-46.021},{"id":11869,"name":"Fortuna","latitude":-5.73333,"longitude":-44.15833},{"id":11954,"name":"Godofredo Viana","latitude":-1.27605,"longitude":-45.7655},{"id":11975,"name":"Gonçalves Dias","latitude":-5.15671,"longitude":-44.28658},{"id":11978,"name":"Governador Archer","latitude":-4.98399,"longitude":-44.20513},{"id":11982,"name":"Governador Edison Lobão","latitude":-5.74311,"longitude":-47.32545},{"id":11983,"name":"Governador Eugênio Barros","latitude":-5.42581,"longitude":-43.88031},{"id":11986,"name":"Governador Luiz Rocha","latitude":-5.52826,"longitude":-44.11154},{"id":11988,"name":"Governador Newton Bello","latitude":-3.36796,"longitude":-45.65707},{"id":11989,"name":"Governador Nunes Freire","latitude":-2.00992,"longitude":-45.84278},{"id":12004,"name":"Graça Aranha","latitude":-5.44492,"longitude":-44.25169},{"id":11992,"name":"Grajaú","latitude":-5.81944,"longitude":-46.13861},{"id":12082,"name":"Guimarães","latitude":-2.1199,"longitude":-44.63479},{"id":12112,"name":"Humberto de Campos","latitude":-2.59833,"longitude":-43.46111},{"id":12170,"name":"Icatu","latitude":-2.77583,"longitude":-44.06583},{"id":12185,"name":"Igarapé do Meio","latitude":-3.72514,"longitude":-45.10975},{"id":12183,"name":"Igarapé Grande","latitude":-4.64974,"longitude":-44.83905},{"id":12226,"name":"Imperatriz","latitude":-5.52639,"longitude":-47.49167},{"id":12359,"name":"Itaipava do Grajaú","latitude":-5.22087,"longitude":-45.78512},{"id":12406,"name":"Itapecuru Mirim","latitude":-3.3925,"longitude":-44.35861},{"id":12474,"name":"Itinga do Maranhão","latitude":-4.52832,"longitude":-47.48859},{"id":12603,"name":"Jatobá","latitude":-5.86233,"longitude":-44.26917},{"id":12613,"name":"Jenipapo dos Vieiras","latitude":-5.50699,"longitude":-45.54241},{"id":12662,"name":"João Lisboa","latitude":-5.22723,"longitude":-47.1826},{"id":12648,"name":"Joselândia","latitude":-5.00747,"longitude":-44.73158},{"id":12682,"name":"Junco do Maranhão","latitude":-1.94176,"longitude":-46.11711},{"id":12729,"name":"Lago da Pedra","latitude":-4.28674,"longitude":-45.23824},{"id":12730,"name":"Lago do Junco","latitude":-4.47033,"longitude":-44.91005},{"id":12731,"name":"Lago dos Rodrigues","latitude":-4.61099,"longitude":-44.97837},{"id":12728,"name":"Lago Verde","latitude":-3.99073,"longitude":-44.88312},{"id":12760,"name":"Lagoa do Mato","latitude":-5.95535,"longitude":-43.63105},{"id":12740,"name":"Lagoa Grande do Maranhão","latitude":-4.93168,"longitude":-45.3495},{"id":12778,"name":"Lajeado Novo","latitude":-6.10634,"longitude":-46.90224},{"id":12827,"name":"Lima Campos","latitude":-4.55295,"longitude":-44.47986},{"id":12853,"name":"Loreto","latitude":-7.11921,"longitude":-45.23138},{"id":12880,"name":"Luís Domingues","latitude":-1.26964,"longitude":-45.83792},{"id":12912,"name":"Magalhães de Almeida","latitude":-3.32329,"longitude":-42.12855},{"id":12970,"name":"Maracaçumé","latitude":-2.04278,"longitude":-45.95917},{"id":12976,"name":"Marajá do Sena","latitude":-4.70009,"longitude":-45.63144},{"id":12978,"name":"Maranhãozinho","latitude":-2.45247,"longitude":-45.98846},{"id":13047,"name":"Mata Roma","latitude":-3.58219,"longitude":-43.23178},{"id":13060,"name":"Matinha","latitude":-3.10056,"longitude":-45.03361},{"id":13078,"name":"Matões","latitude":-5.41542,"longitude":-43.40049},{"id":13079,"name":"Matões do Norte","latitude":-3.77876,"longitude":-44.40753},{"id":13116,"name":"Milagres do Maranhão","latitude":-3.50554,"longitude":-42.86468},{"id":13134,"name":"Mirador","latitude":-6.47266,"longitude":-45.11312},{"id":13139,"name":"Miranda do Norte","latitude":-3.53142,"longitude":-44.52685},{"id":13156,"name":"Mirinzal","latitude":-2.04774,"longitude":-44.77403},{"id":13225,"name":"Monção","latitude":-3.53292,"longitude":-45.3069},{"id":13219,"name":"Montes Altos","latitude":-5.83333,"longitude":-47.06667},{"id":13251,"name":"Morros","latitude":-2.96159,"longitude":-43.87725},{"id":13326,"name":"Nina Rodrigues","latitude":-3.46375,"longitude":-43.77165},{"id":13369,"name":"Nova Colinas","latitude":-7.26656,"longitude":-46.29184},{"id":13392,"name":"Nova Iorque","latitude":-6.74961,"longitude":-44.03977},{"id":13412,"name":"Nova Olinda do Maranhão","latitude":-2.84498,"longitude":-45.9201},{"id":13496,"name":"Olho d'Água das Cunhãs","latitude":-4.02629,"longitude":-45.04831},{"id":13503,"name":"Olinda Nova do Maranhão","latitude":-2.99757,"longitude":-44.96574},{"id":13742,"name":"Paço do Lumiar","latitude":-2.48019,"longitude":-44.11054},{"id":13601,"name":"Palmeirândia","latitude":-2.65916,"longitude":-45.06713},{"id":13629,"name":"Paraibano","latitude":-6.40952,"longitude":-43.84714},{"id":13681,"name":"Parnarama","latitude":-5.52914,"longitude":-43.60353},{"id":13693,"name":"Passagem Franca","latitude":-6.10747,"longitude":-43.75355},{"id":13702,"name":"Pastos Bons","latitude":-6.766,"longitude":-44.24234},{"id":13724,"name":"Paulino Neves","latitude":-2.88588,"longitude":-42.58808},{"id":13736,"name":"Paulo Ramos","latitude":-4.44876,"longitude":-45.23758},{"id":13768,"name":"Pedreiras","latitude":-4.58272,"longitude":-44.59924},{"id":13785,"name":"Pedro do Rosário","latitude":-2.9739,"longitude":-45.4525},{"id":13793,"name":"Penalva","latitude":-3.29417,"longitude":-45.17361},{"id":13808,"name":"Peri Mirim","latitude":-2.54231,"longitude":-44.93384},{"id":13811,"name":"Peritoró","latitude":-4.44047,"longitude":-44.28178},{"id":13849,"name":"Pindaré Mirim","latitude":-3.60833,"longitude":-45.34333},{"id":13850,"name":"Pindaré-Mirim","latitude":-3.62515,"longitude":-45.39384},{"id":13868,"name":"Pinheiro","latitude":-2.69907,"longitude":-45.12244},{"id":13879,"name":"Pio XII","latitude":-3.89451,"longitude":-45.16617},{"id":13898,"name":"Pirapemas","latitude":-3.77957,"longitude":-44.27746},{"id":14055,"name":"Poção de Pedras","latitude":-4.78496,"longitude":-44.91232},{"id":14007,"name":"Porto Franco","latitude":-6.34635,"longitude":-47.07258},{"id":14016,"name":"Porto Rico do Maranhão","latitude":-1.85517,"longitude":-44.6093},{"id":14079,"name":"Presidente Dutra","latitude":-5.30484,"longitude":-44.50508},{"id":14084,"name":"Presidente Juscelino","latitude":-3.08609,"longitude":-44.07739},{"id":14092,"name":"Presidente Médici","latitude":-2.38729,"longitude":-45.84126},{"id":14096,"name":"Presidente Sarney","latitude":-2.62072,"longitude":-45.43931},{"id":14098,"name":"Presidente Vargas","latitude":-3.42385,"longitude":-44.01015},{"id":14104,"name":"Primeira Cruz","latitude":-2.65082,"longitude":-43.32895},{"id":14174,"name":"Raposa","latitude":-6.51667,"longitude":-44.18333},{"id":14220,"name":"Riachão","latitude":-7.36194,"longitude":-46.61722},{"id":14229,"name":"Ribamar Fiquene","latitude":-5.93436,"longitude":-47.29792},{"id":14350,"name":"Rosário","latitude":-2.96001,"longitude":-44.17429},{"id":14408,"name":"Sambaíba","latitude":-7.61486,"longitude":-45.67749},{"id":14463,"name":"Santa Filomena do Maranhão","latitude":-5.48267,"longitude":-44.55176},{"id":14470,"name":"Santa Helena","latitude":-2.4266,"longitude":-45.38362},{"id":14477,"name":"Santa Inês","latitude":-3.75659,"longitude":-45.40393},{"id":14491,"name":"Santa Luzia","latitude":-4.18778,"longitude":-45.87797},{"id":14496,"name":"Santa Luzia do Paruá","latitude":-2.54684,"longitude":-45.75943},{"id":14523,"name":"Santa Quitéria do Maranhão","latitude":-3.30241,"longitude":-42.95484},{"id":14524,"name":"Santa Rita","latitude":-3.16346,"longitude":-44.32883},{"id":14587,"name":"Santana do Maranhão","latitude":-3.13508,"longitude":-42.74876},{"id":14606,"name":"Santo Amaro do Maranhão","latitude":-2.62026,"longitude":-43.16505},{"id":14642,"name":"Santo Antônio dos Lopes","latitude":-4.82567,"longitude":-44.47506},{"id":14832,"name":"São Benedito do Rio Preto","latitude":-3.33098,"longitude":-43.74036},{"id":14835,"name":"São Bento","latitude":-2.69583,"longitude":-44.82139},{"id":14845,"name":"São Bernardo","latitude":-3.43614,"longitude":-42.40555},{"id":14868,"name":"São Domingos do Azeitão","latitude":-6.85798,"longitude":-44.58281},{"id":14871,"name":"São Domingos do Maranhão","latitude":-5.57583,"longitude":-44.38528},{"id":14900,"name":"São Félix de Balsas","latitude":-6.94884,"longitude":-44.83461},{"id":14890,"name":"São Francisco do Brejão","latitude":-5.1388,"longitude":-47.34887},{"id":14894,"name":"São Francisco do Maranhão","latitude":-6.23353,"longitude":-42.95249},{"id":15000,"name":"São João Batista","latitude":-2.95528,"longitude":-44.80694},{"id":15028,"name":"São João do Carú","latitude":-3.55923,"longitude":-46.39242},{"id":15037,"name":"São João do Paraíso","latitude":-6.40174,"longitude":-46.88929},{"id":15044,"name":"São João do Soter","latitude":-4.96497,"longitude":-43.73953},{"id":15049,"name":"São João dos Patos","latitude":-6.495,"longitude":-43.70222},{"id":14957,"name":"São José de Ribamar","latitude":-2.56194,"longitude":-44.05417},{"id":14992,"name":"São José dos Basílios","latitude":-5.05917,"longitude":-44.59458},{"id":15063,"name":"São Luís","latitude":-2.52972,"longitude":-44.30278},{"id":15064,"name":"São Luís Gonzaga do Maranhão","latitude":-4.37871,"longitude":-44.71595},{"id":15076,"name":"São Mateus do Maranhão","latitude":-4.04167,"longitude":-44.475},{"id":15112,"name":"São Pedro da Água Branca","latitude":-5.16149,"longitude":-48.36104},{"id":15123,"name":"São Pedro dos Crentes","latitude":-6.81958,"longitude":-46.70736},{"id":15127,"name":"São Raimundo das Mangabeiras","latitude":-7.02194,"longitude":-45.48111},{"id":15128,"name":"São Raimundo do Doca Bezerra","latitude":-5.11025,"longitude":-45.06894},{"id":15129,"name":"São Roberto","latitude":-4.98137,"longitude":-44.991},{"id":15170,"name":"São Vicente Ferrer","latitude":-2.87717,"longitude":-44.9396},{"id":14674,"name":"Satubinha","latitude":-3.84804,"longitude":-45.25543},{"id":14693,"name":"Senador Alexandre Costa","latitude":-5.29207,"longitude":-43.87491},{"id":14703,"name":"Senador La Rocque","latitude":-5.42661,"longitude":-47.17194},{"id":14745,"name":"Serrano do Maranhão","latitude":-1.85659,"longitude":-45.08514},{"id":15176,"name":"Sítio Novo","latitude":-6.1559,"longitude":-46.67216},{"id":14818,"name":"Sucupira do Norte","latitude":-6.46683,"longitude":-44.28011},{"id":14819,"name":"Sucupira do Riachão","latitude":-6.46791,"longitude":-43.49722},{"id":15258,"name":"Tasso Fragoso","latitude":-8.28599,"longitude":-45.85295},{"id":15313,"name":"Timbiras","latitude":-4.19692,"longitude":-43.82569},{"id":15318,"name":"Timon","latitude":-5.19778,"longitude":-42.88047},{"id":15366,"name":"Trizidela do Vale","latitude":-4.52222,"longitude":-44.61751},{"id":15390,"name":"Tufilândia","latitude":-3.76611,"longitude":-45.55606},{"id":15396,"name":"Tuntum","latitude":-5.60041,"longitude":-44.85537},{"id":15410,"name":"Turiaçu","latitude":-1.66333,"longitude":-45.37167},{"id":15411,"name":"Turilândia","latitude":-2.12411,"longitude":-45.34721},{"id":15422,"name":"Tutóia","latitude":-2.76194,"longitude":-42.27444},{"id":15467,"name":"Urbano Santos","latitude":-3.3797,"longitude":-43.38142},{"id":15512,"name":"Vargem Grande","latitude":-3.60095,"longitude":-43.85169},{"id":15552,"name":"Viana","latitude":-3.19698,"longitude":-45.00551},{"id":15573,"name":"Vila Nova dos Martírios","latitude":-5.06154,"longitude":-48.06797},{"id":15603,"name":"Vitória do Mearim","latitude":-3.46222,"longitude":-44.87056},{"id":15596,"name":"Vitorino Freire","latitude":-4.21879,"longitude":-45.3198},{"id":15647,"name":"Zé Doca","latitude":-3.22589,"longitude":-46.05729}]