[{"id":38733,"name":"Alavieska","latitude":64.16667,"longitude":24.3},{"id":38754,"name":"Haapajärvi","latitude":63.75,"longitude":25.33333},{"id":38755,"name":"Haapavesi","latitude":64.13333,"longitude":25.36667},{"id":38756,"name":"Hailuoto","latitude":65.009,"longitude":24.71385},{"id":38765,"name":"Haukipudas","latitude":65.17654,"longitude":25.35233},{"id":38772,"name":"Himanka","latitude":64.06218,"longitude":23.65447},{"id":38782,"name":"Ii","latitude":65.31735,"longitude":25.3731},{"id":38817,"name":"Kalajoki","latitude":64.25,"longitude":23.95},{"id":38890,"name":"Kärsämäki","latitude":63.96667,"longitude":25.76667},{"id":38844,"name":"Kempele","latitude":64.91314,"longitude":25.50339},{"id":38847,"name":"Kestilä","latitude":64.35002,"longitude":26.27921},{"id":38852,"name":"Kiiminki","latitude":65.13139,"longitude":25.79744},{"id":38879,"name":"Kuivaniemi","latitude":65.57847,"longitude":25.18814},{"id":38885,"name":"Kuusamo","latitude":65.96667,"longitude":29.18333},{"id":38915,"name":"Liminka","latitude":64.80985,"longitude":25.41545},{"id":38922,"name":"Lumijoki","latitude":64.83744,"longitude":25.18607},{"id":38932,"name":"Merijärvi","latitude":64.3,"longitude":24.45},{"id":38938,"name":"Muhos","latitude":64.80798,"longitude":25.99314},{"id":38953,"name":"Nivala","latitude":63.91667,"longitude":24.96667},{"id":38965,"name":"Oulainen","latitude":64.26667,"longitude":24.8},{"id":38966,"name":"Oulu","latitude":65.01236,"longitude":25.46816},{"id":38967,"name":"Oulunsalo","latitude":64.93456,"longitude":25.41121},{"id":38987,"name":"Piippola","latitude":64.16667,"longitude":25.96667},{"id":38995,"name":"Pudasjärvi","latitude":65.38333,"longitude":26.91667},{"id":38997,"name":"Pulkkila","latitude":64.26667,"longitude":25.86667},{"id":39003,"name":"Pyhäjärvi","latitude":63.66667,"longitude":25.9},{"id":39002,"name":"Pyhäjoki","latitude":64.46667,"longitude":24.23333},{"id":39005,"name":"Pyhäntä","latitude":64.1,"longitude":26.31667},{"id":39010,"name":"Raahe","latitude":64.68333,"longitude":24.48333},{"id":39014,"name":"Rantsila","latitude":64.50613,"longitude":25.66449},{"id":39020,"name":"Reisjärvi","latitude":63.61667,"longitude":24.9},{"id":39031,"name":"Ruukki","latitude":64.66667,"longitude":25.1},{"id":39046,"name":"Sievi","latitude":63.9,"longitude":24.5},{"id":39048,"name":"Siikajoki","latitude":64.81455,"longitude":24.75924},{"id":39068,"name":"Taivalkoski","latitude":65.56667,"longitude":28.25},{"id":39086,"name":"Tyrnävä","latitude":64.76469,"longitude":25.6523},{"id":39090,"name":"Utajärvi","latitude":64.75,"longitude":26.38333},{"id":39108,"name":"Vihanti","latitude":64.48472,"longitude":24.99157},{"id":39121,"name":"Yli-Ii","latitude":65.37181,"longitude":25.8458},{"id":39123,"name":"Ylikiiminki","latitude":65.08333,"longitude":26.25},{"id":39126,"name":"Ylivieska","latitude":64.08333,"longitude":24.55}]