[{"id":129905,"name":"Boghot Tumani","latitude":41.31495,"longitude":60.85327},{"id":129929,"name":"Gurlan","latitude":41.84472,"longitude":60.39194},{"id":129934,"name":"Hazorasp","latitude":41.31944,"longitude":61.07417},{"id":129945,"name":"Khiwa","latitude":41.37833,"longitude":60.36389},{"id":129991,"name":"Qŭshkŭpir","latitude":41.535,"longitude":60.34556},{"id":130001,"name":"Showot","latitude":41.65583,"longitude":60.3025},{"id":130013,"name":"Urganch","latitude":41.55,"longitude":60.63333}]