[{"id":38758,"name":"Halsua","latitude":63.46667,"longitude":24.16667},{"id":38888,"name":"Kälviä","latitude":63.86067,"longitude":23.45289},{"id":38824,"name":"Kannus","latitude":63.9,"longitude":23.9},{"id":38838,"name":"Kaustinen","latitude":63.54878,"longitude":23.68845},{"id":38864,"name":"Kokkola","latitude":63.85414,"longitude":23.58562},{"id":38911,"name":"Lestijärvi","latitude":63.53333,"longitude":24.65},{"id":38918,"name":"Lohtaja","latitude":64.02472,"longitude":23.50482},{"id":38977,"name":"Perho","latitude":63.21667,"longitude":24.41667},{"id":39078,"name":"Toholampi","latitude":63.76667,"longitude":24.25},{"id":39088,"name":"Ullava","latitude":63.6,"longitude":24.08333},{"id":39106,"name":"Veteli","latitude":63.47839,"longitude":23.78285}]