[{"id":149561,"name":"Charlotte Amalie","latitude":18.3412761,"longitude":-64.9483869},{"id":149562,"name":"East End","latitude":18.3290162,"longitude":-64.8704731},{"id":149563,"name":"Northside","latitude":18.3738081,"longitude":-64.9558909},{"id":149564,"name":"Southside","latitude":18.3052912,"longitude":-64.9172445},{"id":149565,"name":"Tutu","latitude":18.3388427,"longitude":-64.8953072},{"id":149566,"name":"Water Island","latitude":18.3208653,"longitude":-64.9693263},{"id":149567,"name":"West End","latitude":18.3724367,"longitude":-65.0649013}]