[{"id":130759,"name":"Al ‘Udayn","latitude":13.96112,"longitude":43.96608},{"id":130685,"name":"Al Dhihar","latitude":13.979,"longitude":44.1526},{"id":130716,"name":"Al Makhādir","latitude":14.13965,"longitude":44.2033},{"id":130723,"name":"Al Mashannah","latitude":13.9573,"longitude":44.17},{"id":130746,"name":"Al Qafr","latitude":14.3129,"longitude":44.03},{"id":130764,"name":"An Nādirah","latitude":14.07398,"longitude":44.49925},{"id":130765,"name":"Ar Radmah","latitude":14.212,"longitude":44.5642},{"id":130772,"name":"As Sabrah","latitude":13.8427,"longitude":44.3386},{"id":130773,"name":"As Saddah","latitude":14.1661,"longitude":44.3751},{"id":130782,"name":"As Sayyani","latitude":13.8224,"longitude":44.2118},{"id":130786,"name":"Ash Sha'ir","latitude":14.0318,"longitude":44.3619},{"id":130810,"name":"Ba'dan","latitude":13.9887,"longitude":44.3236},{"id":130839,"name":"Dhī as Sufāl","latitude":13.82137,"longitude":44.07775},{"id":130841,"name":"Far Al Udayn","latitude":13.9578,"longitude":43.7827},{"id":130864,"name":"Hazm Al Udayn","latitude":14.16984,"longitude":43.93814},{"id":130867,"name":"Hubaysh","latitude":14.116,"longitude":44.0824},{"id":130871,"name":"Ibb","latitude":13.96667,"longitude":44.18333},{"id":130882,"name":"Jiblah","latitude":13.9148,"longitude":44.1213},{"id":130927,"name":"Mudhaykhirah","latitude":13.86608,"longitude":43.96866},{"id":131005,"name":"Yarīm","latitude":14.25388,"longitude":44.31176}]