[{"id":79673,"name":"Å i Åfjord","latitude":63.96068,"longitude":10.22468},{"id":79674,"name":"Åfjord","latitude":63.96196,"longitude":10.22587},{"id":79037,"name":"Agdenes","latitude":63.50575,"longitude":9.82623},{"id":79071,"name":"Berkåk","latitude":62.82496,"longitude":10.01177},{"id":79077,"name":"Bjugn","latitude":63.76522,"longitude":9.8094},{"id":79085,"name":"Botngård","latitude":63.76484,"longitude":9.80863},{"id":79087,"name":"Brekstad","latitude":63.68697,"longitude":9.66541},{"id":79139,"name":"Fillan","latitude":63.60638,"longitude":8.96961},{"id":79147,"name":"Flatanger","latitude":64.41282,"longitude":11.03285},{"id":79156,"name":"Fosnes","latitude":64.6591,"longitude":11.26535},{"id":79163,"name":"Frosta","latitude":63.5891,"longitude":10.7423},{"id":79165,"name":"Frøya","latitude":63.73005,"longitude":8.82426},{"id":79190,"name":"Grong","latitude":64.46397,"longitude":12.31114},{"id":79214,"name":"Hemne","latitude":63.29095,"longitude":9.08893},{"id":79222,"name":"Hitra","latitude":63.54528,"longitude":8.78029},{"id":79230,"name":"Holtålen","latitude":62.84318,"longitude":11.29284},{"id":79231,"name":"Hommelvik","latitude":63.41083,"longitude":10.79424},{"id":79249,"name":"Høylandet","latitude":64.62759,"longitude":12.30041},{"id":79251,"name":"Inderøy","latitude":63.87826,"longitude":11.28424},{"id":79253,"name":"Indre Fosen","latitude":63.58897,"longitude":9.95847},{"id":79275,"name":"Klæbu","latitude":63.3006,"longitude":10.48188},{"id":79280,"name":"Kolvereid","latitude":64.86549,"longitude":11.60465},{"id":79298,"name":"Kyrksæterøra","latitude":63.29057,"longitude":9.08909},{"id":79305,"name":"Lauvsnes","latitude":64.50061,"longitude":10.89396},{"id":79312,"name":"Leka","latitude":65.09244,"longitude":11.70513},{"id":79319,"name":"Levanger","latitude":63.74585,"longitude":11.29991},{"id":79321,"name":"Lierne","latitude":64.46413,"longitude":13.59249},{"id":79331,"name":"Lundamo","latitude":63.15216,"longitude":10.28555},{"id":79348,"name":"Malm","latitude":64.07534,"longitude":11.22398},{"id":79349,"name":"Malvik","latitude":63.41057,"longitude":10.79382},{"id":79359,"name":"Meldal","latitude":63.04598,"longitude":9.71088},{"id":79360,"name":"Melhus","latitude":63.28755,"longitude":10.27686},{"id":79363,"name":"Meråker","latitude":63.41423,"longitude":11.74558},{"id":79365,"name":"Midtre Gauldal","latitude":63.03902,"longitude":10.28701},{"id":79382,"name":"Namdalseid","latitude":64.10843,"longitude":10.91862},{"id":79383,"name":"Namsos","latitude":64.47842,"longitude":11.54182},{"id":79384,"name":"Namsskogan","latitude":64.92597,"longitude":13.15932},{"id":79416,"name":"Nærøy","latitude":64.86298,"longitude":11.60505},{"id":79419,"name":"Oppdal","latitude":62.59495,"longitude":9.68761},{"id":79421,"name":"Orkdal","latitude":63.29989,"longitude":9.84365},{"id":79424,"name":"Osen","latitude":64.29875,"longitude":10.51284},{"id":79428,"name":"Overhalla","latitude":64.4938,"longitude":11.94753},{"id":79695,"name":"Ørland","latitude":63.68574,"longitude":9.66633},{"id":79433,"name":"Raarvihke - Røyrvik","latitude":64.8838,"longitude":13.5631},{"id":79438,"name":"Ranemsletta","latitude":64.49447,"longitude":11.94912},{"id":79446,"name":"Rennebu","latitude":62.82864,"longitude":10.00487},{"id":79449,"name":"Rindal","latitude":63.05511,"longitude":9.21274},{"id":79454,"name":"Roan","latitude":64.17281,"longitude":10.22511},{"id":79468,"name":"Røros","latitude":62.57562,"longitude":11.3873},{"id":79469,"name":"Rørvik","latitude":64.86185,"longitude":11.23969},{"id":79472,"name":"Røyrvik","latitude":64.88394,"longitude":13.56256},{"id":79491,"name":"Selbu","latitude":63.2177,"longitude":11.03938},{"id":79500,"name":"Sistranda","latitude":63.72523,"longitude":8.83318},{"id":79505,"name":"Skaun","latitude":63.32386,"longitude":10.06745},{"id":79516,"name":"Skogn","latitude":63.70374,"longitude":11.19262},{"id":79527,"name":"Snåase","latitude":64.2457,"longitude":12.37779},{"id":79528,"name":"Snåase - Snåsa","latitude":64.24606,"longitude":12.38294},{"id":79526,"name":"Snillfjord","latitude":63.39973,"longitude":9.50194},{"id":79541,"name":"Steinkjer","latitude":64.19303,"longitude":11.38505},{"id":79543,"name":"Stjørdal","latitude":63.56699,"longitude":11.0273},{"id":79544,"name":"Stjørdalshalsen","latitude":63.4681,"longitude":10.92618},{"id":79559,"name":"Straumen","latitude":63.87163,"longitude":11.29617},{"id":79609,"name":"Trondheim","latitude":63.42811,"longitude":10.39687},{"id":79614,"name":"Tydal","latitude":63.04477,"longitude":11.65038},{"id":79640,"name":"Verdal","latitude":63.90023,"longitude":11.72724},{"id":79641,"name":"Verran","latitude":64.071,"longitude":11.21795},{"id":79656,"name":"Vikna","latitude":64.86362,"longitude":11.24198}]