[{"id":30575,"name":"Aalborg","latitude":57.048,"longitude":9.9187},{"id":30576,"name":"Aars","latitude":56.80399,"longitude":9.51441},{"id":30989,"name":"Åbybro","latitude":57.16249,"longitude":9.72996},{"id":30991,"name":"Ålborg Kommune","latitude":57.0,"longitude":9.95},{"id":30992,"name":"Ålestrup","latitude":56.6947,"longitude":9.49336},{"id":30581,"name":"Arden","latitude":56.76899,"longitude":9.86184},{"id":30608,"name":"Brovst","latitude":57.0975,"longitude":9.52264},{"id":30611,"name":"Brønderslev","latitude":57.27021,"longitude":9.94102},{"id":30612,"name":"Brønderslev Kommune","latitude":57.23506,"longitude":10.10061},{"id":30624,"name":"Dronninglund","latitude":57.16035,"longitude":10.29287},{"id":30637,"name":"Farsø","latitude":56.77276,"longitude":9.33925},{"id":30644,"name":"Fjerritslev","latitude":57.08822,"longitude":9.26622},{"id":30655,"name":"Frederikshavn","latitude":57.44073,"longitude":10.53661},{"id":30656,"name":"Frederikshavn Kommune","latitude":57.43347,"longitude":10.42507},{"id":30660,"name":"Frejlev","latitude":57.00623,"longitude":9.81711},{"id":30667,"name":"Gistrup","latitude":56.9943,"longitude":9.99085},{"id":30689,"name":"Hadsund","latitude":56.71482,"longitude":10.11682},{"id":30690,"name":"Hals","latitude":56.99609,"longitude":10.30807},{"id":30694,"name":"Hanstholm","latitude":57.11667,"longitude":8.61667},{"id":30710,"name":"Hirtshals","latitude":57.58812,"longitude":9.95922},{"id":30711,"name":"Hjallerup","latitude":57.16466,"longitude":10.14571},{"id":30713,"name":"Hjørring","latitude":57.46417,"longitude":9.98229},{"id":30714,"name":"Hjørring Kommune","latitude":57.45682,"longitude":10.05859},{"id":30715,"name":"Hobro","latitude":56.64306,"longitude":9.79029},{"id":30729,"name":"Hurup","latitude":56.74944,"longitude":8.41953},{"id":30747,"name":"Jammerbugt Kommune","latitude":57.14583,"longitude":9.5625},{"id":30769,"name":"Kås","latitude":57.19774,"longitude":9.67173},{"id":30761,"name":"Klarup","latitude":57.01194,"longitude":10.05617},{"id":30788,"name":"Læso Kommune","latitude":57.26774,"longitude":11.02265},{"id":30789,"name":"Løgstør","latitude":56.96245,"longitude":9.2583},{"id":30793,"name":"Løkken","latitude":57.37047,"longitude":9.71466},{"id":30795,"name":"Mariager","latitude":56.64985,"longitude":9.97515},{"id":30796,"name":"Mariagerfjord Kommune","latitude":56.69722,"longitude":9.84722},{"id":30801,"name":"Morsø Kommune","latitude":56.79622,"longitude":8.73272},{"id":30809,"name":"Nibe","latitude":56.9815,"longitude":9.63917},{"id":30826,"name":"Nørresundby","latitude":57.05877,"longitude":9.92284},{"id":30818,"name":"Nykøbing Mors","latitude":56.79334,"longitude":8.85282},{"id":30836,"name":"Pandrup","latitude":57.22147,"longitude":9.67569},{"id":30840,"name":"Rebild Kommune","latitude":56.80556,"longitude":9.77778},{"id":30924,"name":"Sæby","latitude":57.33188,"longitude":10.52251},{"id":30869,"name":"Sindal","latitude":57.47117,"longitude":10.20312},{"id":30871,"name":"Skagen","latitude":57.72093,"longitude":10.58394},{"id":30881,"name":"Skørping","latitude":56.83626,"longitude":9.89255},{"id":30906,"name":"Storvorde","latitude":57.00392,"longitude":10.10125},{"id":30913,"name":"Støvring","latitude":56.88536,"longitude":9.83839},{"id":30907,"name":"Strandby","latitude":57.4915,"longitude":10.49609},{"id":30920,"name":"Svenstrup","latitude":56.9723,"longitude":9.84806},{"id":30948,"name":"Tårs","latitude":57.38333,"longitude":10.11667},{"id":30933,"name":"Thisted","latitude":56.95523,"longitude":8.69491},{"id":30934,"name":"Thisted Kommune","latitude":57.00397,"longitude":8.61834},{"id":30956,"name":"Vadum","latitude":57.1179,"longitude":9.857},{"id":30968,"name":"Vestbjerg","latitude":57.13166,"longitude":9.95942},{"id":30969,"name":"Vester Hassing","latitude":57.06767,"longitude":10.12558},{"id":30971,"name":"Vesthimmerland Kommune","latitude":56.8,"longitude":9.37083},{"id":30983,"name":"Vodskov","latitude":57.10854,"longitude":10.02215},{"id":30987,"name":"Vrå","latitude":57.3537,"longitude":9.94176}]