[{"id":52157,"name":"Apam","latitude":5.28483,"longitude":-0.73711},{"id":52168,"name":"Cape Coast","latitude":5.10535,"longitude":-1.2466},{"id":52171,"name":"Dunkwa","latitude":5.95996,"longitude":-1.77792},{"id":52173,"name":"Elmina","latitude":5.0847,"longitude":-1.35093},{"id":52174,"name":"Foso","latitude":5.70119,"longitude":-1.28657},{"id":52179,"name":"Kasoa","latitude":5.53449,"longitude":-0.41679},{"id":52192,"name":"Mumford","latitude":5.26176,"longitude":-0.75897},{"id":52199,"name":"Saltpond","latitude":5.20913,"longitude":-1.06058},{"id":52205,"name":"Swedru","latitude":5.53711,"longitude":-0.69984},{"id":52215,"name":"Winneba","latitude":5.35113,"longitude":-0.62313}]