[{"id":107060,"name":"Adaklı İlçesi","latitude":39.2287,"longitude":40.48252},{"id":107358,"name":"Bingöl","latitude":38.88472,"longitude":40.49389},{"id":107661,"name":"Genç","latitude":38.74773,"longitude":40.55343},{"id":107927,"name":"Karlıova","latitude":39.29044,"longitude":41.00594},{"id":108002,"name":"Kiğı İlçesi","latitude":39.30894,"longitude":40.34995},{"id":108182,"name":"Merkez","latitude":38.95025,"longitude":40.52802},{"id":108483,"name":"Solhan","latitude":38.96525,"longitude":41.05443},{"id":108681,"name":"Yayladere","latitude":39.22614,"longitude":40.0695},{"id":108688,"name":"Yedisu","latitude":39.43277,"longitude":40.53368}]