[{"id":97478,"name":"Abakan","latitude":53.71556,"longitude":91.42917},{"id":97479,"name":"Abakan Gorod","latitude":53.71667,"longitude":91.43333},{"id":97484,"name":"Abaza","latitude":52.655,"longitude":90.09278},{"id":97602,"name":"Altayskiy Rayon","latitude":53.5,"longitude":91.5},{"id":97704,"name":"Askiz","latitude":53.13194,"longitude":90.52639},{"id":97880,"name":"Belyy Yar","latitude":53.60389,"longitude":91.39028},{"id":97917,"name":"Beya","latitude":53.05333,"longitude":90.91389},{"id":97941,"name":"Biskamzha","latitude":53.44972,"longitude":89.52722},{"id":97979,"name":"Bograd","latitude":54.23444,"longitude":90.83278},{"id":97980,"name":"Bogradskiy Rayon","latitude":54.33333,"longitude":91.0},{"id":98191,"name":"Cherëmushki","latitude":52.85576,"longitude":91.41672},{"id":98170,"name":"Chernogorsk","latitude":53.82361,"longitude":91.28417},{"id":99165,"name":"Kommunar","latitude":54.34835,"longitude":89.28297},{"id":99827,"name":"Mayna","latitude":53.00639,"longitude":91.48361},{"id":100730,"name":"Podsineye","latitude":53.66583,"longitude":91.53639},{"id":101139,"name":"Sayanogorsk","latitude":53.0875,"longitude":91.39972},{"id":101326,"name":"Shira","latitude":54.49111,"longitude":89.95306},{"id":101479,"name":"Sorsk","latitude":54.00333,"longitude":90.24667},{"id":101790,"name":"Tashtyp","latitude":52.79542,"longitude":89.89477},{"id":101963,"name":"Tuim","latitude":54.33949,"longitude":89.94586},{"id":102113,"name":"Ust’-Abakan","latitude":53.83651,"longitude":91.39077},{"id":102284,"name":"Vershina Tei","latitude":53.26858,"longitude":89.56008}]