[{"id":22012,"name":"Akáki","latitude":35.13341,"longitude":33.12873},{"id":22013,"name":"Alámpra","latitude":34.98898,"longitude":33.39887},{"id":22016,"name":"Aredioú","latitude":35.04844,"longitude":33.1961},{"id":22018,"name":"Astromerítis","latitude":35.14096,"longitude":33.03793},{"id":22025,"name":"Dáli","latitude":35.02294,"longitude":33.42195},{"id":22027,"name":"Ergátes","latitude":35.05365,"longitude":33.24292},{"id":22035,"name":"Géri","latitude":35.1056,"longitude":33.41977},{"id":22036,"name":"Kakopetriá","latitude":34.98768,"longitude":32.90468},{"id":22047,"name":"Káto Defterá","latitude":35.08489,"longitude":33.27558},{"id":22048,"name":"Káto Pýrgos","latitude":35.17897,"longitude":32.686},{"id":22038,"name":"Klírou","latitude":35.02004,"longitude":33.17806},{"id":22040,"name":"Kokkinotrimithiá","latitude":35.15303,"longitude":33.19966},{"id":22060,"name":"Léfka","latitude":35.11199,"longitude":32.84997},{"id":22061,"name":"Lýmpia","latitude":34.99889,"longitude":33.46175},{"id":22058,"name":"Lythrodóntas","latitude":34.95105,"longitude":33.29777},{"id":22066,"name":"Mámmari","latitude":35.17604,"longitude":33.20435},{"id":22067,"name":"Méniko","latitude":35.10945,"longitude":33.14474},{"id":22068,"name":"Mórfou","latitude":35.19869,"longitude":32.99338},{"id":22069,"name":"Nicosia","latitude":35.17531,"longitude":33.3642},{"id":22070,"name":"Nicosia Municipality","latitude":35.16944,"longitude":33.36081},{"id":22083,"name":"Páno Defterá","latitude":35.07778,"longitude":33.26584},{"id":22086,"name":"Péra","latitude":35.0335,"longitude":33.25413},{"id":22075,"name":"Peristeróna","latitude":35.12928,"longitude":33.07858},{"id":22080,"name":"Psimolofou","latitude":35.0625,"longitude":33.2625},{"id":22097,"name":"Tséri","latitude":35.07307,"longitude":33.32344}]