[{"id":76775,"name":"Apapa","latitude":6.4488,"longitude":3.35901},{"id":76789,"name":"Badagry","latitude":6.41502,"longitude":2.88132},{"id":76851,"name":"Ebute Ikorodu","latitude":6.60086,"longitude":3.48818},{"id":76857,"name":"Ejirin","latitude":6.61423,"longitude":3.90019},{"id":76864,"name":"Epe","latitude":6.58412,"longitude":3.98336},{"id":76932,"name":"Ikeja","latitude":6.59651,"longitude":3.34205},{"id":77002,"name":"Lagos","latitude":6.45407,"longitude":3.39467},{"id":77020,"name":"Makoko","latitude":6.49611,"longitude":3.38778}]