[{"id":31903,"name":"Abanilla","latitude":38.20537,"longitude":-1.04153},{"id":31905,"name":"Abarán","latitude":38.20551,"longitude":-1.39907},{"id":38574,"name":"Águilas","latitude":37.4063,"longitude":-1.58289},{"id":32057,"name":"Albudeite","latitude":38.02895,"longitude":-1.38664},{"id":32084,"name":"Alcantarilla","latitude":37.96939,"longitude":-1.21714},{"id":152976,"name":"Alcázares Los","latitude":0.0,"longitude":0.0},{"id":32182,"name":"Aledo","latitude":37.79341,"longitude":-1.57356},{"id":32229,"name":"Alguazas","latitude":38.05356,"longitude":-1.25051},{"id":32236,"name":"Alhama de Murcia","latitude":37.85103,"longitude":-1.42507},{"id":32430,"name":"Archena","latitude":38.11631,"longitude":-1.30043},{"id":32546,"name":"Atamaría","latitude":37.59989,"longitude":-0.80682},{"id":32677,"name":"Barrio de la Concepción","latitude":37.6,"longitude":-1.0},{"id":32800,"name":"Beniel","latitude":38.04636,"longitude":-1.00233},{"id":32905,"name":"Blanca","latitude":38.1791,"longitude":-1.37473},{"id":33018,"name":"Bullas","latitude":38.04667,"longitude":-1.67227},{"id":33131,"name":"Calasparra","latitude":38.22997,"longitude":-1.69986},{"id":33211,"name":"Campos del Río","latitude":38.03966,"longitude":-1.35306},{"id":33277,"name":"Caravaca","latitude":38.10558,"longitude":-1.86343},{"id":152971,"name":"Caravaca de la Cruz","latitude":0.0,"longitude":0.0},{"id":33336,"name":"Cartagena","latitude":37.60512,"longitude":-0.98623},{"id":33560,"name":"Cehegín","latitude":38.09242,"longitude":-1.7985},{"id":33610,"name":"Ceuti","latitude":38.07859,"longitude":-1.27467},{"id":33659,"name":"Cieza","latitude":38.23998,"longitude":-1.41987},{"id":33706,"name":"Cobatillas","latitude":38.05545,"longitude":-1.07683},{"id":34009,"name":"El Plan","latitude":37.65,"longitude":-1.01667},{"id":34104,"name":"Esparragal","latitude":38.03333,"longitude":-1.08333},{"id":34231,"name":"Fortuna","latitude":38.1814,"longitude":-1.1259},{"id":152972,"name":"Fuente Álamo de Murcia","latitude":0.0,"longitude":0.0},{"id":34308,"name":"Fuente-Álamo de Murcia","latitude":37.72389,"longitude":-1.16972},{"id":34828,"name":"Jumilla","latitude":38.47917,"longitude":-1.325},{"id":34893,"name":"La Manga del Mar Menor","latitude":37.64129,"longitude":-0.71651},{"id":34931,"name":"La Torrecilla","latitude":37.62363,"longitude":-1.72785},{"id":34932,"name":"La Unión","latitude":37.61915,"longitude":-0.87799},{"id":34993,"name":"Las Torres de Cotillas","latitude":38.02822,"longitude":-1.24188},{"id":35046,"name":"Librilla","latitude":37.88642,"longitude":-1.35557},{"id":35092,"name":"Lo Pagán","latitude":37.81761,"longitude":-0.78832},{"id":35113,"name":"Lorca","latitude":37.67119,"longitude":-1.7017},{"id":35115,"name":"Lorquí","latitude":38.08261,"longitude":-1.25103},{"id":35116,"name":"Los Alcázares","latitude":37.74425,"longitude":-0.85041},{"id":35121,"name":"Los Gabatos","latitude":37.63333,"longitude":-1.0},{"id":35125,"name":"Los Martínez","latitude":37.81841,"longitude":-1.0788},{"id":35356,"name":"Mazarrón","latitude":37.5992,"longitude":-1.31493},{"id":35478,"name":"Molina de Segura","latitude":38.05456,"longitude":-1.20763},{"id":35618,"name":"Moratalla","latitude":38.18928,"longitude":-1.89183},{"id":35661,"name":"Mula","latitude":38.04095,"longitude":-1.49014},{"id":35671,"name":"Murcia","latitude":37.98662,"longitude":-1.14146},{"id":35871,"name":"Ojós","latitude":38.147,"longitude":-1.34261},{"id":36245,"name":"Pliego","latitude":37.98946,"longitude":-1.50444},{"id":36445,"name":"Puerto Lumbreras","latitude":37.56329,"longitude":-1.80974},{"id":36621,"name":"Ricote","latitude":38.15338,"longitude":-1.36557},{"id":36840,"name":"San Javier","latitude":37.80626,"longitude":-0.83736},{"id":36910,"name":"San Pedro del Pinatar","latitude":37.83568,"longitude":-0.79102},{"id":36945,"name":"Sangonera la Verde","latitude":37.92862,"longitude":-1.20794},{"id":37026,"name":"Santa Cruz","latitude":38.0218,"longitude":-1.05749},{"id":37116,"name":"Santiago de la Ribera","latitude":37.79681,"longitude":-0.80544},{"id":37145,"name":"Santomera","latitude":38.06147,"longitude":-1.04877},{"id":37507,"name":"Torre-Pacheco","latitude":37.74293,"longitude":-0.95396},{"id":152973,"name":"Torres de Cotillas Las","latitude":0.0,"longitude":0.0},{"id":37606,"name":"Totana","latitude":37.7688,"longitude":-1.50229},{"id":37678,"name":"Ulea","latitude":38.14045,"longitude":-1.33007},{"id":152974,"name":"Unión La","latitude":0.0,"longitude":0.0},{"id":152975,"name":"Villanueva del Río Segura","latitude":0.0,"longitude":0.0},{"id":38431,"name":"Yecla","latitude":38.61365,"longitude":-1.11468}]