[{"id":79770,"name":"Arrowtown","latitude":-44.93837,"longitude":168.81007},{"id":79774,"name":"Balclutha","latitude":-46.23389,"longitude":169.75},{"id":79785,"name":"Clutha District","latitude":-46.03883,"longitude":169.60617},{"id":79787,"name":"Cromwell","latitude":-45.03837,"longitude":169.20008},{"id":79790,"name":"Dunedin","latitude":-45.87416,"longitude":170.50361},{"id":79815,"name":"Kingston","latitude":-45.33288,"longitude":168.71476},{"id":79830,"name":"Milton","latitude":-46.12083,"longitude":169.96944},{"id":79844,"name":"Oamaru","latitude":-45.09758,"longitude":170.97087},{"id":79855,"name":"Papatowai","latitude":-46.56069,"longitude":169.47068},{"id":79863,"name":"Portobello","latitude":-45.85,"longitude":170.65},{"id":79866,"name":"Queenstown","latitude":-45.03023,"longitude":168.66271},{"id":79912,"name":"Wanaka","latitude":-44.7,"longitude":169.15}]