[{"id":88906,"name":"Abrantes","latitude":39.46667,"longitude":-8.2},{"id":88916,"name":"Alcanede","latitude":39.41501,"longitude":-8.82189},{"id":88917,"name":"Alcanena","latitude":39.459,"longitude":-8.66892},{"id":88918,"name":"Alcanhões","latitude":39.29603,"longitude":-8.65847},{"id":88932,"name":"Alferrarede","latitude":39.48333,"longitude":-8.16667},{"id":88948,"name":"Almeirim","latitude":39.20837,"longitude":-8.62635},{"id":88952,"name":"Alpiarça","latitude":39.25712,"longitude":-8.58187},{"id":88963,"name":"Amiães de Baixo","latitude":39.44296,"longitude":-8.73358},{"id":89012,"name":"Azinhaga","latitude":39.34877,"longitude":-8.53005},{"id":89031,"name":"Bemfica","latitude":39.14325,"longitude":-8.68717},{"id":89032,"name":"Benavente","latitude":38.908,"longitude":-8.76898},{"id":89098,"name":"Cartaxo","latitude":39.15377,"longitude":-8.81373},{"id":89116,"name":"Chamusca","latitude":39.299,"longitude":-8.39933},{"id":89127,"name":"Constância","latitude":39.45718,"longitude":-8.30368},{"id":89130,"name":"Coruche","latitude":38.9595,"longitude":-8.52745},{"id":89143,"name":"Entroncamento","latitude":39.46667,"longitude":-8.46667},{"id":89201,"name":"Fátima","latitude":39.62071,"longitude":-8.65237},{"id":89169,"name":"Fazendas de Almeirim","latitude":39.17553,"longitude":-8.56927},{"id":89177,"name":"Ferreira do Zêzere","latitude":39.72303,"longitude":-8.31661},{"id":89211,"name":"Golegã","latitude":39.38683,"longitude":-8.50591},{"id":89285,"name":"Mação","latitude":39.59331,"longitude":-7.99772},{"id":89265,"name":"Madalena","latitude":39.57133,"longitude":-8.44635},{"id":89278,"name":"Marinhais","latitude":39.0473,"longitude":-8.70236},{"id":89300,"name":"Minde","latitude":39.51631,"longitude":-8.68799},{"id":89315,"name":"Monsanto","latitude":39.46203,"longitude":-8.7118},{"id":89317,"name":"Montalvinho","latitude":39.48333,"longitude":-8.3},{"id":89318,"name":"Montalvo","latitude":39.48333,"longitude":-8.3},{"id":89373,"name":"Ourém","latitude":39.66179,"longitude":-8.57895},{"id":89376,"name":"Paialvo","latitude":39.56399,"longitude":-8.46835},{"id":89392,"name":"Pego","latitude":39.46146,"longitude":-8.14955},{"id":89408,"name":"Pinheiro Grande","latitude":39.39212,"longitude":-8.4341},{"id":89409,"name":"Poceirão","latitude":38.83095,"longitude":-8.79365},{"id":89420,"name":"Pontével","latitude":39.14945,"longitude":-8.8388},{"id":89438,"name":"Praia do Ribatejo","latitude":39.46667,"longitude":-8.35},{"id":89463,"name":"Riachos","latitude":39.44472,"longitude":-8.5142},{"id":89471,"name":"Rio Maior","latitude":39.34288,"longitude":-8.93806},{"id":89486,"name":"Salvaterra de Magos","latitude":39.04482,"longitude":-8.68903},{"id":89488,"name":"Samora Correia","latitude":38.93709,"longitude":-8.87178},{"id":89506,"name":"Santa Margarida da Coutada","latitude":39.45,"longitude":-8.31667},{"id":89510,"name":"Santarém","latitude":39.23333,"longitude":-8.68333},{"id":89578,"name":"São Miguel de Rio Torto","latitude":39.43333,"longitude":-8.21667},{"id":89593,"name":"São Vicente do Paul","latitude":39.34946,"longitude":-8.62221},{"id":89521,"name":"Sardoal","latitude":39.55643,"longitude":-8.14323},{"id":89604,"name":"Tomar","latitude":39.60199,"longitude":-8.40924},{"id":89607,"name":"Torres Novas","latitude":39.4916,"longitude":-8.54796},{"id":89610,"name":"Tramagal","latitude":39.45,"longitude":-8.25},{"id":89626,"name":"Vale de Figueira","latitude":39.30569,"longitude":-8.62876},{"id":89627,"name":"Vale de Santarém","latitude":39.19052,"longitude":-8.72735},{"id":89646,"name":"Vila Chã de Ourique","latitude":39.17219,"longitude":-8.76658},{"id":89654,"name":"Vila Nova da Barquinha","latitude":39.46081,"longitude":-8.43588}]