[{"id":703,"name":"Buena Esperanza","latitude":-34.75647,"longitude":-65.25379},{"id":725,"name":"Candelaria","latitude":-32.06036,"longitude":-65.82477},{"id":788,"name":"Concarán","latitude":-32.56009,"longitude":-65.2427},{"id":1170,"name":"Juan Martín de Pueyrredón","latitude":-33.27544,"longitude":-66.32017},{"id":1174,"name":"Justo Daract","latitude":-33.8594,"longitude":-65.18277},{"id":1198,"name":"La Punta","latitude":-33.18368,"longitude":-66.3127},{"id":1202,"name":"La Toma","latitude":-33.05258,"longitude":-65.62385},{"id":1258,"name":"Luján","latitude":-32.36674,"longitude":-65.93642},{"id":1280,"name":"Merlo","latitude":-32.34288,"longitude":-65.01396},{"id":1297,"name":"Naschel","latitude":-32.91656,"longitude":-65.37535},{"id":1425,"name":"San Francisco del Monte de Oro","latitude":-32.59825,"longitude":-66.12539},{"id":1438,"name":"San Luis","latitude":-33.29501,"longitude":-66.33563},{"id":1470,"name":"Santa Rosa del Conlara","latitude":-32.34286,"longitude":-65.20323},{"id":1504,"name":"Tilisarao","latitude":-32.73292,"longitude":-65.29109},{"id":1520,"name":"Unión","latitude":-35.15282,"longitude":-65.94602},{"id":1555,"name":"Villa General Roca","latitude":-32.66535,"longitude":-66.45052},{"id":1565,"name":"Villa Mercedes","latitude":-33.67571,"longitude":-65.45783}]