[{"id":79955,"name":"Agua Buena","latitude":7.83465,"longitude":-80.39405},{"id":79976,"name":"Ave María","latitude":7.32481,"longitude":-80.45361},{"id":79978,"name":"Bahía Honda","latitude":7.70517,"longitude":-80.45342},{"id":79980,"name":"Bajo Corral","latitude":7.60463,"longitude":-80.26016},{"id":79988,"name":"Bayano","latitude":7.63014,"longitude":-80.38201},{"id":79990,"name":"Bella Vista","latitude":7.75,"longitude":-80.23333},{"id":80029,"name":"Cambutal","latitude":7.26534,"longitude":-80.49105},{"id":80037,"name":"Cañas","latitude":7.44713,"longitude":-80.2648},{"id":80042,"name":"Cedro Arriba","latitude":7.78097,"longitude":-80.53057},{"id":80111,"name":"Distrito de Guararé","latitude":7.77021,"longitude":-80.37515},{"id":80117,"name":"Distrito de Las Tablas","latitude":7.64843,"longitude":-80.29933},{"id":80119,"name":"Distrito de Los Santos","latitude":7.88333,"longitude":-80.45},{"id":80120,"name":"Distrito de Macaracas","latitude":7.65817,"longitude":-80.53526},{"id":80127,"name":"Distrito de Pedasí","latitude":7.48528,"longitude":-80.12747},{"id":80130,"name":"Distrito de Pocrí","latitude":7.63721,"longitude":-80.1647},{"id":80146,"name":"Distrito de Tonosí","latitude":7.43597,"longitude":-80.45828},{"id":80151,"name":"El Cacao","latitude":7.4457,"longitude":-80.40938},{"id":80156,"name":"El Cañafístulo","latitude":7.61768,"longitude":-80.23322},{"id":80155,"name":"El Carate","latitude":7.73124,"longitude":-80.29691},{"id":80161,"name":"El Cocal","latitude":7.73697,"longitude":-80.2798},{"id":80166,"name":"El Cortezo","latitude":7.42661,"longitude":-80.63311},{"id":80169,"name":"El Ejido","latitude":7.91634,"longitude":-80.38686},{"id":80176,"name":"El Guásimo","latitude":7.8064,"longitude":-80.52991},{"id":80177,"name":"El Hato","latitude":7.79316,"longitude":-80.38267},{"id":80180,"name":"El Macano","latitude":7.68489,"longitude":-80.40309},{"id":80181,"name":"El Manantial","latitude":7.78245,"longitude":-80.24713},{"id":80184,"name":"El Muñoz","latitude":7.67582,"longitude":-80.3213},{"id":80189,"name":"El Pedregoso","latitude":7.69173,"longitude":-80.32793},{"id":80211,"name":"Flores","latitude":7.48157,"longitude":-80.40695},{"id":80221,"name":"Guararé","latitude":7.81531,"longitude":-80.28345},{"id":80222,"name":"Guararé Arriba","latitude":7.80023,"longitude":-80.35983},{"id":80246,"name":"La Colorada","latitude":7.82362,"longitude":-80.55552},{"id":80248,"name":"La Enea","latitude":7.83333,"longitude":-80.27417},{"id":80253,"name":"La Espigadilla","latitude":7.88389,"longitude":-80.39039},{"id":80260,"name":"La Laja","latitude":7.73102,"longitude":-80.25298},{"id":80266,"name":"La Mesa","latitude":7.6567,"longitude":-80.61794},{"id":80267,"name":"La Miel","latitude":7.56022,"longitude":-80.32736},{"id":80271,"name":"La Palma","latitude":7.71667,"longitude":-80.38333},{"id":80272,"name":"La Pasera","latitude":7.79757,"longitude":-80.30342},{"id":80278,"name":"La Tiza","latitude":7.7511,"longitude":-80.29216},{"id":80280,"name":"La Tronosa","latitude":7.43609,"longitude":-80.58698},{"id":80282,"name":"Lajamina","latitude":7.58587,"longitude":-80.13212},{"id":80287,"name":"Las Cruces","latitude":7.82285,"longitude":-80.43003},{"id":80290,"name":"Las Guabas","latitude":7.81469,"longitude":-80.50155},{"id":80303,"name":"Las Palmas","latitude":7.68314,"longitude":-80.49728},{"id":80304,"name":"Las Palmitas","latitude":7.76523,"longitude":-80.2935},{"id":80306,"name":"Las Tablas","latitude":7.76472,"longitude":-80.27483},{"id":80307,"name":"Las Trancas","latitude":7.734,"longitude":-80.37384},{"id":80313,"name":"Llano Abajo","latitude":7.78598,"longitude":-80.4106},{"id":80322,"name":"Llano de Piedra","latitude":7.65972,"longitude":-80.56347},{"id":80319,"name":"Llano Largo","latitude":7.90607,"longitude":-80.42561},{"id":80343,"name":"Los Ángeles","latitude":7.88422,"longitude":-80.35772},{"id":80329,"name":"Los Asientos","latitude":7.51656,"longitude":-80.13521},{"id":80339,"name":"Los Olivos","latitude":7.91589,"longitude":-80.48884},{"id":80342,"name":"Los Santos","latitude":7.93333,"longitude":-80.41667},{"id":80346,"name":"Macaracas","latitude":7.73168,"longitude":-80.55364},{"id":80357,"name":"Mogollón","latitude":7.64261,"longitude":-80.4595},{"id":80369,"name":"Nuario","latitude":7.53047,"longitude":-80.32692},{"id":80385,"name":"Oria Arriba","latitude":7.50505,"longitude":-80.20567},{"id":80390,"name":"Palmira","latitude":7.66347,"longitude":-80.35728},{"id":80396,"name":"Paraíso","latitude":7.6851,"longitude":-80.16082},{"id":80399,"name":"Paritilla","latitude":7.62848,"longitude":-80.1724},{"id":80403,"name":"Pedasí","latitude":7.53034,"longitude":-80.02699},{"id":80409,"name":"Peña Blanca","latitude":7.71931,"longitude":-80.28366},{"id":80407,"name":"Perales","latitude":7.77461,"longitude":-80.32494},{"id":80419,"name":"Pocrí","latitude":7.65816,"longitude":-80.12119},{"id":80463,"name":"Río Hondo","latitude":7.71192,"longitude":-80.35904},{"id":80468,"name":"Sabana Grande","latitude":7.83543,"longitude":-80.3649},{"id":80481,"name":"San José","latitude":7.67395,"longitude":-80.24438},{"id":80496,"name":"Santa Ana Arriba","latitude":7.933,"longitude":-80.36369},{"id":80509,"name":"Santo Domingo","latitude":7.74614,"longitude":-80.24173},{"id":80512,"name":"Sesteadero","latitude":7.73885,"longitude":-80.24854},{"id":80526,"name":"Tonosí","latitude":7.40684,"longitude":-80.44217},{"id":80529,"name":"Tres Quebradas","latitude":7.84018,"longitude":-80.4074},{"id":80536,"name":"Valle Rico","latitude":7.62011,"longitude":-80.35076},{"id":80538,"name":"Vallerriquito","latitude":7.62163,"longitude":-80.31975},{"id":80544,"name":"Villa Lourdes","latitude":7.81141,"longitude":-80.47029}]