[{"id":39169,"name":"Kitti Municipality","latitude":6.8249,"longitude":158.16081},{"id":39170,"name":"Kolonia","latitude":6.964,"longitude":158.2062},{"id":39171,"name":"Kolonia Municipality","latitude":6.964,"longitude":158.2058},{"id":39172,"name":"Kolonia Town","latitude":6.964,"longitude":158.206},{"id":39179,"name":"Madolenihm Municipality","latitude":6.86759,"longitude":158.31277},{"id":39183,"name":"Mokil Municipality","latitude":6.68916,"longitude":159.7661},{"id":39189,"name":"Nett Municipality","latitude":6.95152,"longitude":158.22437},{"id":39190,"name":"Ngatik","latitude":5.78849,"longitude":157.15954},{"id":39193,"name":"Nukuoro Municipality","latitude":3.841,"longitude":154.93},{"id":39198,"name":"Palikir - National Government Center","latitude":6.92477,"longitude":158.16109},{"id":39203,"name":"Pingelap Municipality","latitude":6.20908,"longitude":160.71033},{"id":39211,"name":"Sapwuahfik Municipality","latitude":5.815,"longitude":157.28},{"id":39215,"name":"Sokehs Municipality","latitude":6.93273,"longitude":158.1427},{"id":39223,"name":"U Municipality","latitude":6.94972,"longitude":158.27361}]