[{"id":642,"name":"Aguilares","latitude":-27.4338,"longitude":-65.61427},{"id":646,"name":"Alderetes","latitude":-26.81667,"longitude":-65.13333},{"id":690,"name":"Bella Vista","latitude":-27.03424,"longitude":-65.30196},{"id":705,"name":"Burruyacú","latitude":-26.49918,"longitude":-64.74206},{"id":840,"name":"Departamento de Burruyacú","latitude":-26.5,"longitude":-64.91667},{"id":852,"name":"Departamento de Capital","latitude":-26.82825,"longitude":-65.21126},{"id":870,"name":"Departamento de Cruz Alta","latitude":-26.91667,"longitude":-64.91667},{"id":882,"name":"Departamento de Famaillá","latitude":-26.91667,"longitude":-65.5},{"id":900,"name":"Departamento de Graneros","latitude":-27.75,"longitude":-65.33333},{"id":917,"name":"Departamento de La Cocha","latitude":-27.77784,"longitude":-65.57109},{"id":933,"name":"Departamento de Lules","latitude":-26.92886,"longitude":-65.33848},{"id":947,"name":"Departamento de Monteros","latitude":-27.16667,"longitude":-65.58333},{"id":973,"name":"Departamento de Río Chico","latitude":-27.43368,"longitude":-65.76671},{"id":1015,"name":"Departamento de Simoca","latitude":-27.2636,"longitude":-65.35612},{"id":1023,"name":"Departamento de Trancas","latitude":-26.41667,"longitude":-65.5},{"id":1034,"name":"Departamento de Yerba Buena","latitude":-26.81826,"longitude":-65.31733},{"id":1074,"name":"Famaillá","latitude":-27.05413,"longitude":-65.40329},{"id":1125,"name":"Graneros","latitude":-27.64934,"longitude":-65.4383},{"id":1182,"name":"La Cocha","latitude":-27.76927,"longitude":-65.58711},{"id":1291,"name":"Monteros","latitude":-27.16741,"longitude":-65.49832},{"id":1444,"name":"San Miguel de Tucumán","latitude":-26.82414,"longitude":-65.2226},{"id":1488,"name":"Simoca","latitude":-27.26272,"longitude":-65.35647},{"id":1496,"name":"Tafí del Valle","latitude":-26.85275,"longitude":-65.70983},{"id":1495,"name":"Tafí Viejo","latitude":-26.73201,"longitude":-65.25921},{"id":1511,"name":"Trancas","latitude":-26.23136,"longitude":-65.28093},{"id":1596,"name":"Yerba Buena","latitude":-26.81667,"longitude":-65.31667}]