[{"id":105255,"name":"Amphoe Borabue","latitude":15.98881,"longitude":103.12521},{"id":105300,"name":"Amphoe Chiang Yuen","latitude":16.40942,"longitude":103.07005},{"id":105308,"name":"Amphoe Chuen Chom","latitude":16.54801,"longitude":103.14796},{"id":105363,"name":"Amphoe Kae Dam","latitude":16.04961,"longitude":103.38953},{"id":105373,"name":"Amphoe Kantharawichai","latitude":16.27992,"longitude":103.25892},{"id":105450,"name":"Amphoe Kosum Phisai","latitude":16.23882,"longitude":102.99081},{"id":105467,"name":"Amphoe Kut Rang","latitude":16.0297,"longitude":102.95059},{"id":105551,"name":"Amphoe Mueang Maha Sarakham","latitude":16.11882,"longitude":103.3116},{"id":105609,"name":"Amphoe Na Chueak","latitude":15.8018,"longitude":103.05725},{"id":105612,"name":"Amphoe Na Dun","latitude":15.71952,"longitude":103.23004},{"id":105734,"name":"Amphoe Phayakkhaphum Phisai","latitude":15.51963,"longitude":103.23268},{"id":106352,"name":"Amphoe Wapi Pathum","latitude":15.85953,"longitude":103.34091},{"id":106375,"name":"Amphoe Yang Si Surat","latitude":15.64953,"longitude":103.08916},{"id":106539,"name":"Kosum Phisai","latitude":16.24858,"longitude":103.06739},{"id":106568,"name":"Maha Sarakham","latitude":16.18483,"longitude":103.30067},{"id":106628,"name":"Phayakkhaphum Phisai","latitude":15.51631,"longitude":103.19367},{"id":106749,"name":"Wapi Pathum","latitude":15.84523,"longitude":103.37678}]