[{"id":22108,"name":"Albrechtice","latitude":49.78645,"longitude":18.52444},{"id":22113,"name":"Bartošovice","latitude":49.66884,"longitude":18.05461},{"id":22116,"name":"Baška","latitude":49.64584,"longitude":18.37233},{"id":22194,"name":"Bílovec","latitude":49.75639,"longitude":18.01581},{"id":22139,"name":"Bohumín","latitude":49.90411,"longitude":18.35755},{"id":22140,"name":"Bohuslavice","latitude":49.94232,"longitude":18.12866},{"id":22145,"name":"Bolatice","latitude":49.95172,"longitude":18.08358},{"id":22161,"name":"Brantice","latitude":50.06351,"longitude":17.62911},{"id":22210,"name":"Březová","latitude":49.79158,"longitude":17.86556},{"id":22214,"name":"Břidličná","latitude":49.91167,"longitude":17.37107},{"id":22171,"name":"Brumovice","latitude":50.0153,"longitude":17.74958},{"id":22172,"name":"Bruntál","latitude":49.98844,"longitude":17.4647},{"id":22173,"name":"Brušperk","latitude":49.7001,"longitude":18.2221},{"id":22176,"name":"Budišov nad Budišovkou","latitude":49.79511,"longitude":17.62969},{"id":22179,"name":"Bukovec","latitude":49.55114,"longitude":18.82683},{"id":22186,"name":"Bystřice","latitude":49.63657,"longitude":18.72038},{"id":23367,"name":"Čeladná","latitude":49.54873,"longitude":18.33759},{"id":23395,"name":"Český Těšín","latitude":49.74613,"longitude":18.62613},{"id":22218,"name":"Chlebičov","latitude":49.95942,"longitude":17.96748},{"id":22229,"name":"Chotěbuz","latitude":49.76849,"longitude":18.56912},{"id":22237,"name":"Chuchelná","latitude":49.98664,"longitude":18.11656},{"id":22250,"name":"Darkovice","latitude":49.93592,"longitude":18.22213},{"id":22321,"name":"Dětmarovice","latitude":49.89412,"longitude":18.46079},{"id":22262,"name":"Dobrá","latitude":49.67383,"longitude":18.41393},{"id":22257,"name":"Dobratice","latitude":49.66039,"longitude":18.49226},{"id":22271,"name":"Dolní Benešov","latitude":49.92101,"longitude":18.10835},{"id":22284,"name":"Dolní Lhota","latitude":49.84236,"longitude":18.09241},{"id":22286,"name":"Dolní Lutyně","latitude":49.89876,"longitude":18.42815},{"id":22300,"name":"Dolní Životice","latitude":49.89732,"longitude":17.77969},{"id":22304,"name":"Doubrava","latitude":49.85873,"longitude":18.48018},{"id":22318,"name":"Dvorce","latitude":49.83332,"longitude":17.54762},{"id":22327,"name":"Frenštát pod Radhoštěm","latitude":49.54835,"longitude":18.21078},{"id":22329,"name":"Fryčovice","latitude":49.66677,"longitude":18.22321},{"id":22331,"name":"Frýdek-Místek","latitude":49.68333,"longitude":18.35},{"id":22333,"name":"Frýdlant nad Ostravicí","latitude":49.5928,"longitude":18.35967},{"id":22334,"name":"Fulnek","latitude":49.71238,"longitude":17.90319},{"id":22440,"name":"Háj ve Slezsku","latitude":49.89856,"longitude":18.0954},{"id":22347,"name":"Hať","latitude":49.94644,"longitude":18.23931},{"id":22345,"name":"Havířov","latitude":49.77984,"longitude":18.43688},{"id":22358,"name":"Hlučín","latitude":49.89795,"longitude":18.19196},{"id":22361,"name":"Hněvošice","latitude":50.00299,"longitude":18.00829},{"id":22359,"name":"Hnojník","latitude":49.6825,"longitude":18.54143},{"id":22366,"name":"Hodslavice","latitude":49.53856,"longitude":18.02367},{"id":22367,"name":"Holasovice","latitude":49.99843,"longitude":17.80847},{"id":22374,"name":"Horní Benešov","latitude":49.96682,"longitude":17.60262},{"id":22376,"name":"Horní Bludovice","latitude":49.74965,"longitude":18.43677},{"id":22384,"name":"Horní Město","latitude":49.90845,"longitude":17.21112},{"id":22391,"name":"Horní Suchá","latitude":49.7978,"longitude":18.48189},{"id":22392,"name":"Horní Těrlicko","latitude":49.75177,"longitude":18.4829},{"id":22411,"name":"Hrabyně","latitude":49.88249,"longitude":18.05483},{"id":22413,"name":"Hradec nad Moravici","latitude":49.87042,"longitude":17.87843},{"id":22429,"name":"Hrádek","latitude":49.61661,"longitude":18.7372},{"id":22433,"name":"Hukvaldy","latitude":49.62381,"longitude":18.22189},{"id":22449,"name":"Jablunkov","latitude":49.57672,"longitude":18.76458},{"id":22451,"name":"Jakartovice","latitude":49.9151,"longitude":17.684},{"id":22454,"name":"Janovice","latitude":49.62141,"longitude":18.40602},{"id":22468,"name":"Jeseník nad Odrou","latitude":49.61194,"longitude":17.90526},{"id":22475,"name":"Jindřichov","latitude":50.25184,"longitude":17.51903},{"id":22480,"name":"Jistebník","latitude":49.754,"longitude":18.13063},{"id":22497,"name":"Karlovice","latitude":50.10564,"longitude":17.44563},{"id":22501,"name":"Karviná","latitude":49.854,"longitude":18.54169},{"id":22515,"name":"Klimkovice","latitude":49.78809,"longitude":18.12585},{"id":22524,"name":"Kobeřice","latitude":49.98548,"longitude":18.05212},{"id":22530,"name":"Komorní Lhotka","latitude":49.65811,"longitude":18.52777},{"id":22534,"name":"Kopřivnice","latitude":49.59947,"longitude":18.1448},{"id":22547,"name":"Kozlovice","latitude":49.5904,"longitude":18.25656},{"id":22548,"name":"Kozmice","latitude":49.9128,"longitude":18.15584},{"id":22557,"name":"Kravaře","latitude":49.93203,"longitude":18.00472},{"id":22558,"name":"Krmelín","latitude":49.72914,"longitude":18.23541},{"id":22559,"name":"Krnov","latitude":50.08967,"longitude":17.70385},{"id":22572,"name":"Kunčice pod Ondřejníkem","latitude":49.5507,"longitude":18.26113},{"id":22571,"name":"Kunín","latitude":49.63377,"longitude":17.98965},{"id":22614,"name":"Lichnov","latitude":50.00786,"longitude":17.6264},{"id":22615,"name":"Lichnov (o. Nový Jičín)","latitude":49.56423,"longitude":18.16898},{"id":22653,"name":"Lučina","latitude":49.72082,"longitude":18.44776},{"id":22645,"name":"Ludgeřovice","latitude":49.89042,"longitude":18.24008},{"id":22677,"name":"Markvartovice","latitude":49.90595,"longitude":18.23602},{"id":22741,"name":"Město Albrechtice","latitude":50.16294,"longitude":17.57481},{"id":22682,"name":"Metylovice","latitude":49.60666,"longitude":18.33911},{"id":22692,"name":"Milíkov","latitude":49.58565,"longitude":18.71943},{"id":22713,"name":"Mokré Lazce","latitude":49.90462,"longitude":18.02954},{"id":22724,"name":"Morávka","latitude":49.59607,"longitude":18.52471},{"id":22730,"name":"Mořkov","latitude":49.53684,"longitude":18.05968},{"id":22728,"name":"Mosty u Jablunkova","latitude":49.52737,"longitude":18.75417},{"id":22796,"name":"Návsí u Jablunkova","latitude":49.5872,"longitude":18.75907},{"id":22788,"name":"Nový Jičín","latitude":49.59438,"longitude":18.01028},{"id":22797,"name":"Nýdek","latitude":49.65609,"longitude":18.75687},{"id":22804,"name":"Odry","latitude":49.66255,"longitude":17.83084},{"id":22810,"name":"Okres Bruntál","latitude":50.0,"longitude":17.41667},{"id":22817,"name":"Okres Frýdek-Místek","latitude":49.58333,"longitude":18.5},{"id":22827,"name":"Okres Karviná","latitude":49.83333,"longitude":18.5},{"id":22839,"name":"Okres Nový Jičín","latitude":49.66667,"longitude":18.0},{"id":22843,"name":"Okres Opava","latitude":49.83333,"longitude":17.91667},{"id":22844,"name":"Okres Ostrava-město","latitude":49.83333,"longitude":18.25},{"id":22884,"name":"Oldřišov","latitude":49.9913,"longitude":17.96074},{"id":22892,"name":"Opava","latitude":49.93866,"longitude":17.90257},{"id":22895,"name":"Orlová","latitude":49.84527,"longitude":18.43011},{"id":22902,"name":"Osoblaha","latitude":50.27517,"longitude":17.71523},{"id":22904,"name":"Ostrava","latitude":49.83465,"longitude":18.28204},{"id":22905,"name":"Ostravice","latitude":49.5351,"longitude":18.39164},{"id":22913,"name":"Otice","latitude":49.91684,"longitude":17.86982},{"id":22918,"name":"Palkovice","latitude":49.63467,"longitude":18.31508},{"id":22921,"name":"Paskov","latitude":49.73179,"longitude":18.29037},{"id":22930,"name":"Petrovice u Karviné","latitude":49.89587,"longitude":18.54779},{"id":22931,"name":"Petřvald","latitude":49.831,"longitude":18.3894},{"id":22992,"name":"Písek","latitude":49.55924,"longitude":18.80231},{"id":22995,"name":"Píšť","latitude":49.97857,"longitude":18.19349},{"id":22975,"name":"Pražmo","latitude":49.60876,"longitude":18.48617},{"id":23007,"name":"Příbor","latitude":49.64094,"longitude":18.14499},{"id":22990,"name":"Pustá Polom","latitude":49.84917,"longitude":17.9979},{"id":23026,"name":"Raškovice","latitude":49.61975,"longitude":18.47286},{"id":23401,"name":"Řepiště","latitude":49.73338,"longitude":18.31707},{"id":23033,"name":"Ropice","latitude":49.70536,"longitude":18.61345},{"id":23052,"name":"Rybí","latitude":49.60073,"longitude":18.07592},{"id":23054,"name":"Rychvald","latitude":49.86625,"longitude":18.37626},{"id":23057,"name":"Rýmařov","latitude":49.93183,"longitude":17.27177},{"id":23064,"name":"Sedliště","latitude":49.71836,"longitude":18.36869},{"id":23065,"name":"Sedlnice","latitude":49.6577,"longitude":18.0869},{"id":23412,"name":"Šenov","latitude":49.79315,"longitude":18.37607},{"id":23415,"name":"Šilheřovice","latitude":49.92602,"longitude":18.27017},{"id":23081,"name":"Slavkov","latitude":49.9218,"longitude":17.83641},{"id":23102,"name":"Stará Ves nad Ondřejnicí","latitude":49.72775,"longitude":18.1885},{"id":23105,"name":"Staré Město","latitude":49.66992,"longitude":18.36349},{"id":23116,"name":"Staříč","latitude":49.68594,"longitude":18.27281},{"id":23110,"name":"Starý Bohumín","latitude":49.9169,"longitude":18.33619},{"id":23111,"name":"Starý Jičín","latitude":49.57686,"longitude":17.96169},{"id":23135,"name":"Stěbořice","latitude":49.93708,"longitude":17.80547},{"id":23428,"name":"Štěpánkovice","latitude":49.95738,"longitude":18.03741},{"id":23423,"name":"Štítina","latitude":49.91487,"longitude":18.01245},{"id":23119,"name":"Stonava","latitude":49.81691,"longitude":18.52518},{"id":23422,"name":"Štramberk","latitude":49.59181,"longitude":18.11741},{"id":23134,"name":"Studénka","latitude":49.72342,"longitude":18.07853},{"id":23148,"name":"Sviadnov","latitude":49.68926,"longitude":18.32762},{"id":23164,"name":"Tichá","latitude":49.56999,"longitude":18.22148},{"id":23205,"name":"Třinec","latitude":49.67763,"longitude":18.67078},{"id":23177,"name":"Trojanovice","latitude":49.52039,"longitude":18.238},{"id":23310,"name":"Václavovice","latitude":49.75531,"longitude":18.3722},{"id":23234,"name":"Velká Polom","latitude":49.86359,"longitude":18.09331},{"id":23239,"name":"Velké Heraltice","latitude":49.97493,"longitude":17.72879},{"id":23240,"name":"Velké Hoštice","latitude":49.93609,"longitude":17.9738},{"id":23259,"name":"Vendryně","latitude":49.66662,"longitude":18.71307},{"id":23265,"name":"Veřovice","latitude":49.53916,"longitude":18.11425},{"id":23312,"name":"Vítkov","latitude":49.77445,"longitude":17.74941},{"id":23283,"name":"Vlčnov","latitude":49.57866,"longitude":17.95458},{"id":23294,"name":"Vratimov","latitude":49.76995,"longitude":18.31015},{"id":23296,"name":"Vrbice","latitude":49.88333,"longitude":18.31667},{"id":23297,"name":"Vrbno pod Pradědem","latitude":50.12095,"longitude":17.38316},{"id":23316,"name":"Vřesina","latitude":49.82418,"longitude":18.12569},{"id":23352,"name":"Zátor","latitude":50.03413,"longitude":17.59296}]