[{"id":104005,"name":"Åled","latitude":56.75,"longitude":12.93333},{"id":104016,"name":"Åsa","latitude":57.35,"longitude":12.11667},{"id":103096,"name":"Bua","latitude":57.2378,"longitude":12.12187},{"id":103157,"name":"Falkenberg","latitude":56.90552,"longitude":12.49118},{"id":103172,"name":"Fjärås kyrkby","latitude":57.45913,"longitude":12.17508},{"id":103182,"name":"Frillesås","latitude":57.31667,"longitude":12.16667},{"id":103186,"name":"Frösakull","latitude":56.68333,"longitude":12.73333},{"id":103190,"name":"Fyllinge","latitude":56.65,"longitude":12.91667},{"id":103207,"name":"Getinge","latitude":56.81667,"longitude":12.73333},{"id":103212,"name":"Glommen","latitude":56.93333,"longitude":12.35},{"id":103231,"name":"Gullbrandstorp","latitude":56.7,"longitude":12.73333},{"id":103258,"name":"Halmstad","latitude":56.67446,"longitude":12.85676},{"id":103269,"name":"Harplinge","latitude":56.74491,"longitude":12.72758},{"id":103271,"name":"Haverdal","latitude":56.72222,"longitude":12.67194},{"id":103314,"name":"Hyltebruk","latitude":56.99892,"longitude":13.23958},{"id":103405,"name":"Knäred","latitude":56.51861,"longitude":13.32423},{"id":103423,"name":"Kungsbacka","latitude":57.48719,"longitude":12.07612},{"id":103447,"name":"Laholm","latitude":56.51207,"longitude":13.04371},{"id":103535,"name":"Mellbystrand","latitude":56.48561,"longitude":12.93958},{"id":103538,"name":"Mjällby","latitude":56.68333,"longitude":12.76667},{"id":103616,"name":"Onsala","latitude":57.42531,"longitude":12.02903},{"id":103625,"name":"Oskarström","latitude":56.8,"longitude":12.96667},{"id":103806,"name":"Särö","latitude":57.50577,"longitude":11.9321},{"id":103711,"name":"Skrea","latitude":56.88333,"longitude":12.56667},{"id":103750,"name":"Steninge","latitude":56.769,"longitude":12.63034},{"id":103868,"name":"Torup","latitude":56.95663,"longitude":13.07725},{"id":103879,"name":"Träslövsläge","latitude":57.05417,"longitude":12.27899},{"id":103880,"name":"Trönninge","latitude":56.61667,"longitude":12.93333},{"id":103883,"name":"Tvååker","latitude":57.04147,"longitude":12.3995},{"id":103917,"name":"Vallda","latitude":57.4775,"longitude":12.00139},{"id":103924,"name":"Varberg","latitude":57.10557,"longitude":12.25078},{"id":103974,"name":"Västra Hagen","latitude":57.42444,"longitude":11.93583},{"id":103932,"name":"Veddige","latitude":57.26591,"longitude":12.3322},{"id":103933,"name":"Veinge","latitude":56.55,"longitude":13.06667}]