[{"id":76788,"name":"Babura","latitude":12.77256,"longitude":9.01525},{"id":76806,"name":"Birnin Kudu","latitude":11.45207,"longitude":9.47856},{"id":76807,"name":"Birniwa","latitude":12.7907,"longitude":10.23614},{"id":76848,"name":"Dutse","latitude":11.75618,"longitude":9.33896},{"id":76872,"name":"Gagarawa","latitude":12.40848,"longitude":9.52881},{"id":76892,"name":"Gumel","latitude":12.6269,"longitude":9.38807},{"id":76897,"name":"Gwaram","latitude":11.27727,"longitude":9.88385},{"id":76902,"name":"Hadejia","latitude":12.45347,"longitude":10.04115},{"id":76969,"name":"Kafin Hausa","latitude":12.23933,"longitude":9.91105},{"id":76981,"name":"Kazaure","latitude":12.64846,"longitude":8.41178},{"id":76985,"name":"Kiyawa","latitude":11.78442,"longitude":9.6069},{"id":77022,"name":"Mallammaduri","latitude":12.56427,"longitude":9.95727},{"id":77091,"name":"Ringim","latitude":12.15143,"longitude":9.16216},{"id":77097,"name":"Samamiya","latitude":11.34873,"longitude":9.63989}]