[{"id":97839,"name":"Belaya","latitude":51.05444,"longitude":35.71611},{"id":98147,"name":"Cheremisinovo","latitude":51.8855,"longitude":37.2646},{"id":98148,"name":"Cheremisinovskiy Rayon","latitude":51.91667,"longitude":37.16667},{"id":98168,"name":"Chernitsyno","latitude":51.50739,"longitude":36.05101},{"id":98415,"name":"Fatezh","latitude":52.0891,"longitude":35.8632},{"id":98416,"name":"Fatezhskiy Rayon","latitude":52.0,"longitude":35.75},{"id":98503,"name":"Glushkovo","latitude":51.33917,"longitude":34.63278},{"id":98565,"name":"Gorshechenskiy Rayon","latitude":51.5,"longitude":38.0},{"id":98566,"name":"Gorshechnoye","latitude":51.5244,"longitude":38.0365},{"id":98727,"name":"Ivanino","latitude":51.6434,"longitude":35.5769},{"id":98903,"name":"Kastorenskiy Rayon","latitude":51.75,"longitude":38.16667},{"id":98904,"name":"Kastornoye","latitude":51.8334,"longitude":38.1302},{"id":99001,"name":"Khomutovka","latitude":51.9207,"longitude":34.5619},{"id":99068,"name":"Kirovskiy","latitude":51.41667,"longitude":36.66667},{"id":99196,"name":"Konyshevka","latitude":51.8418,"longitude":35.2941},{"id":99204,"name":"Korenëvo","latitude":51.4119,"longitude":34.908},{"id":99410,"name":"Kshenskiy","latitude":51.84083,"longitude":37.71361},{"id":99457,"name":"Kurchatov","latitude":51.6601,"longitude":35.6521},{"id":99474,"name":"Kursk","latitude":51.73733,"longitude":36.18735},{"id":99476,"name":"Kurskiy Rayon","latitude":51.75,"longitude":36.16667},{"id":99726,"name":"L’govskiy","latitude":51.63069,"longitude":35.2775},{"id":99727,"name":"L’govskiy Rayon","latitude":51.58333,"longitude":35.25},{"id":99784,"name":"Manturovo","latitude":51.4547,"longitude":37.1282},{"id":99846,"name":"Medvenskiy Rayon","latitude":51.41667,"longitude":36.11667},{"id":99896,"name":"Mikhaylovka","latitude":52.2317,"longitude":35.3767},{"id":100389,"name":"Oboyan’","latitude":51.20981,"longitude":36.27919},{"id":100388,"name":"Oboyanskiy Rayon","latitude":51.25,"longitude":36.16667},{"id":100427,"name":"Olym","latitude":51.6798,"longitude":38.1758},{"id":100613,"name":"Pervoavgustovskiy","latitude":52.2264,"longitude":35.0552},{"id":100770,"name":"Ponyri Vtoryye","latitude":52.27994,"longitude":36.22461},{"id":100841,"name":"Pristen’","latitude":51.23551,"longitude":36.69594},{"id":100840,"name":"Pristenskiy Rayon","latitude":51.25,"longitude":36.75},{"id":100875,"name":"Pryamitsyno","latitude":51.6561,"longitude":35.9314},{"id":101055,"name":"Ryl’sk","latitude":51.5655,"longitude":34.6822},{"id":101278,"name":"Shchigry","latitude":51.87555,"longitude":36.90432},{"id":101461,"name":"Solntsevo","latitude":51.41853,"longitude":36.7499},{"id":101462,"name":"Solntsevskiy Rayon","latitude":51.5,"longitude":36.75},{"id":101515,"name":"Sovetskiy Rayon","latitude":51.83333,"longitude":37.58333},{"id":101647,"name":"Sudzha","latitude":51.1976,"longitude":35.2726},{"id":101857,"name":"Tim","latitude":51.62222,"longitude":37.12444},{"id":102383,"name":"Voroshnëvo","latitude":51.65278,"longitude":36.01722},{"id":102720,"name":"Zheleznogorsk","latitude":52.331,"longitude":35.3711},{"id":102765,"name":"Zolotukhino","latitude":52.0842,"longitude":36.37777},{"id":102766,"name":"Zolotukhinskiy Rayon","latitude":52.08333,"longitude":36.5}]