[{"id":89721,"name":"Arquitecto Tomás Romero Pereira","latitude":-26.48333,"longitude":-55.25},{"id":89724,"name":"Bella Vista","latitude":-27.05,"longitude":-55.55},{"id":89735,"name":"Capitán Miranda","latitude":-27.2,"longitude":-55.8},{"id":89741,"name":"Carmen del Paraná","latitude":-27.22232,"longitude":-56.15243},{"id":89746,"name":"Colonia Carlos Antonio López","latitude":-26.39853,"longitude":-54.7569},{"id":89754,"name":"Colonia San Lorenzo","latitude":-26.49324,"longitude":-54.79989},{"id":89761,"name":"Edelira","latitude":-26.76734,"longitude":-55.27872},{"id":89763,"name":"Encarnación","latitude":-27.33056,"longitude":-55.86667},{"id":89767,"name":"Fram","latitude":-26.98333,"longitude":-55.88333},{"id":89769,"name":"General Artigas","latitude":-26.93522,"longitude":-56.22168},{"id":89770,"name":"General Delgado","latitude":-27.09046,"longitude":-56.52474},{"id":89776,"name":"Hohenau","latitude":-27.07315,"longitude":-55.64247},{"id":89787,"name":"Jesús","latitude":-27.05598,"longitude":-55.7413},{"id":89801,"name":"Natalio","latitude":-26.75702,"longitude":-55.13777},{"id":89805,"name":"Obligado","latitude":-27.03333,"longitude":-55.63333},{"id":89809,"name":"Pirapó","latitude":-26.86012,"longitude":-55.54357},{"id":89813,"name":"Puerto Mayor Otaño","latitude":-26.4,"longitude":-54.7},{"id":89821,"name":"San Cosme y Damián","latitude":-27.31741,"longitude":-56.33087},{"id":89827,"name":"San Juan del Paraná","latitude":-27.30168,"longitude":-55.96509},{"id":89832,"name":"San Pedro del Paraná","latitude":-26.83268,"longitude":-56.20575},{"id":89841,"name":"Trinidad","latitude":-27.11667,"longitude":-55.78333}]