[{"id":53867,"name":"Balfate","latitude":15.75709,"longitude":-86.29048},{"id":53874,"name":"Bonito Oriental","latitude":15.74641,"longitude":-85.7361},{"id":53920,"name":"Corocito","latitude":15.75,"longitude":-85.78333},{"id":53929,"name":"Cusuna","latitude":15.85,"longitude":-85.23333},{"id":53999,"name":"Elíxir","latitude":15.48333,"longitude":-86.3},{"id":54006,"name":"Francia","latitude":15.85,"longitude":-85.58333},{"id":54029,"name":"Iriona","latitude":15.59079,"longitude":-85.20549},{"id":54033,"name":"Jericó","latitude":15.95,"longitude":-85.96667},{"id":54046,"name":"La Brea","latitude":15.8,"longitude":-85.96667},{"id":54055,"name":"La Esperanza","latitude":15.63333,"longitude":-85.76667},{"id":54103,"name":"Limón","latitude":15.79664,"longitude":-85.50805},{"id":54136,"name":"Municipio de Sabá","latitude":15.48654,"longitude":-86.16322},{"id":54178,"name":"Prieta","latitude":15.5806,"longitude":-86.13664},{"id":54183,"name":"Puerto Castilla","latitude":16.01667,"longitude":-85.96667},{"id":54188,"name":"Punta Piedra","latitude":15.9,"longitude":-85.28333},{"id":54192,"name":"Quebrada de Arena","latitude":15.76667,"longitude":-85.91667},{"id":54202,"name":"Río Esteban","latitude":15.83333,"longitude":-86.3},{"id":54205,"name":"Sabá","latitude":15.46667,"longitude":-86.25},{"id":54206,"name":"Salamá","latitude":15.75,"longitude":-85.96667},{"id":54302,"name":"Santa Fe","latitude":15.85424,"longitude":-86.11083},{"id":54312,"name":"Santa Rosa de Aguán","latitude":15.95,"longitude":-85.71667},{"id":54321,"name":"Sonaguera","latitude":15.64,"longitude":-86.26},{"id":54330,"name":"Taujica","latitude":15.7,"longitude":-85.91667},{"id":54339,"name":"Tocoa","latitude":15.68333,"longitude":-86.0},{"id":54349,"name":"Trujillo","latitude":15.91667,"longitude":-85.95417},{"id":54378,"name":"Zamora","latitude":15.63333,"longitude":-86.06667}]