[{"id":21643,"name":"Alajuela","latitude":10.01625,"longitude":-84.21163},{"id":21647,"name":"Atenas","latitude":9.98333,"longitude":-84.38333},{"id":21653,"name":"Bijagua","latitude":10.73279,"longitude":-85.05676},{"id":21658,"name":"Carrillos","latitude":10.02918,"longitude":-84.27403},{"id":21672,"name":"Desamparados","latitude":9.94727,"longitude":-84.50626},{"id":21678,"name":"Esquipulas","latitude":10.05676,"longitude":-84.42337},{"id":21685,"name":"Grecia","latitude":10.06892,"longitude":-84.31458},{"id":21687,"name":"Guatuso","latitude":10.66667,"longitude":-84.83333},{"id":21698,"name":"La Fortuna","latitude":10.47089,"longitude":-84.64535},{"id":21705,"name":"Los Chiles","latitude":10.86667,"longitude":-84.66667},{"id":21715,"name":"Naranjo","latitude":10.11667,"longitude":-84.4},{"id":21719,"name":"Orotina","latitude":9.9,"longitude":-84.56667},{"id":21722,"name":"Palmares","latitude":10.03333,"longitude":-84.43333},{"id":21729,"name":"Pital","latitude":10.45056,"longitude":-84.27406},{"id":21733,"name":"Poás","latitude":10.08333,"longitude":-84.23333},{"id":21732,"name":"Pocosol","latitude":10.36667,"longitude":-84.61667},{"id":21739,"name":"Quesada","latitude":10.32381,"longitude":-84.42714},{"id":21741,"name":"Río Segundo","latitude":10.24138,"longitude":-84.27933},{"id":21742,"name":"Sabanilla","latitude":10.07404,"longitude":-84.21551},{"id":21747,"name":"San Carlos","latitude":10.58333,"longitude":-84.41667},{"id":21755,"name":"San José","latitude":10.95173,"longitude":-85.1361},{"id":21758,"name":"San Juan","latitude":10.10248,"longitude":-84.31694},{"id":21761,"name":"San Mateo","latitude":9.95,"longitude":-84.51667},{"id":21766,"name":"San Rafael","latitude":10.06403,"longitude":-84.47281},{"id":21770,"name":"San Ramón","latitude":10.08718,"longitude":-84.47044},{"id":21777,"name":"Santiago","latitude":10.02275,"longitude":-84.4442},{"id":21795,"name":"Upala","latitude":10.85,"longitude":-85.16667},{"id":21796,"name":"Valverde Vega","latitude":10.18721,"longitude":-84.3029},{"id":21798,"name":"Zarcero","latitude":10.2,"longitude":-84.4}]