[{"id":31769,"name":"Al Fayyūm","latitude":29.30995,"longitude":30.8418},{"id":31782,"name":"Al Wāsiţah","latitude":29.33778,"longitude":31.20556},{"id":31818,"name":"Ibshawāy","latitude":29.35896,"longitude":30.68061},{"id":31823,"name":"Iţsā","latitude":29.2376,"longitude":30.78944},{"id":31877,"name":"Ţāmiyah","latitude":29.47639,"longitude":30.96119}]