[{"id":109344,"name":"Balakliya","latitude":49.4627,"longitude":36.85951},{"id":109352,"name":"Barvinkove","latitude":48.9097,"longitude":37.02051},{"id":109380,"name":"Berezivka","latitude":49.43935,"longitude":35.70736},{"id":109390,"name":"Bezlyudivka","latitude":49.87547,"longitude":36.26539},{"id":109413,"name":"Blyznyuky","latitude":48.85775,"longitude":36.55505},{"id":109419,"name":"Bohodukhiv","latitude":50.16466,"longitude":35.52765},{"id":109432,"name":"Borova","latitude":49.3777,"longitude":37.62136},{"id":109458,"name":"Budy","latitude":49.89133,"longitude":36.02096},{"id":109469,"name":"Chapayeve","latitude":49.36625,"longitude":35.87486},{"id":109504,"name":"Chervonyy Oskil","latitude":49.17906,"longitude":37.42593},{"id":109522,"name":"Chuhuyiv","latitude":49.83588,"longitude":36.68803},{"id":109539,"name":"Derhachi","latitude":50.10659,"longitude":36.12112},{"id":109590,"name":"Dvorichna","latitude":49.85019,"longitude":37.68262},{"id":109596,"name":"Eskhar","latitude":49.79614,"longitude":36.59047},{"id":109663,"name":"Huty","latitude":50.13322,"longitude":35.34394},{"id":109691,"name":"Izyum","latitude":49.20875,"longitude":37.24849},{"id":109724,"name":"Kehychivka","latitude":49.28656,"longitude":35.76153},{"id":109727,"name":"Kharkiv","latitude":49.98081,"longitude":36.25272},{"id":109736,"name":"Khorosheve","latitude":49.85413,"longitude":36.21704},{"id":109757,"name":"Kivsharivka","latitude":49.63096,"longitude":37.68821},{"id":109767,"name":"Kochetok","latitude":49.88005,"longitude":36.73723},{"id":109775,"name":"Kolomak","latitude":49.83987,"longitude":35.30441},{"id":109804,"name":"Korotych","latitude":49.94737,"longitude":36.03736},{"id":109838,"name":"Krasnohrad","latitude":49.38009,"longitude":35.44186},{"id":109841,"name":"Krasnokuts’k","latitude":50.06602,"longitude":35.16275},{"id":109843,"name":"Krasnopavlivka","latitude":49.13643,"longitude":36.31911},{"id":109886,"name":"Kulynychi","latitude":49.98178,"longitude":36.38283},{"id":109887,"name":"Kupjansk","latitude":49.71055,"longitude":37.61517},{"id":109932,"name":"Lozova","latitude":48.88937,"longitude":36.31755},{"id":109951,"name":"Lyman","latitude":49.59769,"longitude":36.4703},{"id":109966,"name":"Lyubotyn","latitude":49.94691,"longitude":35.92907},{"id":109979,"name":"Mala Danylivka","latitude":50.06354,"longitude":36.16564},{"id":109990,"name":"Malynivka","latitude":49.81667,"longitude":36.73333},{"id":109991,"name":"Manchenky","latitude":49.97982,"longitude":35.85835},{"id":110023,"name":"Merefa","latitude":49.82302,"longitude":36.05069},{"id":110110,"name":"Nova Vodolaha","latitude":49.71901,"longitude":35.86578},{"id":110141,"name":"Novopokrovka","latitude":49.83349,"longitude":36.54771},{"id":110222,"name":"Panyutyne","latitude":48.93692,"longitude":36.27563},{"id":110242,"name":"Peresichna","latitude":50.02452,"longitude":35.97871},{"id":110247,"name":"Pervomaiskyi Raion","latitude":49.41667,"longitude":36.33333},{"id":110252,"name":"Pervomays’kyy","latitude":49.38742,"longitude":36.21471},{"id":110257,"name":"Petrivs’ke","latitude":49.17695,"longitude":36.89999},{"id":110275,"name":"Pivdenne","latitude":49.88315,"longitude":36.06785},{"id":110290,"name":"Pokotylivka","latitude":49.91343,"longitude":36.17511},{"id":110317,"name":"Prudyanka","latitude":50.23606,"longitude":36.16835},{"id":110319,"name":"Prykolotne","latitude":50.16273,"longitude":37.34524},{"id":110401,"name":"Sakhnovshchyna","latitude":49.15166,"longitude":35.87198},{"id":110411,"name":"Savyntsi","latitude":49.40257,"longitude":37.06266},{"id":110445,"name":"Shevchenkove","latitude":49.69585,"longitude":37.17348},{"id":110476,"name":"Slatyne","latitude":50.21041,"longitude":36.15376},{"id":110484,"name":"Slobozhans’ke","latitude":49.59701,"longitude":36.52618},{"id":110511,"name":"Solonytsivka","latitude":49.99682,"longitude":36.03464},{"id":110540,"name":"Staryy Merchyk","latitude":49.98147,"longitude":35.75904},{"id":110541,"name":"Staryy Saltiv","latitude":50.07619,"longitude":36.78852},{"id":110558,"name":"Studenok","latitude":49.09107,"longitude":37.48697},{"id":110663,"name":"Utkivka","latitude":49.78583,"longitude":36.07528},{"id":110670,"name":"Valky","latitude":49.83597,"longitude":35.61223},{"id":110680,"name":"Vasyshcheve","latitude":49.82852,"longitude":36.32691},{"id":110696,"name":"Velykyy Burluk","latitude":50.0617,"longitude":37.38373},{"id":110699,"name":"Verbivka","latitude":49.41667,"longitude":35.53333},{"id":110747,"name":"Vovchans’k","latitude":50.29078,"longitude":36.94108},{"id":110754,"name":"Vvedenka","latitude":49.82372,"longitude":36.50264},{"id":110768,"name":"Vysokyy","latitude":49.89156,"longitude":36.12175},{"id":110807,"name":"Zachepylivka","latitude":49.19385,"longitude":35.23943},{"id":110857,"name":"Zmiyiv","latitude":49.67453,"longitude":36.34775},{"id":110859,"name":"Zolochiv","latitude":50.27985,"longitude":35.98179}]