[{"id":104704,"name":"Dakar","latitude":14.6937,"longitude":-17.44406},{"id":104705,"name":"Dakar Department","latitude":14.71403,"longitude":-17.45534},{"id":104716,"name":"Guédiawaye Department","latitude":14.7761,"longitude":-17.3956},{"id":104737,"name":"Mermoz Boabab","latitude":14.70649,"longitude":-17.47581},{"id":104744,"name":"N’diareme limamoulaye","latitude":14.78148,"longitude":-17.3841},{"id":104748,"name":"Pikine","latitude":14.76457,"longitude":-17.39071},{"id":104749,"name":"Pikine Department","latitude":14.76515,"longitude":-17.35198},{"id":104756,"name":"Rufisque Department","latitude":14.74339,"longitude":-17.19841}]