[{"id":65605,"name":"Aktobe","latitude":50.27969,"longitude":57.20718},{"id":65636,"name":"Batamshinskiy","latitude":50.56022,"longitude":58.27715},{"id":65638,"name":"Bayganin","latitude":48.68975,"longitude":55.87512},{"id":65674,"name":"Embi","latitude":48.82981,"longitude":58.15042},{"id":65687,"name":"Kandyagash","latitude":49.46912,"longitude":57.41914},{"id":65697,"name":"Khromtau","latitude":50.25117,"longitude":58.44003},{"id":65725,"name":"Martuk","latitude":50.74746,"longitude":56.50611},{"id":65779,"name":"Shalqar","latitude":47.83333,"longitude":59.6},{"id":65788,"name":"Shubarkuduk","latitude":49.14391,"longitude":56.48196},{"id":65790,"name":"Shubarshi","latitude":48.58022,"longitude":57.18289},{"id":65808,"name":"Temir","latitude":49.14132,"longitude":57.12855},{"id":65831,"name":"Yrghyz","latitude":48.61667,"longitude":61.26667}]