[{"id":97527,"name":"Akademgorodok","latitude":54.8523,"longitude":83.106},{"id":97751,"name":"Bagan","latitude":54.10014,"longitude":77.66462},{"id":97790,"name":"Barabinsk","latitude":55.35709,"longitude":78.35697},{"id":97805,"name":"Baryshevo","latitude":54.9564,"longitude":83.1822},{"id":97888,"name":"Berdsk","latitude":54.7551,"longitude":83.0967},{"id":97997,"name":"Bolotnoye","latitude":55.67167,"longitude":84.39806},{"id":98114,"name":"Chany","latitude":55.31205,"longitude":76.76468},{"id":98154,"name":"Cherepanovo","latitude":54.2222,"longitude":83.381},{"id":98219,"name":"Chulym","latitude":55.09972,"longitude":80.95722},{"id":98318,"name":"Dorogino","latitude":54.3598,"longitude":83.3198},{"id":98342,"name":"Dubrovino","latitude":55.4718,"longitude":83.2907},{"id":98541,"name":"Gornyy","latitude":55.1153,"longitude":83.9059},{"id":98711,"name":"Iskitim","latitude":54.6366,"longitude":83.3045},{"id":98712,"name":"Iskitimskiy Rayon","latitude":54.66667,"longitude":83.25},{"id":98869,"name":"Karasuk","latitude":53.73772,"longitude":78.04026},{"id":98878,"name":"Kargat","latitude":55.19556,"longitude":80.28111},{"id":99119,"name":"Kochenëvo","latitude":55.0218,"longitude":82.202},{"id":99121,"name":"Kochki","latitude":54.33583,"longitude":80.48056},{"id":99157,"name":"Kol’tsovo","latitude":54.9376,"longitude":83.1825},{"id":99153,"name":"Kolyvan’","latitude":55.3053,"longitude":82.7391},{"id":99329,"name":"Krasnoobsk","latitude":54.9198,"longitude":82.9909},{"id":99358,"name":"Krasnozërskoye","latitude":53.98277,"longitude":79.23735},{"id":99392,"name":"Krivodanovka","latitude":55.0881,"longitude":82.6551},{"id":99422,"name":"Kudryashovskiy","latitude":55.0974,"longitude":82.7742},{"id":99451,"name":"Kupino","latitude":54.36635,"longitude":77.29805},{"id":99493,"name":"Kuybyshev","latitude":55.44753,"longitude":78.32181},{"id":99520,"name":"Kyshtovka","latitude":56.55498,"longitude":76.62713},{"id":99631,"name":"Linëvo","latitude":54.4589,"longitude":83.3764},{"id":99640,"name":"Listvyanskiy","latitude":54.4399,"longitude":83.4984},{"id":99812,"name":"Maslyanino","latitude":54.34361,"longitude":84.21111},{"id":99813,"name":"Maslyaninskiy Rayon","latitude":54.5,"longitude":84.5},{"id":99938,"name":"Mochishche","latitude":55.1586,"longitude":83.1229},{"id":99975,"name":"Moshkovo","latitude":55.3053,"longitude":83.6104},{"id":99976,"name":"Moshkovskiy Rayon","latitude":55.3,"longitude":83.61667},{"id":100264,"name":"Novolugovoye","latitude":54.9792,"longitude":83.1138},{"id":100302,"name":"Novosibirsk","latitude":55.0415,"longitude":82.9346},{"id":100303,"name":"Novosibirskiy Rayon","latitude":55.0,"longitude":83.0},{"id":100394,"name":"Ob’","latitude":54.9872,"longitude":82.7166},{"id":100458,"name":"Ordynskiy Rayon","latitude":54.33333,"longitude":81.66667},{"id":100459,"name":"Ordynskoye","latitude":54.3656,"longitude":81.8994},{"id":100757,"name":"Polovinnoye","latitude":53.75671,"longitude":79.24327},{"id":100861,"name":"Prokudskoye","latitude":55.0089,"longitude":82.4574},{"id":101066,"name":"Sadovyy","latitude":55.1361,"longitude":82.9659},{"id":101205,"name":"Severnoye","latitude":56.34912,"longitude":78.36189},{"id":101209,"name":"Severnyy Rayon","latitude":56.33333,"longitude":78.5},{"id":101444,"name":"Sokur","latitude":55.2093,"longitude":83.319},{"id":101555,"name":"Stantsionno-Oyashinskiy","latitude":55.4664,"longitude":83.8245},{"id":101693,"name":"Suzun","latitude":53.7841,"longitude":82.3116},{"id":101786,"name":"Tashara","latitude":55.5195,"longitude":83.5094},{"id":101792,"name":"Tatarsk","latitude":55.21903,"longitude":75.98283},{"id":101795,"name":"Tatarskiy Rayon","latitude":55.25,"longitude":76.0},{"id":101869,"name":"Toguchin","latitude":55.23528,"longitude":84.38583},{"id":101878,"name":"Tolmachëvo","latitude":54.9824,"longitude":82.7363},{"id":102012,"name":"Ubinskoye","latitude":55.30675,"longitude":79.68016},{"id":102139,"name":"Ust’-Tarka","latitude":55.56715,"longitude":75.705},{"id":102224,"name":"Vengerovo","latitude":55.68485,"longitude":76.74707},{"id":102234,"name":"Verkh-Tula","latitude":54.8839,"longitude":82.7762},{"id":102496,"name":"Yarkovo","latitude":54.8056,"longitude":82.5989},{"id":102688,"name":"Zdvinsk","latitude":54.70206,"longitude":78.66105}]