[{"id":104085,"name":"Dekani","latitude":45.54972,"longitude":13.81361},{"id":104121,"name":"Hrvatini","latitude":45.58278,"longitude":13.75667},{"id":104142,"name":"Koper","latitude":45.54694,"longitude":13.72944},{"id":104223,"name":"Pobegi","latitude":45.53944,"longitude":13.79611},{"id":104231,"name":"Prade","latitude":45.54003,"longitude":13.77607},{"id":104282,"name":"Spodnje Å kofije","latitude":45.57167,"longitude":13.7925},{"id":104288,"name":"Sv. Anton","latitude":45.52583,"longitude":13.83194}]