[{"id":21650,"name":"Batán","latitude":10.08354,"longitude":-83.33413},{"id":21688,"name":"Guácimo","latitude":10.2,"longitude":-83.66667},{"id":21689,"name":"Guápiles","latitude":10.21682,"longitude":-83.78483},{"id":21703,"name":"Limón","latitude":9.99074,"longitude":-83.03596},{"id":21706,"name":"Matina","latitude":10.0,"longitude":-83.25},{"id":21730,"name":"Pococí","latitude":10.5,"longitude":-83.63333},{"id":21731,"name":"Pocora","latitude":10.17185,"longitude":-83.60439},{"id":21740,"name":"Roxana","latitude":10.26712,"longitude":-83.7511},{"id":21782,"name":"Siquirres","latitude":10.11667,"longitude":-83.5},{"id":21783,"name":"Sixaola","latitude":9.52766,"longitude":-82.62185},{"id":21785,"name":"Talamanca","latitude":9.5,"longitude":-83.08333}]