[{"id":21841,"name":"Contramaestre","latitude":20.29879,"longitude":-76.24511},{"id":21849,"name":"El Cobre","latitude":20.0485,"longitude":-75.94579},{"id":21929,"name":"Municipio de Palma Soriano","latitude":20.20897,"longitude":-76.05776},{"id":21934,"name":"Municipio de Santiago de Cuba","latitude":20.00617,"longitude":-75.70816},{"id":21939,"name":"Palma Soriano","latitude":20.2113,"longitude":-75.99362},{"id":21964,"name":"San Luis","latitude":20.18809,"longitude":-75.85031},{"id":21972,"name":"Santiago de Cuba","latitude":20.02083,"longitude":-75.82667}]