[{"id":20505,"name":"Algarrobo","latitude":10.18553,"longitude":-74.06158},{"id":20533,"name":"Aracataca","latitude":10.59181,"longitude":-74.18983},{"id":20548,"name":"Ariguaní","latitude":9.89383,"longitude":-74.13583},{"id":20673,"name":"Cerro de San Antonio","latitude":10.32585,"longitude":-74.86933},{"id":20700,"name":"Chivolo","latitude":10.02638888,"longitude":-74.62138888},{"id":20712,"name":"Ciénaga","latitude":10.83333,"longitude":-74.08333},{"id":20726,"name":"Concordia","latitude":9.83545,"longitude":-74.45548},{"id":20787,"name":"El Banco","latitude":9.00114,"longitude":-73.97581},{"id":20820,"name":"El Piñon","latitude":10.33333,"longitude":-74.66667},{"id":20824,"name":"El Retén","latitude":10.61135,"longitude":-74.26824},{"id":20864,"name":"Fundación","latitude":10.52066,"longitude":-74.18504},{"id":20907,"name":"Guamal","latitude":9.14334,"longitude":-74.22384},{"id":21139,"name":"Nueva Granada","latitude":9.80168,"longitude":-74.39304},{"id":21191,"name":"Pedraza","latitude":10.18739,"longitude":-74.91504},{"id":21205,"name":"Pijiño del Carmen","latitude":9.32908,"longitude":-74.45302},{"id":21210,"name":"Pivijay","latitude":10.46167,"longitude":-74.61621},{"id":21214,"name":"Plato","latitude":9.77267,"longitude":-74.74548},{"id":21228,"name":"Puebloviejo","latitude":10.84239,"longitude":-74.38538},{"id":21282,"name":"Remolino","latitude":10.65048,"longitude":-74.58442},{"id":21313,"name":"Sabanas de San Angel","latitude":10.11072,"longitude":-74.26007},{"id":21318,"name":"Salamina","latitude":10.49027,"longitude":-74.79463},{"id":20606,"name":"San Sebastián de Buenavista","latitude":9.23916666,"longitude":-74.35194444},{"id":21409,"name":"San Zenón","latitude":9.32686,"longitude":-74.32914},{"id":21411,"name":"Santa Ana","latitude":9.51484,"longitude":-74.3433},{"id":21415,"name":"Santa Bárbara de Pinto","latitude":9.52107,"longitude":-74.64912},{"id":21421,"name":"Santa Marta","latitude":11.24348,"longitude":-74.20835},{"id":21463,"name":"Sitionuevo","latitude":10.77737,"longitude":-74.72049},{"id":21519,"name":"Tenerife","latitude":9.93201,"longitude":-74.73465},{"id":21631,"name":"Zapayán","latitude":10.11846,"longitude":-74.69143},{"id":21637,"name":"Zona Bananera","latitude":10.76417,"longitude":-74.15722}]