[{"id":56173,"name":"Abepura","latitude":-2.5964,"longitude":140.6324},{"id":56220,"name":"Biak","latitude":-1.1767,"longitude":136.082},{"id":56292,"name":"Insrom","latitude":-1.14473,"longitude":136.03134},{"id":56299,"name":"Jayapura","latitude":-2.53371,"longitude":140.71813},{"id":56321,"name":"Kabupaten Asmat","latitude":-5.3795,"longitude":138.46344},{"id":56359,"name":"Kabupaten Biak Numfor","latitude":-1.03333,"longitude":136.0},{"id":56376,"name":"Kabupaten Boven Digoel","latitude":-5.70519,"longitude":140.36349},{"id":56395,"name":"Kabupaten Deiyai","latitude":-3.94737,"longitude":135.95032},{"id":56399,"name":"Kabupaten Dogiyai","latitude":-4.03186,"longitude":135.43945},{"id":56427,"name":"Kabupaten Intan Jaya","latitude":-3.41016,"longitude":136.70837},{"id":56428,"name":"Kabupaten Jayapura","latitude":-3.0,"longitude":139.95},{"id":56429,"name":"Kabupaten Jayawijaya","latitude":-4.08333,"longitude":139.08333},{"id":56447,"name":"Kabupaten Keerom","latitude":-3.3,"longitude":140.61667},{"id":56457,"name":"Kabupaten Kepulauan Yapen","latitude":-1.78773,"longitude":136.27716},{"id":56490,"name":"Kabupaten Lanny Jaya","latitude":-3.91244,"longitude":138.28766},{"id":56518,"name":"Kabupaten Mamberamo Raya","latitude":-2.23561,"longitude":137.78229},{"id":56519,"name":"Kabupaten Mamberamo Tengah","latitude":-2.46064,"longitude":138.45245},{"id":56529,"name":"Kabupaten Mappi","latitude":-6.49971,"longitude":139.34441},{"id":56533,"name":"Kabupaten Merauke","latitude":-7.66667,"longitude":139.66667},{"id":56535,"name":"Kabupaten Mimika","latitude":-4.54357,"longitude":136.56555},{"id":56551,"name":"Kabupaten Nabire","latitude":-3.54016,"longitude":135.55511},{"id":56555,"name":"Kabupaten Nduga","latitude":-4.45093,"longitude":138.10089},{"id":56577,"name":"Kabupaten Paniai","latitude":-3.9,"longitude":136.6},{"id":56584,"name":"Kabupaten Pegunungan Bintang","latitude":-4.52167,"longitude":140.29541},{"id":56604,"name":"Kabupaten Puncak Jaya","latitude":-3.67241,"longitude":137.43896},{"id":56617,"name":"Kabupaten Sarmi","latitude":-2.41667,"longitude":139.08333},{"id":56656,"name":"Kabupaten Supiori","latitude":-0.73881,"longitude":135.61111},{"id":56683,"name":"Kabupaten Tolikara","latitude":-3.42661,"longitude":137.41699},{"id":56690,"name":"Kabupaten Waropen","latitude":-2.286,"longitude":137.01837},{"id":56694,"name":"Kabupaten Yahukimo","latitude":-4.60403,"longitude":139.58405},{"id":56695,"name":"Kabupaten Yalimo","latitude":-3.86037,"longitude":138.47305},{"id":56756,"name":"Kota Jayapura","latitude":-2.64647,"longitude":140.77779},{"id":56882,"name":"Nabire","latitude":-3.35989,"longitude":135.50074}]