[{"id":52341,"name":"Koubia","latitude":11.58333,"longitude":-11.83333},{"id":52347,"name":"Labé","latitude":11.31823,"longitude":-12.28332},{"id":52346,"name":"Labe Prefecture","latitude":11.366,"longitude":-12.3},{"id":52350,"name":"Lélouma","latitude":11.42383,"longitude":-12.68183},{"id":52348,"name":"Lelouma Prefecture","latitude":11.41667,"longitude":-12.66667},{"id":52352,"name":"Mali","latitude":12.079,"longitude":-12.2982},{"id":52353,"name":"Mali Prefecture","latitude":12.08333,"longitude":-12.08333},{"id":52371,"name":"Tougué","latitude":11.44503,"longitude":-11.66422},{"id":52370,"name":"Tougue Prefecture","latitude":11.46667,"longitude":-11.6}]