[{"id":77176,"name":"Diriamba","latitude":11.85812,"longitude":-86.23922},{"id":77179,"name":"Dolores","latitude":11.85672,"longitude":-86.21552},{"id":77187,"name":"El Rosario","latitude":11.77756,"longitude":-86.37374},{"id":77195,"name":"Jinotepe","latitude":11.84962,"longitude":-86.19903},{"id":77202,"name":"La Conquista","latitude":11.73426,"longitude":-86.19279},{"id":77206,"name":"La Paz de Carazo","latitude":11.82311,"longitude":-86.12781},{"id":77236,"name":"Municipio de San Marcos","latitude":11.91784,"longitude":-86.27474},{"id":77267,"name":"San Marcos","latitude":11.90949,"longitude":-86.20351},{"id":77275,"name":"Santa Teresa","latitude":11.74321,"longitude":-86.21413}]