[{"id":76826,"name":"Damaturu","latitude":11.74697,"longitude":11.96083},{"id":76832,"name":"Dankalwa","latitude":11.74449,"longitude":12.18545},{"id":76834,"name":"Dapchi","latitude":12.49536,"longitude":11.49977},{"id":76837,"name":"Daura","latitude":11.5541,"longitude":11.406},{"id":76869,"name":"Fika","latitude":11.377,"longitude":11.23746},{"id":76878,"name":"Gashua","latitude":12.87398,"longitude":11.04057},{"id":76882,"name":"Geidam","latitude":12.89439,"longitude":11.92649},{"id":76886,"name":"Goniri","latitude":11.48451,"longitude":12.31264},{"id":76888,"name":"Gorgoram","latitude":12.63958,"longitude":10.70422},{"id":76890,"name":"Gujba","latitude":11.49959,"longitude":11.93396},{"id":76900,"name":"Gwio Kura","latitude":12.67479,"longitude":11.0669},{"id":76992,"name":"Kumagunnam","latitude":13.15498,"longitude":10.63468},{"id":77003,"name":"Lajere","latitude":11.98022,"longitude":11.44002},{"id":77012,"name":"Machina","latitude":13.13639,"longitude":10.04924},{"id":77042,"name":"Nguru","latitude":12.87695,"longitude":10.45536},{"id":77089,"name":"Potiskum","latitude":11.71391,"longitude":11.08108}]