[{"id":82065,"name":"Caloocan","latitude":14.64953,"longitude":120.96788},{"id":82071,"name":"Calumpang","latitude":14.6228,"longitude":121.0897},{"id":143914,"name":"Dasmariñas Village","latitude":14.541,"longitude":121.028},{"id":143915,"name":"Ermita","latitude":14.583,"longitude":120.983},{"id":143916,"name":"Intramuros","latitude":14.59083333,"longitude":120.975},{"id":83045,"name":"Las Piñas","latitude":14.45056,"longitude":120.98278},{"id":83375,"name":"Makati","latitude":14.55027,"longitude":121.03269},{"id":143917,"name":"Malabon","latitude":14.6625,"longitude":120.95666667},{"id":143918,"name":"Malate","latitude":14.567,"longitude":120.983},{"id":83501,"name":"Mandaluyong","latitude":14.5832,"longitude":121.0409},{"id":83524,"name":"Manila","latitude":14.6042,"longitude":120.9822},{"id":143919,"name":"Marikina","latitude":14.65,"longitude":121.1},{"id":143920,"name":"Muntinlupa","latitude":14.38333333,"longitude":121.05},{"id":143921,"name":"National Capital Region","latitude":14.57775,"longitude":121.04599},{"id":83795,"name":"Navotas","latitude":14.66667,"longitude":120.95},{"id":83818,"name":"Niugan","latitude":14.66444,"longitude":120.95528},{"id":143922,"name":"Paco","latitude":14.583,"longitude":120.983},{"id":143923,"name":"Pandacan","latitude":14.594,"longitude":121.007},{"id":143924,"name":"Parañaque","latitude":14.46666667,"longitude":121.01666667},{"id":84027,"name":"Pasay","latitude":14.53748,"longitude":121.00144},{"id":84030,"name":"Pasig","latitude":14.58691,"longitude":121.0614},{"id":143925,"name":"Pateros","latitude":14.54166667,"longitude":121.06666667},{"id":84166,"name":"Port Area","latitude":14.5833,"longitude":120.9667},{"id":84301,"name":"Quezon City","latitude":14.6488,"longitude":121.0509},{"id":84302,"name":"Quiapo","latitude":14.6,"longitude":120.9833},{"id":84426,"name":"Sambayanihan People's Village","latitude":14.45558,"longitude":120.99816},{"id":84530,"name":"San Juan","latitude":14.6,"longitude":121.0333},{"id":143926,"name":"San Miguel","latitude":14.6,"longitude":121.0},{"id":143927,"name":"Santa Ana","latitude":14.58,"longitude":121.012},{"id":143928,"name":"Santa Cruz","latitude":14.6181,"longitude":120.985},{"id":143929,"name":"Singkamas","latitude":14.56666667,"longitude":121.01666667},{"id":84948,"name":"Taguig","latitude":14.5243,"longitude":121.0792},{"id":85046,"name":"Tanza","latitude":14.6753,"longitude":120.9389},{"id":143931,"name":"Tondo","latitude":14.617,"longitude":120.967},{"id":143932,"name":"Valenzuela","latitude":14.7,"longitude":120.98333333}]