[{"id":109318,"name":"Amvrosiivka Raion","latitude":47.75,"longitude":38.5},{"id":109319,"name":"Amvrosiyivka","latitude":47.79348,"longitude":38.47768},{"id":109333,"name":"Avdiyivka","latitude":48.13989,"longitude":37.74255},{"id":109342,"name":"Bakhmut","latitude":48.59559,"longitude":37.99987},{"id":109343,"name":"Bakhmut Raion","latitude":48.58333,"longitude":38.0},{"id":109389,"name":"Bezimenne","latitude":47.10716,"longitude":37.93815},{"id":109407,"name":"Bilyts’ke","latitude":48.40642,"longitude":37.18111},{"id":109410,"name":"Blahodatne","latitude":47.87928,"longitude":38.48492},{"id":109441,"name":"Boykivske","latitude":47.40994,"longitude":38.02476},{"id":109442,"name":"Boykivske Raion","latitude":47.41667,"longitude":38.0},{"id":109473,"name":"Chasiv Yar","latitude":48.59348,"longitude":37.85724},{"id":109526,"name":"Chystyakove","latitude":48.03876,"longitude":38.59685},{"id":109532,"name":"Debal’tseve","latitude":48.34072,"longitude":38.4049},{"id":109546,"name":"Dmytrivka","latitude":47.93611,"longitude":38.93661},{"id":109556,"name":"Dobropillia Raion","latitude":48.41667,"longitude":37.16667},{"id":109557,"name":"Dobropillya","latitude":48.46147,"longitude":37.08524},{"id":109563,"name":"Dokuchayevs’k","latitude":47.75046,"longitude":37.67936},{"id":109570,"name":"Donetsk","latitude":48.023,"longitude":37.80224},{"id":109581,"name":"Druzhkivka","latitude":48.63013,"longitude":37.55259},{"id":109641,"name":"Horlivka","latitude":48.33576,"longitude":38.05325},{"id":109668,"name":"Ilovays’k","latitude":47.92498,"longitude":38.20235},{"id":109728,"name":"Khartsyz’k","latitude":48.04243,"longitude":38.14728},{"id":109811,"name":"Kostiantynivka Raion","latitude":48.5,"longitude":37.75},{"id":109817,"name":"Kostyantynivka","latitude":48.5277,"longitude":37.7069},{"id":109828,"name":"Kramators’k","latitude":48.72305,"longitude":37.55629},{"id":109848,"name":"Krasnotorka","latitude":48.68204,"longitude":37.53266},{"id":109862,"name":"Krinichnaya","latitude":48.12899,"longitude":38.02597},{"id":109888,"name":"Kurakhovo","latitude":47.98522,"longitude":37.2821},{"id":109893,"name":"Kuteynykove","latitude":47.81227,"longitude":38.28822},{"id":109940,"name":"Luhans’ke","latitude":48.44574,"longitude":38.26153},{"id":109950,"name":"Lyman","latitude":48.98837,"longitude":37.80225},{"id":109952,"name":"Lyman Raion","latitude":49.0,"longitude":37.83333},{"id":109976,"name":"Makiyivka","latitude":48.04782,"longitude":37.92576},{"id":109977,"name":"Makiyivs’ka Mis’krada","latitude":48.06287,"longitude":38.03075},{"id":109994,"name":"Manhush","latitude":47.05582,"longitude":37.31068},{"id":109997,"name":"Mar'yinka","latitude":47.94527,"longitude":37.50544},{"id":110000,"name":"Mariupol","latitude":47.09514,"longitude":37.54131},{"id":110016,"name":"Melekyne","latitude":46.95957,"longitude":37.39981},{"id":110055,"name":"Mospyne","latitude":47.89081,"longitude":38.06395},{"id":110075,"name":"Myrnohrad","latitude":48.30523,"longitude":37.26091},{"id":110097,"name":"Nikolske Raion","latitude":47.25,"longitude":37.25},{"id":110120,"name":"Novoazovs'k","latitude":47.11389,"longitude":38.08599},{"id":110123,"name":"Novodonets’ke","latitude":48.63526,"longitude":36.98477},{"id":110161,"name":"Novyy Svit","latitude":47.80591,"longitude":38.02112},{"id":110167,"name":"Nyzhnya Krynka","latitude":48.1135,"longitude":38.16064},{"id":110219,"name":"P'yatypill'ya","latitude":48.0159,"longitude":38.09979},{"id":110291,"name":"Pokrovsk","latitude":48.28198,"longitude":37.17585},{"id":110292,"name":"Pokrovsk Raion","latitude":48.25,"longitude":37.16667},{"id":110359,"name":"Rodyns’ke","latitude":48.35199,"longitude":37.20602},{"id":110385,"name":"Rozsypne","latitude":48.14966,"longitude":38.57619},{"id":110408,"name":"Sartana","latitude":47.17436,"longitude":37.69266},{"id":110413,"name":"Selydivs’ka Mis’krada","latitude":48.1453,"longitude":37.29962},{"id":110414,"name":"Selydove","latitude":48.14708,"longitude":37.30032},{"id":110420,"name":"Serebryanka","latitude":48.91917,"longitude":38.13494},{"id":110428,"name":"Shakhtars’k","latitude":48.05657,"longitude":38.43826},{"id":110435,"name":"Shcherbynivka","latitude":48.39489,"longitude":37.79102},{"id":110454,"name":"Shyroke","latitude":47.95711,"longitude":38.2316},{"id":110464,"name":"Sivers’k","latitude":48.86699,"longitude":38.10007},{"id":110486,"name":"Sloviansk","latitude":48.86667,"longitude":37.61667},{"id":110487,"name":"Sloviansk Raion","latitude":48.91667,"longitude":37.5},{"id":110493,"name":"Snizhne","latitude":48.02612,"longitude":38.77225},{"id":110503,"name":"Soledar","latitude":48.67935,"longitude":38.08902},{"id":110531,"name":"Starobesheve","latitude":47.75038,"longitude":38.03051},{"id":110539,"name":"Staryy Krym","latitude":47.16146,"longitude":37.48934},{"id":110552,"name":"Stizhkivs’ke","latitude":48.11333,"longitude":38.4925},{"id":110575,"name":"Svetlodarsk","latitude":48.43374,"longitude":38.22331},{"id":110579,"name":"Svyatogorsk","latitude":49.03333,"longitude":37.56667},{"id":110581,"name":"Syedove","latitude":47.07678,"longitude":38.15602},{"id":110595,"name":"Temriuk","latitude":47.26857,"longitude":36.98115},{"id":110616,"name":"Toretsk","latitude":48.39869,"longitude":37.84787},{"id":110659,"name":"Urzuf","latitude":46.91562,"longitude":37.09961},{"id":110732,"name":"Volnovakha","latitude":47.60103,"longitude":37.49674},{"id":110753,"name":"Vuhlehirs’k","latitude":48.31474,"longitude":38.27423},{"id":110777,"name":"Yalta","latitude":46.96279,"longitude":37.27365},{"id":110790,"name":"Yasynuvata","latitude":48.1298,"longitude":37.8594},{"id":110791,"name":"Yasynuvata Raion","latitude":48.16667,"longitude":37.83333},{"id":110796,"name":"Yenakiyeve","latitude":48.23331,"longitude":38.21137},{"id":110867,"name":"Zuhres","latitude":48.0114,"longitude":38.26444}]