[{"id":31899,"name":"Abades","latitude":40.91646,"longitude":-4.26937},{"id":31938,"name":"Adrada de Pirón","latitude":41.05257,"longitude":-4.05107},{"id":31940,"name":"Adrados","latitude":41.36816,"longitude":-4.11186},{"id":31957,"name":"Aguilafuente","latitude":41.22667,"longitude":-4.11185},{"id":32114,"name":"Alconada de Maderuelo","latitude":41.45015,"longitude":-3.48554},{"id":32141,"name":"Aldea Real","latitude":41.18553,"longitude":-4.16559},{"id":32151,"name":"Aldealcorvo","latitude":41.24443,"longitude":-3.79136},{"id":152756,"name":"Aldealengua de Pedraza","latitude":0.0,"longitude":0.0},{"id":32153,"name":"Aldealengua de Santa María","latitude":41.46196,"longitude":-3.46723},{"id":152757,"name":"Aldeanueva de la Serrezuela","latitude":0.0,"longitude":0.0},{"id":32166,"name":"Aldeanueva del Codonal","latitude":41.08236,"longitude":-4.54369},{"id":32173,"name":"Aldeasoña","latitude":41.47285,"longitude":-4.05711},{"id":152758,"name":"Aldehorno","latitude":0.0,"longitude":0.0},{"id":32179,"name":"Aldehuela del Codonal","latitude":41.05504,"longitude":-4.53863},{"id":32181,"name":"Aldeonte","latitude":41.35092,"longitude":-3.67847},{"id":32366,"name":"Anaya","latitude":40.99184,"longitude":-4.3095},{"id":32595,"name":"Añe","latitude":41.03702,"longitude":-4.29462},{"id":32402,"name":"Arahuetes","latitude":41.13762,"longitude":-3.85664},{"id":32434,"name":"Arcones","latitude":41.11817,"longitude":-3.72384},{"id":32459,"name":"Arevalillo de Cega","latitude":41.16174,"longitude":-3.88911},{"id":32490,"name":"Armuña","latitude":41.07715,"longitude":-4.31949},{"id":32574,"name":"Ayllón","latitude":41.41899,"longitude":-3.37537},{"id":32648,"name":"Barbolla","latitude":41.32567,"longitude":-3.67361},{"id":32687,"name":"Basardilla","latitude":41.02737,"longitude":-4.02598},{"id":32840,"name":"Bercial","latitude":40.90711,"longitude":-4.43638},{"id":32844,"name":"Bercimuel","latitude":41.39925,"longitude":-3.57051},{"id":32861,"name":"Bernardos","latitude":41.12787,"longitude":-4.35119},{"id":152759,"name":"Bernuy de Porreros","latitude":0.0,"longitude":0.0},{"id":32924,"name":"Boceguillas","latitude":41.33641,"longitude":-3.63828},{"id":32982,"name":"Brieva","latitude":41.03483,"longitude":-4.05364},{"id":33065,"name":"Caballar","latitude":41.12159,"longitude":-3.9642},{"id":33071,"name":"Cabañas de Polendos","latitude":41.06667,"longitude":-4.1101},{"id":33088,"name":"Cabezuela","latitude":41.2359,"longitude":-3.93173},{"id":152760,"name":"Calabazas de Fuentidueña","latitude":0.0,"longitude":0.0},{"id":33203,"name":"Campo de San Pedro","latitude":41.42992,"longitude":-3.54599},{"id":33251,"name":"Cantalejo","latitude":41.2576,"longitude":-3.92791},{"id":33258,"name":"Cantimpalos","latitude":41.07406,"longitude":-4.15988},{"id":33287,"name":"Carbonero el Mayor","latitude":41.12257,"longitude":-4.26478},{"id":152761,"name":"Carrascal del Río","latitude":0.0,"longitude":0.0},{"id":33392,"name":"Casla","latitude":41.16602,"longitude":-3.65643},{"id":33459,"name":"Castillejo de Mesleón","latitude":41.281,"longitude":-3.60137},{"id":33489,"name":"Castro de Fuentidueña","latitude":41.42044,"longitude":-3.85528},{"id":33498,"name":"Castrojimeno","latitude":41.39659,"longitude":-3.84726},{"id":33507,"name":"Castroserna de Abajo","latitude":41.20835,"longitude":-3.73387},{"id":33508,"name":"Castroserracín","latitude":41.39329,"longitude":-3.80196},{"id":33556,"name":"Cedillo de la Torre","latitude":41.42482,"longitude":-3.60577},{"id":33588,"name":"Cerezo de Abajo","latitude":41.21817,"longitude":-3.59126},{"id":33589,"name":"Cerezo de Arriba","latitude":41.2389,"longitude":-3.55846},{"id":33620,"name":"Chañe","latitude":41.33834,"longitude":-4.42764},{"id":33671,"name":"Cilleruelo de San Mamés","latitude":41.4322,"longitude":-3.56614},{"id":33712,"name":"Cobos de Fuentidueña","latitude":41.38265,"longitude":-3.92723},{"id":33714,"name":"Coca","latitude":41.21767,"longitude":-4.52145},{"id":33717,"name":"Codorniz","latitude":41.06745,"longitude":-4.60021},{"id":33732,"name":"Collado Hermoso","latitude":41.03869,"longitude":-3.91859},{"id":152762,"name":"Condado de Castilnovo","latitude":0.0,"longitude":0.0},{"id":33799,"name":"Corral de Ayllón","latitude":41.39081,"longitude":-3.45856},{"id":33830,"name":"Cozuelos de Fuentidueña","latitude":41.39086,"longitude":-4.09564},{"id":33854,"name":"Cubillo","latitude":41.12138,"longitude":-3.90878},{"id":33888,"name":"Cuéllar","latitude":41.40155,"longitude":-4.31474},{"id":33872,"name":"Cuevas de Provanco","latitude":41.54209,"longitude":-3.96203},{"id":33938,"name":"Domingo García","latitude":41.11528,"longitude":-4.37927},{"id":33944,"name":"Donhierro","latitude":41.11642,"longitude":-4.6967},{"id":33962,"name":"Duruelo","latitude":41.23622,"longitude":-3.64914},{"id":34046,"name":"Encinas","latitude":41.37511,"longitude":-3.66762},{"id":34054,"name":"Encinillas","latitude":41.01809,"longitude":-4.15784},{"id":34078,"name":"Escalona del Prado","latitude":41.16682,"longitude":-4.12272},{"id":34081,"name":"Escarabajosa de Cabezas","latitude":41.1047,"longitude":-4.19411},{"id":34086,"name":"Escobar de Polendos","latitude":41.09079,"longitude":-4.13117},{"id":152763,"name":"Espinar El","latitude":0.0,"longitude":0.0},{"id":34125,"name":"Espirdo","latitude":40.99764,"longitude":-4.07331},{"id":34245,"name":"Fresneda de Cuéllar","latitude":41.31905,"longitude":-4.44938},{"id":34255,"name":"Fresno de Cantespino","latitude":41.3682,"longitude":-3.4995},{"id":34260,"name":"Fresno de la Fuente","latitude":41.39243,"longitude":-3.64491},{"id":34269,"name":"Frumales","latitude":41.38333,"longitude":-4.18631},{"id":34298,"name":"Fuente de Santa Cruz","latitude":41.20972,"longitude":-4.6353},{"id":34301,"name":"Fuente el Olmo de Fuentidueña","latitude":41.37929,"longitude":-4.00086},{"id":152764,"name":"Fuente el Olmo de Íscar","latitude":0.0,"longitude":0.0},{"id":34330,"name":"Fuentepelayo","latitude":41.22249,"longitude":-4.1757},{"id":34332,"name":"Fuentepiñel","latitude":41.39892,"longitude":-4.04295},{"id":152765,"name":"Fuenterrebollo","latitude":0.0,"longitude":0.0},{"id":34353,"name":"Fuentesaúco de Fuentidueña","latitude":41.42445,"longitude":-4.06215},{"id":34355,"name":"Fuentesoto","latitude":41.45664,"longitude":-3.91835},{"id":34360,"name":"Fuentidueña","latitude":41.44226,"longitude":-3.97899},{"id":34386,"name":"Gallegos","latitude":41.07508,"longitude":-3.78591},{"id":34411,"name":"Garcillán","latitude":40.97771,"longitude":-4.26577},{"id":152766,"name":"Gomezserracín","latitude":0.0,"longitude":0.0},{"id":34496,"name":"Grajera","latitude":41.37319,"longitude":-3.61304},{"id":34637,"name":"Honrubia de la Cuesta","latitude":41.50998,"longitude":-3.70453},{"id":34638,"name":"Hontalbilla","latitude":41.34551,"longitude":-4.12149},{"id":34640,"name":"Hontanares de Eresma","latitude":40.98273,"longitude":-4.20439},{"id":152767,"name":"Huertos Los","latitude":0.0,"longitude":0.0},{"id":34773,"name":"Ituero y Lama","latitude":40.80066,"longitude":-4.37917},{"id":152768,"name":"Juarros de Riomoros","latitude":0.0,"longitude":0.0},{"id":34825,"name":"Juarros de Voltoya","latitude":41.03097,"longitude":-4.51922},{"id":34936,"name":"Labajos","latitude":40.84335,"longitude":-4.52005},{"id":34947,"name":"Laguna de Contreras","latitude":41.49513,"longitude":-4.02874},{"id":34966,"name":"Languilla","latitude":41.44926,"longitude":-3.42438},{"id":35000,"name":"Lastras de Cuéllar","latitude":41.29762,"longitude":-4.1067},{"id":35001,"name":"Lastras del Pozo","latitude":40.8792,"longitude":-4.34658},{"id":152769,"name":"Lastrilla La","latitude":0.0,"longitude":0.0},{"id":152770,"name":"Losa La","latitude":0.0,"longitude":0.0},{"id":35184,"name":"Maderuelo","latitude":41.48644,"longitude":-3.52218},{"id":35277,"name":"Marazoleja","latitude":40.96086,"longitude":-4.33882},{"id":35278,"name":"Marazuela","latitude":40.97912,"longitude":-4.36506},{"id":35303,"name":"Martín Miguel","latitude":40.9522,"longitude":-4.27166},{"id":35304,"name":"Martín Muñoz de la Dehesa","latitude":41.06652,"longitude":-4.68676},{"id":35305,"name":"Martín Muñoz de las Posadas","latitude":40.99546,"longitude":-4.59672},{"id":35310,"name":"Marugán","latitude":40.89943,"longitude":-4.38383},{"id":35330,"name":"Mata de Cuéllar","latitude":41.39655,"longitude":-4.47167},{"id":35331,"name":"Matabuena","latitude":41.0959,"longitude":-3.75827},{"id":152771,"name":"Matilla La","latitude":0.0,"longitude":0.0},{"id":152772,"name":"Melque de Cercos","latitude":0.0,"longitude":0.0},{"id":35393,"name":"Membibre de la Hoz","latitude":41.44958,"longitude":-4.09571},{"id":35425,"name":"Migueláñez","latitude":41.12155,"longitude":-4.3641},{"id":35553,"name":"Montejo de Arévalo","latitude":41.14027,"longitude":-4.66414},{"id":35556,"name":"Montejo de la Vega de la Serrezuela","latitude":41.55032,"longitude":-3.65406},{"id":35566,"name":"Monterrubio","latitude":40.84914,"longitude":-4.35001},{"id":152773,"name":"Moral de Hornuez","latitude":0.0,"longitude":0.0},{"id":35649,"name":"Mozoncillo","latitude":41.14539,"longitude":-4.18753},{"id":35697,"name":"Muñopedro","latitude":40.88804,"longitude":-4.47213},{"id":35701,"name":"Muñoveros","latitude":41.17234,"longitude":-3.95161},{"id":35726,"name":"Nava de la Asunción","latitude":41.15586,"longitude":-4.48751},{"id":35735,"name":"Navafría","latitude":41.05514,"longitude":-3.82478},{"id":35748,"name":"Navalilla","latitude":41.34146,"longitude":-3.93211},{"id":35749,"name":"Navalmanzano","latitude":41.21594,"longitude":-4.25631},{"id":35767,"name":"Navares de Ayuso","latitude":41.37447,"longitude":-3.70745},{"id":35768,"name":"Navares de Enmedio","latitude":41.38096,"longitude":-3.72283},{"id":35769,"name":"Navares de las Cuevas","latitude":41.41431,"longitude":-3.75076},{"id":35780,"name":"Navas de Oro","latitude":41.19627,"longitude":-4.43754},{"id":152785,"name":"Navas de Riofrío","latitude":0.0,"longitude":0.0},{"id":152774,"name":"Navas de San Antonio","latitude":0.0,"longitude":0.0},{"id":35806,"name":"Nieva","latitude":41.08191,"longitude":-4.42501},{"id":35910,"name":"Olombrada","latitude":41.41492,"longitude":-4.16071},{"id":152775,"name":"Orejana","latitude":0.0,"longitude":0.0},{"id":35962,"name":"Ortigosa de Pestaño","latitude":41.08741,"longitude":-4.39516},{"id":35963,"name":"Ortigosa del Monte","latitude":40.84182,"longitude":-4.17724},{"id":35979,"name":"Otero de Herreros","latitude":40.82016,"longitude":-4.2099},{"id":35999,"name":"Pajarejos","latitude":41.38994,"longitude":-3.58997},{"id":36019,"name":"Palazuelos de Eresma","latitude":40.93055,"longitude":-4.06071},{"id":36092,"name":"Pedraza","latitude":41.13092,"longitude":-3.81116},{"id":36123,"name":"Pelayos del Arroyo","latitude":41.05086,"longitude":-3.94104},{"id":36152,"name":"Perosillo","latitude":41.39294,"longitude":-4.14115},{"id":36194,"name":"Pinarejos","latitude":41.2595,"longitude":-4.29364},{"id":36195,"name":"Pinarnegrillo","latitude":41.19098,"longitude":-4.20967},{"id":36340,"name":"Pradales","latitude":41.45555,"longitude":-3.70753},{"id":36404,"name":"Prádena","latitude":41.13911,"longitude":-3.68823},{"id":36420,"name":"Puebla de Pedraza","latitude":41.20557,"longitude":-3.91378},{"id":36546,"name":"Rapariegos","latitude":41.09498,"longitude":-4.65271},{"id":152777,"name":"Real Sitio de San Ildefonso","latitude":0.0,"longitude":0.0},{"id":36555,"name":"Rebollo","latitude":41.19318,"longitude":-3.85771},{"id":36574,"name":"Remondo","latitude":41.341,"longitude":-4.4839},{"id":36602,"name":"Riaguas de San Bartolomé","latitude":41.4264,"longitude":-3.48893},{"id":36604,"name":"Riaza","latitude":41.27826,"longitude":-3.47787},{"id":36619,"name":"Ribota","latitude":41.36477,"longitude":-3.42964},{"id":152776,"name":"Riofrío de Riaza","latitude":0.0,"longitude":0.0},{"id":36662,"name":"Roda de Eresma","latitude":41.02852,"longitude":-4.1813},{"id":36731,"name":"Sacramenia","latitude":41.49419,"longitude":-3.9621},{"id":36790,"name":"Samboal","latitude":41.25758,"longitude":-4.41727},{"id":36820,"name":"San Cristóbal de Cuéllar","latitude":41.40591,"longitude":-4.40445},{"id":36825,"name":"San Cristóbal de la Vega","latitude":41.11214,"longitude":-4.64448},{"id":36822,"name":"San Cristóbal de Segovia","latitude":40.95225,"longitude":-4.07652},{"id":152778,"name":"San Martín y Mudrián","latitude":0.0,"longitude":0.0},{"id":152779,"name":"San Miguel de Bernuy","latitude":0.0,"longitude":0.0},{"id":36905,"name":"San Pedro de Gaíllos","latitude":41.22662,"longitude":-3.80921},{"id":36936,"name":"Sanchonuño","latitude":41.32325,"longitude":-4.30531},{"id":36943,"name":"Sangarcía","latitude":40.95023,"longitude":-4.41085},{"id":37091,"name":"Santa María la Real de Nieva","latitude":41.06998,"longitude":-4.40709},{"id":37073,"name":"Santa Marta del Cerro","latitude":41.21843,"longitude":-3.68582},{"id":152780,"name":"Santiuste de Pedraza","latitude":0.0,"longitude":0.0},{"id":37137,"name":"Santiuste de San Juan Bautista","latitude":41.15593,"longitude":-4.57202},{"id":37139,"name":"Santo Domingo de Pirón","latitude":41.04104,"longitude":-3.98933},{"id":152781,"name":"Santo Tomé del Puerto","latitude":0.0,"longitude":0.0},{"id":37179,"name":"Sauquillo de Cabezas","latitude":41.19422,"longitude":-4.06884},{"id":37185,"name":"Sebúlcor","latitude":41.27091,"longitude":-3.88398},{"id":37192,"name":"Segovia","latitude":40.94808,"longitude":-4.11839},{"id":37215,"name":"Sepúlveda","latitude":41.29695,"longitude":-3.74221},{"id":37216,"name":"Sequera de Fresno","latitude":41.3664,"longitude":-3.54612},{"id":37312,"name":"Sotillo","latitude":41.25846,"longitude":-3.63729},{"id":37323,"name":"Sotosalbos","latitude":41.03537,"longitude":-3.94115},{"id":37341,"name":"Tabanera la Luenga","latitude":41.09647,"longitude":-4.23937},{"id":37445,"name":"Tolocirio","latitude":41.13425,"longitude":-4.65121},{"id":37489,"name":"Torre Val de San Pedro","latitude":41.07534,"longitude":-3.87116},{"id":37508,"name":"Torreadrada","latitude":41.44474,"longitude":-3.84},{"id":37512,"name":"Torrecaballeros","latitude":40.99211,"longitude":-4.0247},{"id":37522,"name":"Torrecilla del Pinar","latitude":41.3736,"longitude":-4.03838},{"id":37535,"name":"Torreiglesias","latitude":41.10236,"longitude":-4.0328},{"id":37630,"name":"Trescasas","latitude":40.96442,"longitude":-4.0359},{"id":37658,"name":"Turégano","latitude":41.1561,"longitude":-4.00696},{"id":37699,"name":"Urueñas","latitude":41.35589,"longitude":-3.77391},{"id":37789,"name":"Valdeprados","latitude":40.81766,"longitude":-4.25734},{"id":37805,"name":"Valdevacas de Montejo","latitude":41.52068,"longitude":-3.63571},{"id":152782,"name":"Valdevacas y Guijar","latitude":0.0,"longitude":0.0},{"id":37847,"name":"Valle de Tabladillo","latitude":41.36304,"longitude":-3.83966},{"id":37852,"name":"Vallelado","latitude":41.40436,"longitude":-4.42662},{"id":37853,"name":"Valleruela de Pedraza","latitude":41.17937,"longitude":-3.80717},{"id":37854,"name":"Valleruela de Sepúlveda","latitude":41.18794,"longitude":-3.77277},{"id":37874,"name":"Valseca","latitude":40.99933,"longitude":-4.17514},{"id":37878,"name":"Valtiendas","latitude":41.47851,"longitude":-3.91766},{"id":37895,"name":"Valverde del Majano","latitude":40.95689,"longitude":-4.23468},{"id":37917,"name":"Veganzones","latitude":41.19308,"longitude":-3.99329},{"id":37919,"name":"Vegas de Matute","latitude":40.79476,"longitude":-4.27762},{"id":152783,"name":"Ventosilla y Tejadilla","latitude":0.0,"longitude":0.0},{"id":38027,"name":"Villacastín","latitude":40.7796,"longitude":-4.41357},{"id":152784,"name":"Villaverde de Íscar","latitude":0.0,"longitude":0.0},{"id":38347,"name":"Villaverde de Montejo","latitude":41.52225,"longitude":-3.65452},{"id":38366,"name":"Villeguillo","latitude":41.2529,"longitude":-4.57951},{"id":38427,"name":"Yanguas de Eresma","latitude":41.07201,"longitude":-4.23905},{"id":38486,"name":"Zarzuela del Monte","latitude":40.80888,"longitude":-4.33613},{"id":38487,"name":"Zarzuela del Pinar","latitude":41.26018,"longitude":-4.18457}]