[{"id":64935,"name":"Angkor Chey","latitude":10.76667,"longitude":104.65},{"id":64938,"name":"Banteay Meas","latitude":10.61667,"longitude":104.53333},{"id":64942,"name":"Chhouk District","latitude":10.81667,"longitude":104.45},{"id":64943,"name":"Kampong Bay","latitude":10.59554,"longitude":104.17136},{"id":64947,"name":"Kampong Tranch","latitude":10.55,"longitude":104.46667},{"id":64948,"name":"Kampot","latitude":10.61041,"longitude":104.18145},{"id":64998,"name":"Srŏk Chŭm Kiri","latitude":11.0054,"longitude":104.44207},{"id":65001,"name":"Srŏk Dângtóng","latitude":10.70733,"longitude":104.42229},{"id":64986,"name":"Srok Tuek Chhou","latitude":10.74557,"longitude":104.11013}]