[{"id":88926,"name":"Aldeia de Joanes","latitude":40.13905,"longitude":-7.51694},{"id":89029,"name":"Belmonte","latitude":40.36181,"longitude":-7.35157},{"id":89104,"name":"Castelo Branco","latitude":39.82219,"longitude":-7.49087},{"id":89133,"name":"Covilhã","latitude":40.28106,"longitude":-7.50504},{"id":89198,"name":"Fundão","latitude":40.12412,"longitude":-7.49542},{"id":89224,"name":"Idanha-A-Nova","latitude":39.92957,"longitude":-7.2369},{"id":89356,"name":"Oleiros","latitude":39.94948,"longitude":-7.88592},{"id":89396,"name":"Penamacor","latitude":40.15495,"longitude":-7.17149},{"id":89440,"name":"Proença-a-Nova","latitude":39.757,"longitude":-7.92595},{"id":89535,"name":"Sertã","latitude":39.80205,"longitude":-8.09589},{"id":89599,"name":"Teixoso","latitude":40.31448,"longitude":-7.45759},{"id":89670,"name":"Vila de Rei","latitude":39.70685,"longitude":-8.12836},{"id":89666,"name":"Vila Velha de Ródão","latitude":39.68709,"longitude":-7.65987}]