[{"id":105189,"name":"Amphoe Ban Dan Lan Hoi","latitude":17.05278,"longitude":99.49148},{"id":105403,"name":"Amphoe Khiri Mat","latitude":16.82923,"longitude":99.73976},{"id":105447,"name":"Amphoe Kong Krailat","latitude":16.93115,"longitude":99.97414},{"id":105593,"name":"Amphoe Mueang Sukhothai","latitude":17.02318,"longitude":99.77864},{"id":106203,"name":"Amphoe Sawankhalok","latitude":17.29899,"longitude":99.85396},{"id":106217,"name":"Amphoe Si Nakhon","latitude":17.39275,"longitude":99.97666},{"id":106223,"name":"Amphoe Si Samrong","latitude":17.16397,"longitude":99.74672},{"id":106224,"name":"Amphoe Si Satchanalai","latitude":17.59927,"longitude":99.70591},{"id":106315,"name":"Amphoe Thung Saliam","latitude":17.37082,"longitude":99.55265},{"id":106388,"name":"Ban Dan Lan Hoi","latitude":17.00683,"longitude":99.57497},{"id":106401,"name":"Ban Na","latitude":17.01717,"longitude":99.73283},{"id":106522,"name":"Khiri Mat","latitude":16.83333,"longitude":99.8},{"id":106695,"name":"Sawankhalok","latitude":17.31597,"longitude":99.83186},{"id":106701,"name":"Si Satchanalai","latitude":17.51692,"longitude":99.75978},{"id":106707,"name":"Sukhothai","latitude":17.00778,"longitude":99.823}]