[{"id":54422,"name":"Brinje","latitude":45.0025,"longitude":15.13389},{"id":54501,"name":"Gospić","latitude":44.54611,"longitude":15.37472},{"id":54633,"name":"Karlobag","latitude":44.5275,"longitude":15.07389},{"id":54690,"name":"Lički Osik","latitude":44.60389,"longitude":15.42472},{"id":54758,"name":"Novalja","latitude":44.55778,"longitude":14.88667},{"id":54796,"name":"Otočac","latitude":44.86944,"longitude":15.2375},{"id":54802,"name":"Perušić","latitude":44.64944,"longitude":15.38333},{"id":54812,"name":"Plitvička Jezera","latitude":44.88053,"longitude":15.62123},{"id":54824,"name":"Popovača","latitude":44.63917,"longitude":15.17917},{"id":54884,"name":"Senj","latitude":44.98944,"longitude":14.90583}]