[{"id":23574,"name":"Alsterdorf","latitude":53.61083,"longitude":10.01306},{"id":23631,"name":"Altona","latitude":53.55,"longitude":9.93333},{"id":23936,"name":"Barmbek-Nord","latitude":53.6052,"longitude":10.03988},{"id":24032,"name":"Bergedorf","latitude":53.48462,"longitude":10.22904},{"id":24047,"name":"Bergstedt","latitude":53.67111,"longitude":10.12694},{"id":24241,"name":"Borgfelde","latitude":53.55475,"longitude":10.03447},{"id":24788,"name":"Duvenstedt","latitude":53.70806,"longitude":10.10444},{"id":24910,"name":"Eidelstedt","latitude":53.60697,"longitude":9.90538},{"id":24919,"name":"Eimsbüttel","latitude":53.57416,"longitude":9.95679},{"id":25143,"name":"Farmsen-Berne","latitude":53.60639,"longitude":10.11972},{"id":25314,"name":"Fuhlsbüttel","latitude":53.63459,"longitude":10.01608},{"id":25866,"name":"Hamburg","latitude":53.57532,"longitude":10.01534},{"id":25867,"name":"Hamburg-Altstadt","latitude":53.55,"longitude":10.0},{"id":25868,"name":"Hamburg-Mitte","latitude":53.55,"longitude":10.01667},{"id":25869,"name":"Hamburg-Nord","latitude":53.58935,"longitude":9.984},{"id":25877,"name":"Hammerbrook","latitude":53.54527,"longitude":10.03042},{"id":25897,"name":"Harburg","latitude":53.46057,"longitude":9.98388},{"id":26284,"name":"Hummelsbüttel","latitude":53.64773,"longitude":10.04149},{"id":26670,"name":"Kleiner Grasbrook","latitude":53.53111,"longitude":9.99361},{"id":26922,"name":"Langenhorn","latitude":53.66667,"longitude":10.01667},{"id":27036,"name":"Lemsahl-Mellingstedt","latitude":53.68998,"longitude":10.09648},{"id":27178,"name":"Lurup","latitude":53.59266,"longitude":9.87697},{"id":27280,"name":"Marienthal","latitude":53.56667,"longitude":10.08333},{"id":27793,"name":"Neustadt","latitude":53.55196,"longitude":9.98558},{"id":28098,"name":"Ohlsdorf","latitude":53.62594,"longitude":10.03145},{"id":28181,"name":"Ottensen","latitude":53.55,"longitude":9.91667},{"id":28351,"name":"Poppenbüttel","latitude":53.65917,"longitude":10.08472},{"id":28726,"name":"Rothenburgsort","latitude":53.535,"longitude":10.04082},{"id":28888,"name":"Sasel","latitude":53.65385,"longitude":10.11184},{"id":29311,"name":"St. Georg","latitude":53.55513,"longitude":10.01231},{"id":29312,"name":"St. Pauli","latitude":53.557,"longitude":9.964},{"id":29354,"name":"Steilshoop","latitude":53.61028,"longitude":10.05917},{"id":29396,"name":"Stellingen","latitude":53.5922,"longitude":9.9287},{"id":30000,"name":"Wandsbek","latitude":53.58334,"longitude":10.08305},{"id":30145,"name":"Wellingsbüttel","latitude":53.64104,"longitude":10.0798},{"id":30333,"name":"Winterhude","latitude":53.6,"longitude":10.0},{"id":30370,"name":"Wohldorf-Ohlstedt","latitude":53.69282,"longitude":10.13117}]