[{"id":9267,"name":"Batak","latitude":41.94225,"longitude":24.21843},{"id":9273,"name":"Belovo","latitude":42.21239,"longitude":24.02081},{"id":9286,"name":"Bratsigovo","latitude":42.01667,"longitude":24.36667},{"id":9384,"name":"Lesichovo","latitude":42.35626,"longitude":24.1119},{"id":9423,"name":"Obshtina Batak","latitude":41.86667,"longitude":24.21667},{"id":9428,"name":"Obshtina Belovo","latitude":42.2,"longitude":23.93333},{"id":9440,"name":"Obshtina Bratsigovo","latitude":42.0,"longitude":24.4},{"id":9520,"name":"Obshtina Lesichovo","latitude":42.36667,"longitude":24.15},{"id":9547,"name":"Obshtina Panagyurishte","latitude":42.5,"longitude":24.16667},{"id":9551,"name":"Obshtina Pazardzhik","latitude":42.2,"longitude":24.33333},{"id":9554,"name":"Obshtina Peshtera","latitude":42.03333,"longitude":24.3},{"id":9568,"name":"Obshtina Rakitovo","latitude":41.99965,"longitude":24.10877},{"id":9585,"name":"Obshtina Septemvri","latitude":42.26667,"longitude":24.13333},{"id":9602,"name":"Obshtina Strelcha","latitude":42.46667,"longitude":24.36667},{"id":9627,"name":"Obshtina Velingrad","latitude":41.96667,"longitude":23.93333},{"id":9644,"name":"Panagyurishte","latitude":42.49518,"longitude":24.19021},{"id":9649,"name":"Pazardzhik","latitude":42.2,"longitude":24.33333},{"id":9652,"name":"Peshtera","latitude":42.03372,"longitude":24.29995},{"id":9666,"name":"Rakitovo","latitude":41.99012,"longitude":24.0873},{"id":9684,"name":"Sarnitsa","latitude":41.73835,"longitude":24.02435},{"id":9685,"name":"Sarnitsa Obshtina","latitude":41.73333,"longitude":24.03333},{"id":9688,"name":"Septemvri","latitude":42.21138,"longitude":24.12946},{"id":9710,"name":"Strelcha","latitude":42.5,"longitude":24.31667},{"id":9738,"name":"Velingrad","latitude":42.02754,"longitude":23.99155}]