[{"id":39294,"name":"Aix-en-Provence","latitude":43.5283,"longitude":5.44973},{"id":39322,"name":"Allauch","latitude":43.33573,"longitude":5.48201},{"id":39323,"name":"Alleins","latitude":43.70387,"longitude":5.16203},{"id":39335,"name":"Alpes-de-Haute-Provence","latitude":44.09829,"longitude":6.26537},{"id":39334,"name":"Alpes-Maritimes","latitude":43.91307,"longitude":7.20436},{"id":39337,"name":"Althen-des-Paluds","latitude":44.00405,"longitude":4.95861},{"id":39424,"name":"Annot","latitude":43.96528,"longitude":6.66879},{"id":39429,"name":"Ansouis","latitude":43.73771,"longitude":5.46356},{"id":39432,"name":"Antibes","latitude":43.58579,"longitude":7.10831},{"id":39446,"name":"Apt","latitude":43.87638,"longitude":5.39635},{"id":39470,"name":"Arenc","latitude":43.31583,"longitude":5.36698},{"id":39489,"name":"Arles","latitude":43.67681,"longitude":4.63031},{"id":39550,"name":"Aspremont","latitude":43.78342,"longitude":7.24406},{"id":39566,"name":"Aubagne","latitude":43.29276,"longitude":5.57067},{"id":39578,"name":"Aubignan","latitude":44.09971,"longitude":5.02526},{"id":39622,"name":"Aups","latitude":43.62841,"longitude":6.22477},{"id":39626,"name":"Aureille","latitude":43.70821,"longitude":4.94728},{"id":39628,"name":"Auribeau-sur-Siagne","latitude":43.60063,"longitude":6.90992},{"id":39631,"name":"Auriol","latitude":43.37161,"longitude":5.6341},{"id":39669,"name":"Avignon","latitude":43.94834,"longitude":4.80892},{"id":39712,"name":"Bagnols-en-Forêt","latitude":43.53752,"longitude":6.69814},{"id":39721,"name":"Baille","latitude":43.2877,"longitude":5.39804},{"id":39759,"name":"Bandol","latitude":43.14247,"longitude":5.74718},{"id":39772,"name":"Barbentane","latitude":43.89939,"longitude":4.74756},{"id":39779,"name":"Barcelonnette","latitude":44.38691,"longitude":6.65179},{"id":39783,"name":"Bargemon","latitude":43.61899,"longitude":6.54957},{"id":39785,"name":"Barjols","latitude":43.55805,"longitude":6.00752},{"id":39855,"name":"Beaulieu-sur-Mer","latitude":43.70692,"longitude":7.33135},{"id":39857,"name":"Beaumes-de-Venise","latitude":44.12227,"longitude":5.03065},{"id":39864,"name":"Beaumont-de-Pertuis","latitude":43.73737,"longitude":5.68959},{"id":39886,"name":"Beausoleil","latitude":43.74311,"longitude":7.4225},{"id":40413,"name":"Bédarrides","latitude":44.04022,"longitude":4.89819},{"id":40414,"name":"Bédoin","latitude":44.12432,"longitude":5.1804},{"id":39903,"name":"Belcodène","latitude":43.42612,"longitude":5.58878},{"id":39905,"name":"Belgentier","latitude":43.24535,"longitude":5.99933},{"id":39909,"name":"Belle de Mai","latitude":43.31184,"longitude":5.38541},{"id":39935,"name":"Belsunce","latitude":43.29834,"longitude":5.3766},{"id":39959,"name":"Berre-l'Étang","latitude":43.47809,"longitude":5.17044},{"id":39960,"name":"Berre-les-Alpes","latitude":43.83052,"longitude":7.32877},{"id":39977,"name":"Besse-sur-Issole","latitude":43.34892,"longitude":6.17656},{"id":40029,"name":"Biot","latitude":43.62852,"longitude":7.0953},{"id":40059,"name":"Blausasc","latitude":43.80572,"longitude":7.36477},{"id":40105,"name":"Bollène","latitude":44.28124,"longitude":4.74891},{"id":40109,"name":"Bon-Secours","latitude":43.31923,"longitude":5.38426},{"id":40125,"name":"Bonneveine","latitude":43.25,"longitude":5.38333},{"id":40127,"name":"Bonnieux","latitude":43.82396,"longitude":5.30759},{"id":40139,"name":"Borel","latitude":43.36486,"longitude":5.36681},{"id":40141,"name":"Bormes-les-Mimosas","latitude":43.15169,"longitude":6.3422},{"id":40149,"name":"Bouc-Bel-Air","latitude":43.45217,"longitude":5.413},{"id":40165,"name":"Boulbon","latitude":43.86232,"longitude":4.69391},{"id":40258,"name":"Bras","latitude":43.47163,"longitude":5.95486},{"id":40273,"name":"Breil-sur-Roya","latitude":43.93755,"longitude":7.51472},{"id":40300,"name":"Briançon","latitude":44.89978,"longitude":6.64201},{"id":40313,"name":"Brignoles","latitude":43.4058,"longitude":6.06172},{"id":40441,"name":"Cabannes","latitude":43.86015,"longitude":4.95192},{"id":40443,"name":"Cabasse","latitude":43.42646,"longitude":6.21917},{"id":40448,"name":"Cabriès","latitude":43.44127,"longitude":5.37884},{"id":40446,"name":"Cabris","latitude":43.65617,"longitude":6.87358},{"id":40453,"name":"Cadenet","latitude":43.735,"longitude":5.37339},{"id":40454,"name":"Caderousse","latitude":44.10327,"longitude":4.75672},{"id":40456,"name":"Cadolive","latitude":43.39694,"longitude":5.54526},{"id":40459,"name":"Cagnes-sur-Mer","latitude":43.66352,"longitude":7.1479},{"id":40472,"name":"Callas","latitude":43.59284,"longitude":6.5384},{"id":40473,"name":"Callian","latitude":43.6221,"longitude":6.75269},{"id":40481,"name":"Camaret-sur-Aigues","latitude":44.16375,"longitude":4.8731},{"id":40501,"name":"Camps-la-Source","latitude":43.38626,"longitude":6.09607},{"id":40512,"name":"Cannes","latitude":43.55135,"longitude":7.01275},{"id":40517,"name":"Cantaron","latitude":43.76203,"longitude":7.31756},{"id":40524,"name":"Cap-d’Ail","latitude":43.72126,"longitude":7.40556},{"id":40540,"name":"Carcès","latitude":43.47585,"longitude":6.18257},{"id":40551,"name":"Carnoules","latitude":43.30187,"longitude":6.18733},{"id":40552,"name":"Carnoux-en-Provence","latitude":43.25639,"longitude":5.56444},{"id":40554,"name":"Caromb","latitude":44.11106,"longitude":5.10738},{"id":40555,"name":"Carpentras","latitude":44.05507,"longitude":5.04813},{"id":40558,"name":"Carqueiranne","latitude":43.09495,"longitude":6.07349},{"id":40561,"name":"Carros","latitude":43.79246,"longitude":7.18745},{"id":40562,"name":"Carry-le-Rouet","latitude":43.33139,"longitude":5.15237},{"id":40571,"name":"Cassis","latitude":43.21571,"longitude":5.53855},{"id":40574,"name":"Castagniers","latitude":43.79134,"longitude":7.23162},{"id":40579,"name":"Castellane","latitude":43.84707,"longitude":6.51283},{"id":40609,"name":"Caumont-sur-Durance","latitude":43.89356,"longitude":4.94745},{"id":40617,"name":"Cavaillon","latitude":43.83125,"longitude":5.03586},{"id":40618,"name":"Cavalaire-sur-Mer","latitude":43.17261,"longitude":6.52959},{"id":41396,"name":"Céreste","latitude":43.8558,"longitude":5.58685},{"id":40666,"name":"Ceyreste","latitude":43.21352,"longitude":5.62946},{"id":40800,"name":"Charleval","latitude":43.71864,"longitude":5.24546},{"id":40961,"name":"Châteauneuf-de-Gadagne","latitude":43.92683,"longitude":4.94453},{"id":40964,"name":"Châteauneuf-du-Pape","latitude":44.05638,"longitude":4.83244},{"id":40960,"name":"Châteauneuf-Grasse","latitude":43.66667,"longitude":6.98333},{"id":40969,"name":"Châteauneuf-le-Rouge","latitude":43.48936,"longitude":5.56921},{"id":40970,"name":"Châteauneuf-les-Martigues","latitude":43.38383,"longitude":5.16403},{"id":40977,"name":"Châteaurenard","latitude":43.88169,"longitude":4.85493},{"id":40892,"name":"Cheval-Blanc","latitude":43.80189,"longitude":5.06229},{"id":40926,"name":"Chorges","latitude":44.54879,"longitude":6.27727},{"id":40929,"name":"Chutes-Lavie","latitude":43.31017,"longitude":5.39464},{"id":41020,"name":"Cinq Avenues","latitude":43.30375,"longitude":5.39761},{"id":41083,"name":"Cogolin","latitude":43.25294,"longitude":6.52981},{"id":41092,"name":"Collobrières","latitude":43.23718,"longitude":6.30901},{"id":41097,"name":"Colomars","latitude":43.7632,"longitude":7.22191},{"id":41155,"name":"Contes","latitude":43.81278,"longitude":7.31444},{"id":41194,"name":"Cornillon-Confoux","latitude":43.56267,"longitude":5.07162},{"id":41211,"name":"Cotignac","latitude":43.52876,"longitude":6.14955},{"id":41221,"name":"Coudoux","latitude":43.558,"longitude":5.24889},{"id":41269,"name":"Courthézon","latitude":44.0876,"longitude":4.88407},{"id":41358,"name":"Cucuron","latitude":43.77298,"longitude":5.43858},{"id":41359,"name":"Cuers","latitude":43.23754,"longitude":6.07178},{"id":41363,"name":"Cuges-les-Pins","latitude":43.27607,"longitude":5.69955},{"id":41634,"name":"Département des Bouches-du-Rhône","latitude":43.52366,"longitude":5.4245},{"id":41647,"name":"Département du Vaucluse","latitude":44.0,"longitude":5.16667},{"id":41478,"name":"Digne-les-Bains","latitude":44.09252,"longitude":6.23199},{"id":41566,"name":"Draguignan","latitude":43.53692,"longitude":6.46458},{"id":41569,"name":"Drap","latitude":43.75508,"longitude":7.32152},{"id":48061,"name":"Éguilles","latitude":43.56867,"longitude":5.35575},{"id":41666,"name":"Embrun","latitude":44.56387,"longitude":6.49526},{"id":41677,"name":"Ensuès-la-Redonne","latitude":43.35464,"longitude":5.20357},{"id":41678,"name":"Entraigues-sur-la-Sorgue","latitude":44.0032,"longitude":4.92657},{"id":48068,"name":"Éoures","latitude":43.30045,"longitude":5.52193},{"id":48117,"name":"Évenos","latitude":43.16365,"longitude":5.84628},{"id":41752,"name":"Eygalières","latitude":43.76099,"longitude":4.94968},{"id":41753,"name":"Eyguières","latitude":43.69481,"longitude":5.03131},{"id":41756,"name":"Eyragues","latitude":43.84103,"longitude":4.84231},{"id":48035,"name":"Èze","latitude":43.72799,"longitude":7.36194},{"id":41767,"name":"Falicon","latitude":43.74861,"longitude":7.27856},{"id":41789,"name":"Fayence","latitude":43.6257,"longitude":6.69531},{"id":41817,"name":"Figanières","latitude":43.56882,"longitude":6.49722},{"id":41829,"name":"Flassans-sur-Issole","latitude":43.36856,"longitude":6.22154},{"id":41835,"name":"Flayosc","latitude":43.53396,"longitude":6.3966},{"id":41907,"name":"Fontvieille","latitude":43.72806,"longitude":4.70953},{"id":41909,"name":"Forcalqueiret","latitude":43.33618,"longitude":6.08346},{"id":41910,"name":"Forcalquier","latitude":43.95927,"longitude":5.77945},{"id":41919,"name":"Fos-sur-Mer","latitude":43.43774,"longitude":4.94457},{"id":41985,"name":"Fréjus","latitude":43.43325,"longitude":6.73555},{"id":41996,"name":"Fuveau","latitude":43.45578,"longitude":5.56149},{"id":42031,"name":"Gap","latitude":44.55858,"longitude":6.07868},{"id":42037,"name":"Gardanne","latitude":43.45491,"longitude":5.46913},{"id":42048,"name":"Garéoult","latitude":43.32833,"longitude":6.04616},{"id":42041,"name":"Gargas","latitude":43.90196,"longitude":5.35814},{"id":42050,"name":"Gassin","latitude":43.22882,"longitude":6.58549},{"id":42052,"name":"Gattières","latitude":43.75951,"longitude":7.17574},{"id":42293,"name":"Gémenos","latitude":43.29751,"longitude":5.62843},{"id":42092,"name":"Gignac-la-Nerthe","latitude":43.39287,"longitude":5.23586},{"id":42093,"name":"Gilette","latitude":43.84976,"longitude":7.16346},{"id":42098,"name":"Ginasservis","latitude":43.67088,"longitude":5.84911},{"id":42130,"name":"Gonfaron","latitude":43.32036,"longitude":6.28929},{"id":42134,"name":"Gorbio","latitude":43.78678,"longitude":7.44375},{"id":42136,"name":"Gordes","latitude":43.9129,"longitude":5.19892},{"id":42148,"name":"Goult","latitude":43.86297,"longitude":5.2439},{"id":42169,"name":"Grambois","latitude":43.76233,"longitude":5.5886},{"id":42184,"name":"Grans","latitude":43.60862,"longitude":5.0629},{"id":42186,"name":"Grasse","latitude":43.65783,"longitude":6.92537},{"id":42190,"name":"Graveson","latitude":43.85051,"longitude":4.77361},{"id":42233,"name":"Gréasque","latitude":43.4331,"longitude":5.54449},{"id":42234,"name":"Gréoux-les-Bains","latitude":43.75844,"longitude":5.88351},{"id":42213,"name":"Grillon","latitude":44.39508,"longitude":4.92954},{"id":42214,"name":"Grimaud","latitude":43.27329,"longitude":6.52171},{"id":42261,"name":"Guillestre","latitude":44.6595,"longitude":6.64948},{"id":42351,"name":"Hautes-Alpes","latitude":44.68055,"longitude":6.28969},{"id":42448,"name":"Hyères","latitude":43.12038,"longitude":6.12857},{"id":42510,"name":"Istres","latitude":43.51345,"longitude":4.98747},{"id":42542,"name":"Jausiers","latitude":44.41705,"longitude":6.72947},{"id":42558,"name":"Jonquerettes","latitude":43.94655,"longitude":4.93286},{"id":42559,"name":"Jonquières","latitude":44.11603,"longitude":4.89989},{"id":42570,"name":"Jouques","latitude":43.6371,"longitude":5.63672},{"id":42625,"name":"L'Estaque","latitude":43.36385,"longitude":5.30854},{"id":43701,"name":"L’Escale","latitude":44.08162,"longitude":6.02379},{"id":43702,"name":"L’Escarène","latitude":43.83492,"longitude":7.35542},{"id":43707,"name":"L’Isle-sur-la-Sorgue","latitude":43.91971,"longitude":5.05141},{"id":42632,"name":"La Barasse","latitude":43.28433,"longitude":5.48664},{"id":42636,"name":"La Bastide-des-Jourdans","latitude":43.78531,"longitude":5.63446},{"id":42660,"name":"La Bâtie-Neuve","latitude":44.5668,"longitude":6.19587},{"id":42643,"name":"La Blancarde","latitude":43.30047,"longitude":5.40563},{"id":42649,"name":"La Bouilladisse","latitude":43.39619,"longitude":5.59307},{"id":42662,"name":"La Cabucelle","latitude":43.33189,"longitude":5.36111},{"id":42663,"name":"La Calade","latitude":43.33895,"longitude":5.35111},{"id":42666,"name":"La Capelette","latitude":43.28086,"longitude":5.406},{"id":42670,"name":"La Celle","latitude":43.39523,"longitude":6.0375},{"id":42708,"name":"La Ciotat","latitude":43.17476,"longitude":5.60449},{"id":42712,"name":"La Colle-sur-Loup","latitude":43.68648,"longitude":7.10376},{"id":42713,"name":"La Conception","latitude":43.29174,"longitude":5.39391},{"id":42721,"name":"La Crau","latitude":43.14962,"longitude":6.07399},{"id":42722,"name":"La Croix-Rouge","latitude":43.33329,"longitude":5.45403},{"id":42723,"name":"La Croix-Valmer","latitude":43.20755,"longitude":6.56796},{"id":42729,"name":"La Delorme","latitude":43.34405,"longitude":5.37251},{"id":42730,"name":"La Destrousse","latitude":43.37505,"longitude":5.6056},{"id":42732,"name":"La Fare-les-Oliviers","latitude":43.55104,"longitude":5.1943},{"id":42733,"name":"La Farlède","latitude":43.16866,"longitude":6.04323},{"id":42755,"name":"La Fourragère","latitude":43.30382,"longitude":5.43138},{"id":42761,"name":"La Garde","latitude":43.12468,"longitude":6.01033},{"id":42763,"name":"La Garde-Freinet","latitude":43.3171,"longitude":6.46946},{"id":42767,"name":"La Gaude","latitude":43.72209,"longitude":7.15296},{"id":42786,"name":"La Joliette","latitude":43.30485,"longitude":5.36654},{"id":42792,"name":"La Londe-les-Maures","latitude":43.13839,"longitude":6.23362},{"id":42807,"name":"La Millère","latitude":43.28128,"longitude":5.49804},{"id":42813,"name":"La Motte","latitude":43.49403,"longitude":6.53519},{"id":42826,"name":"La Page","latitude":43.26627,"longitude":5.37377},{"id":42828,"name":"La Panouse","latitude":43.25576,"longitude":5.42963},{"id":42829,"name":"La Penne-sur-Huveaune","latitude":43.28208,"longitude":5.51642},{"id":42833,"name":"La Pointe Rouge","latitude":43.23853,"longitude":5.37679},{"id":42834,"name":"La Pomme","latitude":43.28987,"longitude":5.44153},{"id":42857,"name":"La Roche-des-Arnauds","latitude":44.56188,"longitude":5.95541},{"id":42865,"name":"La Roque-d’Anthéron","latitude":43.71544,"longitude":5.30973},{"id":42866,"name":"La Roquebrussanne","latitude":43.3403,"longitude":5.97603},{"id":42867,"name":"La Roquette-sur-Siagne","latitude":43.59873,"longitude":6.95671},{"id":42868,"name":"La Rose","latitude":43.32889,"longitude":5.42859},{"id":42878,"name":"La Seyne-sur-Mer","latitude":43.10322,"longitude":5.87816},{"id":42888,"name":"La Timone","latitude":43.28847,"longitude":5.41447},{"id":42898,"name":"La Trinité","latitude":43.7405,"longitude":7.314},{"id":42902,"name":"La Turbie","latitude":43.7454,"longitude":7.40046},{"id":42903,"name":"La Valbarelle","latitude":43.28494,"longitude":5.45387},{"id":42904,"name":"La Valentine","latitude":43.29757,"longitude":5.48432},{"id":42905,"name":"La Valette-du-Var","latitude":43.13763,"longitude":5.98317},{"id":42916,"name":"La Villette","latitude":43.31181,"longitude":5.37391},{"id":42917,"name":"La Viste","latitude":43.35936,"longitude":5.35649},{"id":42956,"name":"Lagnes","latitude":43.89348,"longitude":5.11454},{"id":42980,"name":"Lamanon","latitude":43.69979,"longitude":5.08871},{"id":42987,"name":"Lambesc","latitude":43.65382,"longitude":5.26211},{"id":43056,"name":"Lançon-Provence","latitude":43.59266,"longitude":5.12789},{"id":43050,"name":"Lantosque","latitude":43.97446,"longitude":7.31174},{"id":43059,"name":"Lapalud","latitude":44.3078,"longitude":4.68946},{"id":43065,"name":"Laragne-Montéglin","latitude":44.31667,"longitude":5.81667},{"id":43099,"name":"Lauris","latitude":43.74716,"longitude":5.31346},{"id":43125,"name":"Le Bar-sur-Loup","latitude":43.7,"longitude":6.98333},{"id":43128,"name":"Le Beausset","latitude":43.19822,"longitude":5.80267},{"id":43146,"name":"Le Broc","latitude":43.80878,"longitude":7.16882},{"id":43147,"name":"Le Brusquet","latitude":44.16126,"longitude":6.30925},{"id":43150,"name":"Le Cabot","latitude":43.25884,"longitude":5.41729},{"id":43152,"name":"Le Camas","latitude":43.29469,"longitude":5.39415},{"id":43153,"name":"Le Canet","latitude":43.32611,"longitude":5.3723},{"id":43154,"name":"Le Cannet","latitude":43.57662,"longitude":7.01912},{"id":43155,"name":"Le Cannet-des-Maures","latitude":43.39236,"longitude":6.33966},{"id":43157,"name":"Le Castellet","latitude":43.20291,"longitude":5.77657},{"id":43164,"name":"Le Chapitre","latitude":43.30053,"longitude":5.38433},{"id":43212,"name":"Le Lavandou","latitude":43.137,"longitude":6.366},{"id":43217,"name":"Le Luc","latitude":43.39453,"longitude":6.31253},{"id":43225,"name":"Le Merlan","latitude":43.33875,"longitude":5.40773},{"id":43237,"name":"Le Monêtier-les-Bains","latitude":44.97604,"longitude":6.50898},{"id":43238,"name":"Le Muy","latitude":43.4728,"longitude":6.56637},{"id":43255,"name":"Le Pharo","latitude":43.2914,"longitude":5.35829},{"id":43262,"name":"Le Plan-de-la-Tour","latitude":43.33333,"longitude":6.55},{"id":43275,"name":"Le Pontet","latitude":43.96119,"longitude":4.86008},{"id":43283,"name":"Le Pradet","latitude":43.10545,"longitude":6.0235},{"id":43286,"name":"Le Puy-Sainte-Réparade","latitude":43.66393,"longitude":5.43493},{"id":43292,"name":"Le Redon","latitude":43.24604,"longitude":5.42889},{"id":43294,"name":"Le Revest-les-Eaux","latitude":43.17612,"longitude":5.92667},{"id":43296,"name":"Le Rouret","latitude":43.67873,"longitude":7.01521},{"id":43297,"name":"Le Rove","latitude":43.36987,"longitude":5.25112},{"id":43314,"name":"Le Tholonet","latitude":43.52176,"longitude":5.51115},{"id":43316,"name":"Le Thor","latitude":43.92943,"longitude":4.99543},{"id":43317,"name":"Le Thoronet","latitude":43.45174,"longitude":6.30391},{"id":43320,"name":"Le Tignet","latitude":43.63979,"longitude":6.84625},{"id":43326,"name":"Le Val","latitude":43.43928,"longitude":6.07335},{"id":43356,"name":"Les Accates","latitude":43.29989,"longitude":5.49726},{"id":43364,"name":"Les Arcs","latitude":43.46328,"longitude":6.47876},{"id":43365,"name":"Les Arnavaux","latitude":43.33506,"longitude":5.37969},{"id":43370,"name":"Les Aygalades","latitude":43.35711,"longitude":5.37116},{"id":43371,"name":"Les Baumettes","latitude":43.22641,"longitude":5.41642},{"id":43373,"name":"Les Caillols","latitude":43.30221,"longitude":5.44811},{"id":43374,"name":"Les Camoins","latitude":43.30607,"longitude":5.51745},{"id":43376,"name":"Les Chartreux","latitude":43.31112,"longitude":5.4048},{"id":43381,"name":"Les Crottes","latitude":43.32302,"longitude":5.36809},{"id":43393,"name":"Les Grands Carmes","latitude":43.30038,"longitude":5.37275},{"id":43413,"name":"Les Médecins","latitude":43.35417,"longitude":5.45483},{"id":43414,"name":"Les Mées","latitude":44.02961,"longitude":5.97635},{"id":43416,"name":"Les Olives","latitude":43.32393,"longitude":5.4584},{"id":43420,"name":"Les Pennes-Mirabeau","latitude":43.41012,"longitude":5.30838},{"id":43431,"name":"Les Trois-Lucs","latitude":43.31371,"longitude":5.46248},{"id":43450,"name":"Levens","latitude":43.85948,"longitude":7.22583},{"id":43536,"name":"Lodi","latitude":43.28663,"longitude":5.38882},{"id":43586,"name":"Lorgues","latitude":43.49325,"longitude":6.3615},{"id":43588,"name":"Loriol-du-Comtat","latitude":44.07653,"longitude":5.00065},{"id":43609,"name":"Lourmarin","latitude":43.76385,"longitude":5.36264},{"id":43639,"name":"Lucéram","latitude":43.88293,"longitude":7.35988},{"id":43733,"name":"Maillane","latitude":43.83289,"longitude":4.78209},{"id":43751,"name":"Malaucène","latitude":44.17393,"longitude":5.13213},{"id":43754,"name":"Malemort-du-Comtat","latitude":44.02096,"longitude":5.15961},{"id":43760,"name":"Malijai","latitude":44.046,"longitude":6.03041},{"id":43763,"name":"Mallemoisson","latitude":44.04687,"longitude":6.12557},{"id":43764,"name":"Mallemort","latitude":43.73172,"longitude":5.17945},{"id":43765,"name":"Malpassé","latitude":43.3217,"longitude":5.41551},{"id":43773,"name":"Mandelieu-la-Napoule","latitude":43.54577,"longitude":6.93734},{"id":43777,"name":"Mane","latitude":43.93795,"longitude":5.76718},{"id":43780,"name":"Manosque","latitude":43.82883,"longitude":5.78688},{"id":43838,"name":"Marignane","latitude":43.41727,"longitude":5.21462},{"id":43883,"name":"Marseille","latitude":43.29695,"longitude":5.38107},{"id":43884,"name":"Marseille 01","latitude":43.29814,"longitude":5.38407},{"id":43885,"name":"Marseille 02","latitude":43.29664,"longitude":5.37034},{"id":43886,"name":"Marseille 03","latitude":43.30257,"longitude":5.37583},{"id":43887,"name":"Marseille 04","latitude":43.30213,"longitude":5.40141},{"id":43888,"name":"Marseille 05","latitude":43.29551,"longitude":5.40055},{"id":43889,"name":"Marseille 06","latitude":43.28764,"longitude":5.37918},{"id":43890,"name":"Marseille 07","latitude":43.28289,"longitude":5.36021},{"id":43891,"name":"Marseille 08","latitude":43.27083,"longitude":5.3821},{"id":43892,"name":"Marseille 09","latitude":43.25433,"longitude":5.4057},{"id":43893,"name":"Marseille 10","latitude":43.27889,"longitude":5.41523},{"id":43894,"name":"Marseille 11","latitude":43.2907,"longitude":5.4384},{"id":43895,"name":"Marseille 12","latitude":43.29614,"longitude":5.43617},{"id":43896,"name":"Marseille 13","latitude":43.31856,"longitude":5.40836},{"id":43897,"name":"Marseille 14","latitude":43.34447,"longitude":5.38004},{"id":43898,"name":"Marseille 15","latitude":43.37224,"longitude":5.35386},{"id":43899,"name":"Marseille 16","latitude":43.35982,"longitude":5.33421},{"id":43900,"name":"Marseille Bompard","latitude":43.2812,"longitude":5.36081},{"id":43901,"name":"Marseille Endoume","latitude":43.2832,"longitude":5.35159},{"id":43902,"name":"Marseille Prefecture","latitude":43.29092,"longitude":5.37901},{"id":43903,"name":"Marseille Roucas-Blanc","latitude":43.27652,"longitude":5.36519},{"id":43904,"name":"Marseille Saint-Victor","latitude":43.28955,"longitude":5.36845},{"id":43905,"name":"Marseille Vauban","latitude":43.28408,"longitude":5.3754},{"id":43916,"name":"Martigues","latitude":43.40735,"longitude":5.05526},{"id":43943,"name":"Maubec","latitude":43.84379,"longitude":5.13919},{"id":43959,"name":"Maussane-les-Alpilles","latitude":43.72236,"longitude":4.80497},{"id":43972,"name":"Mazan","latitude":44.05696,"longitude":5.1268},{"id":43973,"name":"Mazargues","latitude":43.24622,"longitude":5.39788},{"id":44462,"name":"Ménerbes","latitude":43.83242,"longitude":5.20597},{"id":44003,"name":"Menpenti","latitude":43.28198,"longitude":5.39607},{"id":44007,"name":"Menton","latitude":43.77649,"longitude":7.50435},{"id":44468,"name":"Méounes-lès-Montrieux","latitude":43.28102,"longitude":5.96986},{"id":44475,"name":"Mérindol","latitude":43.75516,"longitude":5.20357},{"id":44059,"name":"Meyrargues","latitude":43.63677,"longitude":5.52679},{"id":44060,"name":"Meyreuil","latitude":43.4878,"longitude":5.49574},{"id":44079,"name":"Mimet","latitude":43.41427,"longitude":5.50579},{"id":44087,"name":"Miramas","latitude":43.58508,"longitude":5.00268},{"id":44125,"name":"Mollégès","latitude":43.80703,"longitude":4.94934},{"id":44139,"name":"Mondragon","latitude":44.23831,"longitude":4.71286},{"id":44186,"name":"Montauroux","latitude":43.61823,"longitude":6.76528},{"id":44229,"name":"Monteux","latitude":44.03618,"longitude":4.9963},{"id":44234,"name":"Montfavet","latitude":43.93335,"longitude":4.87342},{"id":44238,"name":"Montferrat","latitude":43.61196,"longitude":6.48093},{"id":44296,"name":"Montolivet","latitude":43.31715,"longitude":5.4235},{"id":44304,"name":"Montredon","latitude":43.24016,"longitude":5.36629},{"id":44355,"name":"Morières-lès-Avignon","latitude":43.9403,"longitude":4.9011},{"id":44359,"name":"Mormoiron","latitude":44.0681,"longitude":5.18312},{"id":44362,"name":"Mornas","latitude":44.20242,"longitude":4.72763},{"id":44381,"name":"Mouans-Sartoux","latitude":43.62101,"longitude":6.97139},{"id":44386,"name":"Mougins","latitude":43.60068,"longitude":6.99523},{"id":44400,"name":"Mouret","latitude":43.36126,"longitude":5.43006},{"id":44401,"name":"Mouriès","latitude":43.68997,"longitude":4.87089},{"id":44504,"name":"Nans-les-Pins","latitude":43.37066,"longitude":5.78189},{"id":44693,"name":"Néoules","latitude":43.30844,"longitude":6.00798},{"id":44587,"name":"Nice","latitude":43.70313,"longitude":7.26608},{"id":44608,"name":"Noailles","latitude":43.29604,"longitude":5.37959},{"id":44649,"name":"Notre-Dame du Mont","latitude":43.29293,"longitude":5.38203},{"id":44648,"name":"Notre-Dame Limite","latitude":43.38165,"longitude":5.36269},{"id":44666,"name":"Noves","latitude":43.87736,"longitude":4.90248},{"id":44735,"name":"Ollioules","latitude":43.1399,"longitude":5.84766},{"id":44749,"name":"Opéra","latitude":43.29401,"longitude":5.3761},{"id":44747,"name":"Opio","latitude":43.66862,"longitude":6.98212},{"id":44748,"name":"Oppède le Vieux","latitude":43.82844,"longitude":5.16132},{"id":44752,"name":"Oraison","latitude":43.91726,"longitude":5.91836},{"id":44753,"name":"Orange","latitude":44.13806,"longitude":4.81025},{"id":44764,"name":"Orgon","latitude":43.79108,"longitude":5.03869},{"id":44831,"name":"Palais de Justice","latitude":43.28657,"longitude":5.37603},{"id":44834,"name":"Palama","latitude":43.36566,"longitude":5.44427},{"id":44846,"name":"Paradou","latitude":43.71699,"longitude":4.78604},{"id":45345,"name":"Pégomas","latitude":43.59662,"longitude":6.93211},{"id":44882,"name":"Peille","latitude":43.80296,"longitude":7.40191},{"id":44883,"name":"Peillon","latitude":43.77861,"longitude":7.38278},{"id":44885,"name":"Peipin","latitude":44.13778,"longitude":5.95722},{"id":45346,"name":"Pélissanne","latitude":43.6326,"longitude":5.1522},{"id":45351,"name":"Périer","latitude":43.27755,"longitude":5.37925},{"id":44898,"name":"Pernes-les-Fontaines","latitude":43.99802,"longitude":5.05906},{"id":44911,"name":"Pertuis","latitude":43.69415,"longitude":5.50291},{"id":44923,"name":"Peymeinade","latitude":43.64244,"longitude":6.87583},{"id":44924,"name":"Peynier","latitude":43.44837,"longitude":5.64139},{"id":44925,"name":"Peypin","latitude":43.38503,"longitude":5.57788},{"id":44934,"name":"Peyrolles-en-Provence","latitude":43.64545,"longitude":5.58492},{"id":44935,"name":"Peyruis","latitude":44.0288,"longitude":5.94032},{"id":44953,"name":"Pierrefeu-du-Var","latitude":43.22411,"longitude":6.14536},{"id":44963,"name":"Pierrevert","latitude":43.81137,"longitude":5.74958},{"id":44969,"name":"Pignans","latitude":43.30071,"longitude":6.2265},{"id":44974,"name":"Piolenc","latitude":44.17765,"longitude":4.76157},{"id":44996,"name":"Plan-d'Aups-Sainte-Baume","latitude":43.33333,"longitude":5.71667},{"id":44997,"name":"Plan-de-Cuques","latitude":43.34753,"longitude":5.46398},{"id":45163,"name":"Pont de Vivaux","latitude":43.27604,"longitude":5.41586},{"id":45233,"name":"Port-de-Bouc","latitude":43.40657,"longitude":4.9809},{"id":45229,"name":"Port-Saint-Louis-du-Rhône","latitude":43.38734,"longitude":4.82609},{"id":45266,"name":"Pourrières","latitude":43.50611,"longitude":5.73452},{"id":45316,"name":"Puget-sur-Argens","latitude":43.45576,"longitude":6.68519},{"id":45314,"name":"Puget-Théniers","latitude":43.95598,"longitude":6.89378},{"id":45315,"name":"Puget-Ville","latitude":43.28958,"longitude":6.13612},{"id":45339,"name":"Puyloubier","latitude":43.52522,"longitude":5.6765},{"id":45421,"name":"Ramatuelle","latitude":43.21599,"longitude":6.61156},{"id":45690,"name":"Régusse","latitude":43.6554,"longitude":6.13186},{"id":45449,"name":"Reillanne","latitude":43.87899,"longitude":5.65919},{"id":45486,"name":"Rians","latitude":43.60691,"longitude":5.75696},{"id":45509,"name":"Riez","latitude":43.8181,"longitude":6.09268},{"id":45537,"name":"Robion","latitude":43.84697,"longitude":5.11017},{"id":45538,"name":"Rocbaron","latitude":43.30904,"longitude":6.07941},{"id":45558,"name":"Rognac","latitude":43.48761,"longitude":5.23387},{"id":45559,"name":"Rognes","latitude":43.66378,"longitude":5.34733},{"id":45560,"name":"Rognonas","latitude":43.89993,"longitude":4.80369},{"id":45588,"name":"Roquebillière","latitude":44.01203,"longitude":7.30727},{"id":45589,"name":"Roquebrune-Cap-Martin","latitude":43.76408,"longitude":7.48207},{"id":45590,"name":"Roquebrune-sur-Argens","latitude":43.44313,"longitude":6.63772},{"id":45593,"name":"Roquefort-la-Bédoule","latitude":43.24883,"longitude":5.59015},{"id":45597,"name":"Roquevaire","latitude":43.35021,"longitude":5.60414},{"id":45618,"name":"Rouet","latitude":43.27808,"longitude":5.39158},{"id":45624,"name":"Rougiers","latitude":43.39233,"longitude":5.85112},{"id":45637,"name":"Rousset","latitude":43.48307,"longitude":5.61959},{"id":45638,"name":"Roussillon","latitude":43.90239,"longitude":5.29274},{"id":45699,"name":"Sablet","latitude":44.19265,"longitude":5.00566},{"id":45715,"name":"Saignon","latitude":43.86308,"longitude":5.42838},{"id":45754,"name":"Saint-Andiol","latitude":43.83484,"longitude":4.94453},{"id":45755,"name":"Saint-André","latitude":43.3563,"longitude":5.34335},{"id":45761,"name":"Saint-André-de-la-Roche","latitude":43.73333,"longitude":7.28333},{"id":45770,"name":"Saint-Antoine","latitude":43.37087,"longitude":5.35888},{"id":45803,"name":"Saint-Barnabé","latitude":43.3,"longitude":5.41667},{"id":45805,"name":"Saint-Barthélémy","latitude":43.33105,"longitude":5.40241},{"id":45817,"name":"Saint-Bonnet-en-Champsaur","latitude":44.68333,"longitude":6.08333},{"id":45837,"name":"Saint-Cannat","latitude":43.62132,"longitude":5.2981},{"id":45893,"name":"Saint-Cézaire-sur-Siagne","latitude":43.65015,"longitude":6.79219},{"id":45845,"name":"Saint-Chaffrey","latitude":44.92555,"longitude":6.60768},{"id":45846,"name":"Saint-Chamas","latitude":43.55048,"longitude":5.03501},{"id":45849,"name":"Saint-Charles","latitude":43.30199,"longitude":5.38405},{"id":45889,"name":"Saint-Cyr-sur-Mer","latitude":43.18048,"longitude":5.7012},{"id":45905,"name":"Saint-Didier","latitude":44.00424,"longitude":5.11053},{"id":46650,"name":"Saint-Étienne-de-Tinée","latitude":44.25643,"longitude":6.92499},{"id":46654,"name":"Saint-Étienne-du-Grès","latitude":43.78045,"longitude":4.72534},{"id":46037,"name":"Saint-Giniez","latitude":43.26946,"longitude":5.38566},{"id":46047,"name":"Saint-Henri","latitude":43.36151,"longitude":5.33069},{"id":46082,"name":"Saint-Jean du Désert","latitude":43.29331,"longitude":5.42134},{"id":46085,"name":"Saint-Jean-Cap-Ferrat","latitude":43.68843,"longitude":7.33361},{"id":46122,"name":"Saint-Jeannet","latitude":43.74718,"longitude":7.14299},{"id":46166,"name":"Saint-Jérôme","latitude":43.33404,"longitude":5.41733},{"id":46128,"name":"Saint-Joseph","latitude":43.34617,"longitude":5.37976},{"id":46136,"name":"Saint-Julien","latitude":43.31334,"longitude":5.44935},{"id":46150,"name":"Saint-Just","latitude":43.317,"longitude":5.40587},{"id":46167,"name":"Saint-Lambert","latitude":43.28606,"longitude":5.36},{"id":46185,"name":"Saint-Laurent-du-Var","latitude":43.67323,"longitude":7.19},{"id":46191,"name":"Saint-Lazare","latitude":43.30545,"longitude":5.37443},{"id":46197,"name":"Saint-Louis","latitude":43.34809,"longitude":5.35463},{"id":46199,"name":"Saint-Loup","latitude":43.27766,"longitude":5.43133},{"id":46235,"name":"Saint-Mandrier-sur-Mer","latitude":43.078,"longitude":5.929},{"id":46239,"name":"Saint-Marc-Jaumegarde","latitude":43.54718,"longitude":5.5228},{"id":46242,"name":"Saint-Marcel","latitude":43.28745,"longitude":5.46604},{"id":46270,"name":"Saint-Martin-de-Crau","latitude":43.63955,"longitude":4.8127},{"id":46276,"name":"Saint-Martin-de-Queyrières","latitude":44.82319,"longitude":6.57901},{"id":46292,"name":"Saint-Martin-du-Var","latitude":43.81846,"longitude":7.19062},{"id":46266,"name":"Saint-Martin-Vésubie","latitude":44.06892,"longitude":7.25583},{"id":46322,"name":"Saint-Mauront","latitude":43.31552,"longitude":5.37538},{"id":46325,"name":"Saint-Maximin-la-Sainte-Baume","latitude":43.44813,"longitude":5.86081},{"id":46329,"name":"Saint-Menet","latitude":43.28997,"longitude":5.50427},{"id":46339,"name":"Saint-Michel-l’Observatoire","latitude":43.90977,"longitude":5.71584},{"id":46343,"name":"Saint-Mitre","latitude":43.3464,"longitude":5.42274},{"id":46344,"name":"Saint-Mitre-les-Remparts","latitude":43.45503,"longitude":5.01429},{"id":46410,"name":"Saint-Paul-de-Vence","latitude":43.7,"longitude":7.11667},{"id":46413,"name":"Saint-Paul-en-Forêt","latitude":43.56709,"longitude":6.69206},{"id":46428,"name":"Saint-Pierre","latitude":43.29282,"longitude":5.40682},{"id":46494,"name":"Saint-Raphaël","latitude":43.42332,"longitude":6.7735},{"id":46511,"name":"Saint-Rémy-de-Provence","latitude":43.78848,"longitude":4.83167},{"id":46522,"name":"Saint-Saturnin-lès-Apt","latitude":43.93333,"longitude":5.38333},{"id":46523,"name":"Saint-Saturnin-lès-Avignon","latitude":43.95501,"longitude":4.92548},{"id":46543,"name":"Saint-Savournin","latitude":43.40848,"longitude":5.5269},{"id":46588,"name":"Saint-Tronc","latitude":43.27093,"longitude":5.42285},{"id":46589,"name":"Saint-Tropez","latitude":43.26764,"longitude":6.64049},{"id":46600,"name":"Saint-Vallier-de-Thiey","latitude":43.69841,"longitude":6.84779},{"id":46610,"name":"Saint-Victoret","latitude":43.41957,"longitude":5.23396},{"id":46634,"name":"Saint-Zacharie","latitude":43.38521,"longitude":5.70808},{"id":46661,"name":"Sainte-Agnès","latitude":43.80054,"longitude":7.4615},{"id":46662,"name":"Sainte-Anastasie-sur-Issole","latitude":43.34266,"longitude":6.12493},{"id":46663,"name":"Sainte-Anne","latitude":43.2572,"longitude":5.39377},{"id":46675,"name":"Sainte-Cécile-les-Vignes","latitude":44.24542,"longitude":4.88613},{"id":46705,"name":"Sainte-Marguerite","latitude":43.26196,"longitude":5.40125},{"id":46715,"name":"Sainte-Marthe","latitude":43.33449,"longitude":5.39112},{"id":46718,"name":"Sainte-Maxime","latitude":43.30907,"longitude":6.63849},{"id":46732,"name":"Sainte-Tulle","latitude":43.78619,"longitude":5.76513},{"id":46735,"name":"Saintes-Maries-de-la-Mer","latitude":43.45214,"longitude":4.42913},{"id":46745,"name":"Salernes","latitude":43.5635,"longitude":6.23386},{"id":46766,"name":"Salon-de-Provence","latitude":43.64229,"longitude":5.09478},{"id":46780,"name":"Sanary-sur-Mer","latitude":43.11985,"longitude":5.80155},{"id":46816,"name":"Sarrians","latitude":44.08312,"longitude":4.97111},{"id":46844,"name":"Sault","latitude":44.08968,"longitude":5.40836},{"id":46856,"name":"Sausset-les-Pins","latitude":43.33136,"longitude":5.10431},{"id":46923,"name":"Seillans","latitude":43.63623,"longitude":6.64332},{"id":47139,"name":"Sénas","latitude":43.74375,"longitude":5.078},{"id":46951,"name":"Septèmes-les-Vallons","latitude":43.39834,"longitude":5.36596},{"id":47145,"name":"Sérignan-du-Comtat","latitude":44.18915,"longitude":4.84379},{"id":46966,"name":"Serres","latitude":44.42753,"longitude":5.71458},{"id":46982,"name":"Seyne-les-Alpes","latitude":44.35042,"longitude":6.35634},{"id":46992,"name":"Signes","latitude":43.2908,"longitude":5.86284},{"id":47002,"name":"Simiane-Collongue","latitude":43.43067,"longitude":5.43454},{"id":47009,"name":"Sisteron","latitude":44.19002,"longitude":5.94643},{"id":47010,"name":"Six-Fours-les-Plages","latitude":43.09174,"longitude":5.82465},{"id":47030,"name":"Solliès-Pont","latitude":43.19009,"longitude":6.04115},{"id":47031,"name":"Solliès-Toucas","latitude":43.20579,"longitude":6.02485},{"id":47032,"name":"Solliès-Ville","latitude":43.18256,"longitude":6.03849},{"id":47046,"name":"Sorgues","latitude":44.01023,"longitude":4.87381},{"id":47048,"name":"Sormiou","latitude":43.20959,"longitude":5.41872},{"id":47052,"name":"Sospel","latitude":43.87792,"longitude":7.44788},{"id":47095,"name":"Spéracèdes","latitude":43.6485,"longitude":6.85889},{"id":47155,"name":"Taillades","latitude":43.83762,"longitude":5.08951},{"id":47164,"name":"Tallard","latitude":44.462,"longitude":6.05205},{"id":47172,"name":"Tanneron","latitude":43.59057,"longitude":6.87541},{"id":47174,"name":"Taradeau","latitude":43.45444,"longitude":6.42729},{"id":47176,"name":"Tarascon","latitude":43.80583,"longitude":4.66028},{"id":47202,"name":"Tende","latitude":44.08752,"longitude":7.59366},{"id":47270,"name":"Théoule-sur-Mer","latitude":43.5078,"longitude":6.9408},{"id":47229,"name":"Thiers","latitude":43.29748,"longitude":5.38198},{"id":47312,"name":"Toulon","latitude":43.12442,"longitude":5.92836},{"id":47331,"name":"Tourrette-Levens","latitude":43.7864,"longitude":7.27598},{"id":47332,"name":"Tourrettes-sur-Loup","latitude":43.71569,"longitude":7.05892},{"id":47335,"name":"Tourves","latitude":43.40803,"longitude":5.92392},{"id":47348,"name":"Trans-en-Provence","latitude":43.50326,"longitude":6.48641},{"id":47366,"name":"Trets","latitude":43.44818,"longitude":5.68328},{"id":47421,"name":"Uchaux","latitude":44.21667,"longitude":4.8},{"id":47451,"name":"Vacqueyras","latitude":44.13835,"longitude":4.98332},{"id":47459,"name":"Vaison-la-Romaine","latitude":44.23896,"longitude":5.07461},{"id":47467,"name":"Valbonne","latitude":43.63292,"longitude":6.99911},{"id":47476,"name":"Valensole","latitude":43.83766,"longitude":5.98392},{"id":47485,"name":"Vallauris","latitude":43.57803,"longitude":7.05451},{"id":47500,"name":"Valréas","latitude":44.3849,"longitude":4.99125},{"id":47506,"name":"Var","latitude":43.4586,"longitude":6.29145},{"id":47554,"name":"Vedène","latitude":43.97744,"longitude":4.90428},{"id":47560,"name":"Velaux","latitude":43.52839,"longitude":5.25661},{"id":47561,"name":"Velleron","latitude":43.95742,"longitude":5.02936},{"id":47564,"name":"Venasque","latitude":43.99595,"longitude":5.14666},{"id":47565,"name":"Vence","latitude":43.72254,"longitude":7.11183},{"id":47580,"name":"Venelles","latitude":43.59859,"longitude":5.47977},{"id":47587,"name":"Ventabren","latitude":43.53847,"longitude":5.29541},{"id":47596,"name":"Verduron","latitude":43.37063,"longitude":5.34513},{"id":47627,"name":"Vernègues","latitude":43.68575,"longitude":5.17156},{"id":47652,"name":"Veynes","latitude":44.53406,"longitude":5.82321},{"id":47673,"name":"Vidauban","latitude":43.42721,"longitude":6.43185},{"id":47674,"name":"Vieille Chapelle","latitude":43.24963,"longitude":5.38048},{"id":47709,"name":"Villar-Saint-Pancrace","latitude":44.87318,"longitude":6.62669},{"id":47728,"name":"Villecroze","latitude":43.58223,"longitude":6.27587},{"id":47740,"name":"Villefranche-sur-Mer","latitude":43.70392,"longitude":7.31088},{"id":47747,"name":"Villelaure","latitude":43.71075,"longitude":5.43422},{"id":47760,"name":"Villeneuve","latitude":44.94488,"longitude":6.56545},{"id":47762,"name":"Villeneuve-Loubet","latitude":43.6579,"longitude":7.12233},{"id":47814,"name":"Villes-sur-Auzon","latitude":44.05669,"longitude":5.2343},{"id":47849,"name":"Vinon-sur-Verdon","latitude":43.72484,"longitude":5.81168},{"id":47854,"name":"Violès","latitude":44.16176,"longitude":4.95483},{"id":47869,"name":"Visan","latitude":44.31468,"longitude":4.95033},{"id":47870,"name":"Vitrolles","latitude":43.46,"longitude":5.24861},{"id":47897,"name":"Volonne","latitude":44.11039,"longitude":6.01424},{"id":47900,"name":"Volx","latitude":43.87787,"longitude":5.84148}]