[{"id":31755,"name":"Abnūb","latitude":27.2696,"longitude":31.15105},{"id":31758,"name":"Abū Tīj","latitude":27.04411,"longitude":31.31897},{"id":31764,"name":"Al Badārī","latitude":26.99257,"longitude":31.41554},{"id":31781,"name":"Al Qūşīyah","latitude":27.4402,"longitude":30.81841},{"id":31792,"name":"Asyūţ","latitude":27.18096,"longitude":31.18368},{"id":31807,"name":"Dayrūţ","latitude":27.55602,"longitude":30.80764},{"id":31836,"name":"Manfalūţ","latitude":27.3104,"longitude":30.97004}]