[{"id":97644,"name":"Anuchino","latitude":43.96571,"longitude":133.05846},{"id":97645,"name":"Anuchinskiy Rayon","latitude":44.0,"longitude":133.0},{"id":97678,"name":"Arsen’yev","latitude":44.15254,"longitude":133.27791},{"id":97686,"name":"Artëm","latitude":43.3595,"longitude":132.18887},{"id":97789,"name":"Barabash","latitude":43.19948,"longitude":131.49185},{"id":97946,"name":"Blagodatnoye","latitude":44.32285,"longitude":132.0905},{"id":98008,"name":"Bol’shoy Kamen’","latitude":43.11283,"longitude":132.354},{"id":98166,"name":"Chernigovka","latitude":44.34216,"longitude":132.56937},{"id":98167,"name":"Chernigovskiy Rayon","latitude":44.33333,"longitude":132.58333},{"id":98182,"name":"Chernyshëvka","latitude":44.19971,"longitude":133.13193},{"id":98208,"name":"Chkalovskoye","latitude":44.83808,"longitude":133.04332},{"id":98217,"name":"Chuguyevka","latitude":44.16652,"longitude":133.86495},{"id":98237,"name":"Dalnegorsk","latitude":44.55745,"longitude":135.6209},{"id":98238,"name":"Dalnerechensk","latitude":45.93149,"longitude":133.73906},{"id":98323,"name":"Dostoyevka","latitude":44.32554,"longitude":133.48134},{"id":98356,"name":"Dunay","latitude":42.87881,"longitude":132.33521},{"id":98392,"name":"Emar","latitude":43.20417,"longitude":132.15643},{"id":98433,"name":"Fokino","latitude":42.97429,"longitude":132.40574},{"id":98532,"name":"Gornorechenskiy","latitude":44.26555,"longitude":135.11465},{"id":98545,"name":"Gornyye Klyuchi","latitude":45.24221,"longitude":133.50601},{"id":98580,"name":"Grazhdanka","latitude":44.2163,"longitude":133.17706},{"id":98730,"name":"Ivanovka","latitude":43.96879,"longitude":132.48331},{"id":98823,"name":"Kamen’-Rybolov","latitude":44.7452,"longitude":132.0465},{"id":98814,"name":"Kamenka","latitude":44.45865,"longitude":136.01403},{"id":98912,"name":"Kavalerovo","latitude":44.27221,"longitude":135.05227},{"id":98969,"name":"Khasanskiy Rayon","latitude":42.75,"longitude":131.0},{"id":99007,"name":"Khorol’","latitude":44.42631,"longitude":132.07638},{"id":99069,"name":"Kirovskiy","latitude":45.09272,"longitude":133.50084},{"id":99113,"name":"Knevichi","latitude":43.39975,"longitude":132.18808},{"id":99275,"name":"Kraskino","latitude":42.71071,"longitude":130.78126},{"id":99331,"name":"Krasnorechenskiy","latitude":44.62807,"longitude":135.35262},{"id":99550,"name":"Lazo","latitude":43.38563,"longitude":133.9061},{"id":99551,"name":"Lazovskiy Rayon","latitude":43.25,"longitude":134.0},{"id":99605,"name":"Lesozavodsk","latitude":45.47885,"longitude":133.42825},{"id":99635,"name":"Lipovtsy","latitude":44.20018,"longitude":131.72373},{"id":99642,"name":"Livadiya","latitude":42.8682,"longitude":132.67367},{"id":99678,"name":"Luchegorsk","latitude":46.47656,"longitude":134.19532},{"id":99679,"name":"Luchki","latitude":44.28613,"longitude":132.25975},{"id":99700,"name":"Lyalichi","latitude":44.07352,"longitude":132.38991},{"id":99898,"name":"Mikhaylovka","latitude":43.93283,"longitude":132.00911},{"id":99903,"name":"Mikhaylovskiy Rayon","latitude":44.0,"longitude":132.0},{"id":99935,"name":"Mnogoudobnoye","latitude":43.46802,"longitude":132.46675},{"id":99955,"name":"Monastyrishche","latitude":44.19641,"longitude":132.50223},{"id":100040,"name":"Nadezhdinskiy Rayon","latitude":43.41667,"longitude":132.0},{"id":100052,"name":"Nakhodka","latitude":42.81384,"longitude":132.87348},{"id":100271,"name":"Novonikol’sk","latitude":43.85518,"longitude":131.86257},{"id":100285,"name":"Novopokrovka","latitude":45.85296,"longitude":134.50035},{"id":100298,"name":"Novoshakhtinskiy","latitude":44.02576,"longitude":132.16583},{"id":100312,"name":"Novosysoyevka","latitude":44.2347,"longitude":133.3642},{"id":100339,"name":"Novyy","latitude":43.36438,"longitude":132.02109},{"id":100431,"name":"Ol’ga","latitude":43.74735,"longitude":135.2909},{"id":100555,"name":"Partizansk","latitude":43.12165,"longitude":133.12347},{"id":100695,"name":"Plastun","latitude":44.76077,"longitude":136.28048},{"id":100737,"name":"Pogranichnyy","latitude":44.4097,"longitude":131.3778},{"id":100743,"name":"Pokrovka","latitude":43.95331,"longitude":131.63443},{"id":100771,"name":"Popova","latitude":42.96096,"longitude":131.72494},{"id":100811,"name":"Preobrazheniye","latitude":42.90117,"longitude":133.9043},{"id":100832,"name":"Primorskiy","latitude":43.09962,"longitude":131.58938},{"id":100905,"name":"Putyatin","latitude":42.86179,"longitude":132.41564},{"id":100950,"name":"Razdol’noye","latitude":43.53894,"longitude":131.89691},{"id":100966,"name":"Rettikhovka","latitude":44.17038,"longitude":132.77083},{"id":100988,"name":"Romanovka","latitude":43.23294,"longitude":132.45714},{"id":101021,"name":"Rudnaya Pristan’","latitude":44.35812,"longitude":135.81478},{"id":101026,"name":"Rudnyy","latitude":44.27759,"longitude":134.96106},{"id":101031,"name":"Russkiy","latitude":43.0224,"longitude":131.8601},{"id":101181,"name":"Sergeyevka","latitude":43.34909,"longitude":133.35972},{"id":101333,"name":"Shkotovo","latitude":43.32092,"longitude":132.35433},{"id":101334,"name":"Shkotovskiy Rayon","latitude":43.33333,"longitude":132.58333},{"id":101341,"name":"Shtykovo","latitude":43.38918,"longitude":132.36129},{"id":101384,"name":"Sivakovka","latitude":44.47838,"longitude":132.36718},{"id":101404,"name":"Slavyanka","latitude":42.86413,"longitude":131.3882},{"id":101420,"name":"Smolyaninovo","latitude":43.28801,"longitude":132.45586},{"id":101528,"name":"Spassk-Dal’niy","latitude":44.59884,"longitude":132.82593},{"id":101532,"name":"Spasskiy Rayon","latitude":44.5,"longitude":133.0},{"id":101534,"name":"Spasskoye","latitude":44.61215,"longitude":132.80007},{"id":101700,"name":"Svetlaya","latitude":46.54217,"longitude":138.32973},{"id":101800,"name":"Tavrichanka","latitude":43.32551,"longitude":131.86264},{"id":101833,"name":"Terney","latitude":45.05278,"longitude":136.60881},{"id":101933,"name":"Trudovoye","latitude":43.29823,"longitude":132.06877},{"id":102030,"name":"Uglekamensk","latitude":43.21996,"longitude":133.23177},{"id":102037,"name":"Uglovoye","latitude":43.32807,"longitude":132.08832},{"id":102105,"name":"Ussuriysk","latitude":43.80291,"longitude":131.94578},{"id":102327,"name":"Vladimiro-Aleksandrovskoye","latitude":42.89134,"longitude":133.07801},{"id":102330,"name":"Vladivostok","latitude":43.10562,"longitude":131.87353},{"id":102372,"name":"Vol’no-Nadezhdinskoye","latitude":43.37496,"longitude":131.99675},{"id":102338,"name":"Volchanets","latitude":42.91388,"longitude":132.76222},{"id":102400,"name":"Vostok","latitude":46.45148,"longitude":135.82738},{"id":102406,"name":"Vozdvizhenka","latitude":43.89413,"longitude":131.94589},{"id":102412,"name":"Vrangel’","latitude":42.73021,"longitude":133.08322},{"id":102466,"name":"Yakovlevka","latitude":44.42588,"longitude":133.47406},{"id":102470,"name":"Yakovlevskiy Rayon","latitude":44.41667,"longitude":133.5},{"id":102502,"name":"Yaroslavskiy","latitude":44.18578,"longitude":132.22862},{"id":102530,"name":"Yekaterinovka","latitude":42.92525,"longitude":133.04922},{"id":102661,"name":"Zarubino","latitude":42.63257,"longitude":131.09005},{"id":102677,"name":"Zavodskoy","latitude":43.46242,"longitude":132.28494},{"id":102712,"name":"Zharikovo","latitude":44.588,"longitude":131.7277}]