[{"id":53484,"name":"El Jícaro","latitude":14.91667,"longitude":-89.9},{"id":53499,"name":"Guastatoya","latitude":14.85417,"longitude":-90.06944},{"id":53538,"name":"Morazán","latitude":14.93278,"longitude":-90.14306},{"id":53648,"name":"San Agustín Acasaguastlán","latitude":14.95,"longitude":-89.96667},{"id":53658,"name":"San Antonio La Paz","latitude":14.75888,"longitude":-90.28485},{"id":53668,"name":"San Cristóbal Acasaguastlán","latitude":14.91667,"longitude":-89.88333},{"id":53741,"name":"Sanarate","latitude":14.78828,"longitude":-90.19876},{"id":53742,"name":"Sansare","latitude":14.74572,"longitude":-90.11615}]