[{"id":31610,"name":"Iisaku","latitude":59.10139,"longitude":27.30806},{"id":31616,"name":"Jõhvi","latitude":59.35917,"longitude":27.42111},{"id":31617,"name":"Jõhvi vald","latitude":59.35653,"longitude":27.39304},{"id":31634,"name":"Kiviõli","latitude":59.35306,"longitude":26.97111},{"id":31638,"name":"Kohtla-Järve","latitude":59.39861,"longitude":27.27306},{"id":31639,"name":"Kohtla-Nõmme","latitude":59.35167,"longitude":27.175},{"id":31657,"name":"Lüganuse vald","latitude":59.39262,"longitude":27.07641},{"id":31665,"name":"Narva","latitude":59.37722,"longitude":28.19028},{"id":31666,"name":"Narva-Jõesuu","latitude":59.45889,"longitude":28.04083},{"id":31667,"name":"Narva-Jõesuu linn","latitude":59.44127,"longitude":28.02142},{"id":31687,"name":"Püssi","latitude":59.36,"longitude":27.04972},{"id":31709,"name":"Sillamäe","latitude":59.39697,"longitude":27.76331},{"id":31724,"name":"Toila","latitude":59.42127,"longitude":27.50807},{"id":31745,"name":"Voka","latitude":59.40776,"longitude":27.58263}]