[{"id":105213,"name":"Amphoe Ban Phraek","latitude":14.64381,"longitude":100.54883},{"id":105221,"name":"Amphoe Bang Ban","latitude":14.38333,"longitude":100.46667},{"id":105234,"name":"Amphoe Bang Pa-in","latitude":14.23482,"longitude":100.5941},{"id":105235,"name":"Amphoe Bang Pahan","latitude":14.47174,"longitude":100.54731},{"id":105242,"name":"Amphoe Bang Sai","latitude":14.21043,"longitude":100.49422},{"id":105487,"name":"Amphoe Lat Bua Luang","latitude":14.1681,"longitude":100.34892},{"id":105521,"name":"Amphoe Maha Rat","latitude":14.57064,"longitude":100.54089},{"id":105632,"name":"Amphoe Nakhon Luang","latitude":14.46703,"longitude":100.62572},{"id":105717,"name":"Amphoe Phachi","latitude":14.43795,"longitude":100.7278},{"id":105719,"name":"Amphoe Phak Hai","latitude":14.45073,"longitude":100.33949},{"id":105760,"name":"Amphoe Phra Nakhon Si Ayutthaya","latitude":14.35172,"longitude":100.56719},{"id":106207,"name":"Amphoe Sena","latitude":14.29605,"longitude":100.37486},{"id":106282,"name":"Amphoe Tha Ruea","latitude":14.53587,"longitude":100.71268},{"id":106327,"name":"Amphoe Uthai","latitude":14.35321,"longitude":100.69643},{"id":106341,"name":"Amphoe Wang Noi","latitude":14.24348,"longitude":100.725},{"id":106384,"name":"Ban Bang Kadi Pathum Thani","latitude":13.99904,"longitude":100.54962},{"id":106420,"name":"Bang Ban","latitude":14.37395,"longitude":100.48528},{"id":106438,"name":"Bang Pa-in","latitude":14.22783,"longitude":100.57589},{"id":106579,"name":"Nakhon Luang","latitude":14.46281,"longitude":100.60832},{"id":106619,"name":"Phak Hai","latitude":14.45736,"longitude":100.36989},{"id":106644,"name":"Phra Nakhon Si Ayutthaya","latitude":14.35167,"longitude":100.57739},{"id":106724,"name":"Tha Ruea","latitude":14.56739,"longitude":100.72598},{"id":106744,"name":"Wang Noi","latitude":14.22689,"longitude":100.7155}]