[{"id":85332,"name":"Ahmadpur Sial","latitude":30.67791,"longitude":71.74344},{"id":85331,"name":"Ahmedpur East","latitude":29.14269,"longitude":71.25771},{"id":85335,"name":"Alipur Chatha","latitude":29.38242,"longitude":70.91106},{"id":85339,"name":"Arifwala","latitude":30.29058,"longitude":73.06574},{"id":85341,"name":"Attock Tehsil","latitude":33.76671,"longitude":72.35977},{"id":85343,"name":"Baddomalhi","latitude":31.99042,"longitude":74.6641},{"id":85347,"name":"Bahawalnagar","latitude":29.99835,"longitude":73.25272},{"id":85348,"name":"Bahawalpur","latitude":29.39779,"longitude":71.6752},{"id":85349,"name":"Bakhri Ahmad Khan","latitude":30.73586,"longitude":70.83796},{"id":85354,"name":"Basirpur","latitude":30.57759,"longitude":73.83912},{"id":85355,"name":"Basti Dosa","latitude":30.78769,"longitude":70.86853},{"id":85359,"name":"Begowala","latitude":32.43816,"longitude":74.26794},{"id":85363,"name":"Bhakkar","latitude":31.62685,"longitude":71.06471},{"id":85364,"name":"Bhalwal","latitude":32.26576,"longitude":72.89809},{"id":85366,"name":"Bhawana","latitude":31.56884,"longitude":72.64917},{"id":85367,"name":"Bhera","latitude":32.48206,"longitude":72.90865},{"id":85371,"name":"Bhopalwala","latitude":32.42968,"longitude":74.3635},{"id":85376,"name":"Burewala","latitude":30.16667,"longitude":72.65},{"id":85378,"name":"Chak Azam Saffo","latitude":30.75202,"longitude":73.02834},{"id":85380,"name":"Chak Jhumra","latitude":31.56808,"longitude":73.18317},{"id":85381,"name":"Chak One Hundred Twenty Nine Left","latitude":30.42919,"longitude":73.04522},{"id":85382,"name":"Chak Thirty-one -Eleven Left","latitude":30.42388,"longitude":72.69737},{"id":85383,"name":"Chak Two Hundred Forty-Nine TDA","latitude":31.17772,"longitude":71.2048},{"id":85384,"name":"Chakwal","latitude":32.93286,"longitude":72.85394},{"id":85388,"name":"Chawinda","latitude":32.34434,"longitude":74.70507},{"id":85392,"name":"Chichawatni","latitude":30.5301,"longitude":72.69155},{"id":85393,"name":"Chiniot","latitude":31.72091,"longitude":72.97836},{"id":85394,"name":"Chishtian","latitude":29.79713,"longitude":72.85772},{"id":85396,"name":"Choa Saidanshah","latitude":32.71962,"longitude":72.98625},{"id":143765,"name":"Chuhar Kana","latitude":31.75,"longitude":73.8},{"id":85400,"name":"Chunian","latitude":30.96621,"longitude":73.97908},{"id":85404,"name":"Daira Din Panah","latitude":30.57053,"longitude":70.93722},{"id":85405,"name":"Dajal","latitude":29.55769,"longitude":70.37614},{"id":85407,"name":"Dandot RS","latitude":32.64167,"longitude":72.975},{"id":85409,"name":"Darya Khan","latitude":31.78447,"longitude":71.10197},{"id":85411,"name":"Daska","latitude":32.32422,"longitude":74.35039},{"id":143767,"name":"Daud Khel","latitude":32.87498,"longitude":71.57013},{"id":85414,"name":"Daultala","latitude":33.19282,"longitude":73.14099},{"id":85418,"name":"Dera Ghazi Khan","latitude":30.04587,"longitude":70.64029},{"id":85421,"name":"Dhanot","latitude":29.57991,"longitude":71.75213},{"id":85422,"name":"Dhaunkal","latitude":32.40613,"longitude":74.13706},{"id":143766,"name":"Dhok Awan","latitude":32.84452,"longitude":72.52357},{"id":85425,"name":"Dijkot","latitude":31.21735,"longitude":72.99621},{"id":85426,"name":"Dinan Bashnoian Wala","latitude":29.76584,"longitude":73.26557},{"id":85427,"name":"Dinga","latitude":32.64101,"longitude":73.72039},{"id":85428,"name":"Dipalpur","latitude":30.66984,"longitude":73.65306},{"id":85433,"name":"Dullewala","latitude":31.83439,"longitude":71.43639},{"id":85434,"name":"Dunga Bunga","latitude":29.74975,"longitude":73.24294},{"id":85435,"name":"Dunyapur","latitude":29.80275,"longitude":71.74344},{"id":85436,"name":"Eminabad","latitude":32.04237,"longitude":74.25996},{"id":85437,"name":"Faisalabad","latitude":31.41554,"longitude":73.08969},{"id":85438,"name":"Faqirwali","latitude":29.46799,"longitude":73.03489},{"id":85439,"name":"Faruka","latitude":31.88642,"longitude":72.41362},{"id":85440,"name":"Fazilpur","latitude":32.17629,"longitude":75.06583},{"id":143768,"name":"Ferozewala","latitude":29.3,"longitude":70.43333333},{"id":85441,"name":"Fort Abbas","latitude":29.19344,"longitude":72.85525},{"id":85444,"name":"Garh Maharaja","latitude":30.83383,"longitude":71.90491},{"id":85451,"name":"Gojra","latitude":31.14926,"longitude":72.68323},{"id":85455,"name":"Gujar Khan","latitude":33.25411,"longitude":73.30433},{"id":85456,"name":"Gujranwala","latitude":32.15567,"longitude":74.18705},{"id":143769,"name":"Gujranwala Division","latitude":32.45,"longitude":74.13333},{"id":85457,"name":"Gujrat","latitude":32.5742,"longitude":74.07542},{"id":85460,"name":"Hadali","latitude":32.64043,"longitude":74.56898},{"id":85461,"name":"Hafizabad","latitude":32.07095,"longitude":73.68802},{"id":85466,"name":"Harnoli","latitude":32.27871,"longitude":71.55429},{"id":85467,"name":"Harunabad","latitude":29.61206,"longitude":73.13802},{"id":143770,"name":"Hasan Abdal","latitude":33.81948611,"longitude":72.68902778},{"id":85468,"name":"Hasilpur","latitude":29.69221,"longitude":72.54566},{"id":85469,"name":"Haveli Lakha","latitude":30.45097,"longitude":73.69371},{"id":85471,"name":"Hazro","latitude":33.9099,"longitude":72.49179},{"id":85473,"name":"Hujra Shah Muqeem","latitude":30.74168,"longitude":73.82327},{"id":85478,"name":"Jahanian Shah","latitude":31.80541,"longitude":72.2774},{"id":85479,"name":"Jalalpur Jattan","latitude":32.64118,"longitude":74.20561},{"id":85480,"name":"Jalalpur Pirwala","latitude":29.5051,"longitude":71.22202},{"id":85481,"name":"Jampur","latitude":29.64235,"longitude":70.59518},{"id":85483,"name":"Jand","latitude":33.43304,"longitude":72.01877},{"id":85484,"name":"Jandiala Sher Khan","latitude":31.82098,"longitude":73.91815},{"id":85485,"name":"Jaranwala","latitude":31.3332,"longitude":73.41868},{"id":85487,"name":"Jatoi Shimali","latitude":29.51827,"longitude":70.84474},{"id":85488,"name":"Jauharabad","latitude":32.29016,"longitude":72.28182},{"id":85490,"name":"Jhang","latitude":31.30568,"longitude":72.32594},{"id":85491,"name":"Jhang Sadar","latitude":31.26981,"longitude":72.31687},{"id":85492,"name":"Jhawarian","latitude":32.36192,"longitude":72.62275},{"id":85493,"name":"Jhelum","latitude":32.93448,"longitude":73.73102},{"id":85499,"name":"Kabirwala","latitude":30.40472,"longitude":71.86269},{"id":85501,"name":"Kahna Nau","latitude":31.36709,"longitude":74.36899},{"id":85503,"name":"Kahuta","latitude":33.59183,"longitude":73.38736},{"id":85505,"name":"Kalabagh","latitude":32.96164,"longitude":71.54638},{"id":85506,"name":"Kalaswala","latitude":32.20081,"longitude":74.64858},{"id":85508,"name":"Kaleke Mandi","latitude":31.97597,"longitude":73.59999},{"id":85509,"name":"Kallar Kahar","latitude":32.77998,"longitude":72.69793},{"id":85510,"name":"Kalur Kot","latitude":32.15512,"longitude":71.26631},{"id":85512,"name":"Kamalia","latitude":30.72708,"longitude":72.64607},{"id":85513,"name":"Kamar Mushani","latitude":32.84318,"longitude":71.36192},{"id":85515,"name":"Kamoke","latitude":31.97526,"longitude":74.22304},{"id":85516,"name":"Kamra","latitude":33.74698,"longitude":73.51229},{"id":85520,"name":"Kanganpur","latitude":30.76468,"longitude":74.12286},{"id":85525,"name":"Karor","latitude":31.2246,"longitude":70.95153},{"id":85527,"name":"Kasur","latitude":31.11866,"longitude":74.45025},{"id":85528,"name":"Keshupur","latitude":32.26,"longitude":72.5},{"id":85535,"name":"Khairpur Tamiwali","latitude":29.58139,"longitude":72.23804},{"id":85537,"name":"Khandowa","latitude":32.74255,"longitude":72.73478},{"id":85538,"name":"Khanewal","latitude":30.30173,"longitude":71.93212},{"id":85539,"name":"Khanga Dogran","latitude":31.83294,"longitude":73.62213},{"id":85540,"name":"Khangarh","latitude":29.91446,"longitude":71.16067},{"id":85541,"name":"Khanpur","latitude":28.64739,"longitude":70.65694},{"id":85544,"name":"Kharian","latitude":32.81612,"longitude":73.88697},{"id":85545,"name":"Khewra","latitude":32.6491,"longitude":73.01059},{"id":85546,"name":"Khurrianwala","latitude":31.49936,"longitude":73.26763},{"id":85547,"name":"Khushab","latitude":32.29667,"longitude":72.3525},{"id":143771,"name":"Kohror Pakka","latitude":29.62382,"longitude":71.91673},{"id":85553,"name":"Kot Addu Tehsil","latitude":30.46907,"longitude":70.96699},{"id":85555,"name":"Kot Ghulam Muhammad","latitude":32.33311,"longitude":74.54694},{"id":85557,"name":"Kot Mumin","latitude":32.18843,"longitude":73.02987},{"id":85558,"name":"Kot Radha Kishan","latitude":31.17068,"longitude":74.10126},{"id":85559,"name":"Kot Rajkour","latitude":32.41208,"longitude":74.62855},{"id":85560,"name":"Kot Samaba","latitude":28.55207,"longitude":70.46837},{"id":85561,"name":"Kot Sultan","latitude":30.7737,"longitude":70.93125},{"id":85564,"name":"Kotli Loharan","latitude":32.58893,"longitude":74.49466},{"id":85567,"name":"Kundian","latitude":32.45775,"longitude":71.47892},{"id":85568,"name":"Kunjah","latitude":32.52982,"longitude":73.97486},{"id":85571,"name":"Ladhewala Waraich","latitude":32.15692,"longitude":74.11564},{"id":85572,"name":"Lahore","latitude":31.558,"longitude":74.35071},{"id":85575,"name":"Lala Musa","latitude":32.70138,"longitude":73.95746},{"id":85576,"name":"Lalian","latitude":31.82462,"longitude":72.80116},{"id":85580,"name":"Layyah","latitude":30.96128,"longitude":70.93904},{"id":85581,"name":"Layyah District","latitude":30.968,"longitude":70.943},{"id":85582,"name":"Liliani","latitude":32.20393,"longitude":72.9512},{"id":85583,"name":"Lodhran","latitude":29.5339,"longitude":71.63244},{"id":85588,"name":"Mailsi","latitude":29.80123,"longitude":72.17398},{"id":85589,"name":"Malakwal","latitude":32.55449,"longitude":73.21274},{"id":85590,"name":"Malakwal City","latitude":32.55492,"longitude":73.2122},{"id":85592,"name":"Mamu Kanjan","latitude":30.83044,"longitude":72.79943},{"id":85593,"name":"Mananwala","latitude":31.58803,"longitude":73.68927},{"id":85594,"name":"Mandi Bahauddin","latitude":32.58704,"longitude":73.49123},{"id":143772,"name":"Mandi Bahauddin District","latitude":32.58333333,"longitude":73.5},{"id":85595,"name":"Mangla","latitude":31.89306,"longitude":72.38167},{"id":85596,"name":"Mankera","latitude":31.38771,"longitude":71.44047},{"id":85604,"name":"Mehmand Chak","latitude":32.78518,"longitude":73.82306},{"id":85606,"name":"Mian Channun","latitude":30.44067,"longitude":72.35679},{"id":85607,"name":"Mianke Mor","latitude":31.2024,"longitude":73.94857},{"id":85608,"name":"Mianwali","latitude":32.57756,"longitude":71.52847},{"id":85609,"name":"Minchinabad","latitude":30.16356,"longitude":73.56858},{"id":85619,"name":"Mitha Tiwana","latitude":32.2454,"longitude":72.10615},{"id":85622,"name":"Moza Shahwala","latitude":30.80563,"longitude":70.84911},{"id":85623,"name":"Multan","latitude":30.19679,"longitude":71.47824},{"id":143773,"name":"Multan District","latitude":30.08333333,"longitude":71.66666667},{"id":85624,"name":"Muridke","latitude":31.80258,"longitude":74.25772},{"id":85625,"name":"Murree","latitude":33.90836,"longitude":73.3903},{"id":85626,"name":"Mustafabad","latitude":30.89222,"longitude":73.49889},{"id":85627,"name":"Muzaffargarh","latitude":30.07258,"longitude":71.19379},{"id":85631,"name":"Nankana Sahib","latitude":31.4501,"longitude":73.70653},{"id":85632,"name":"Narang Mandi","latitude":31.90376,"longitude":74.51587},{"id":85633,"name":"Narowal","latitude":32.10197,"longitude":74.87303},{"id":85638,"name":"Naushahra Virkan","latitude":31.96258,"longitude":73.97117},{"id":85641,"name":"Nazir Town","latitude":33.30614,"longitude":73.4833},{"id":85650,"name":"Okara","latitude":30.81029,"longitude":73.45155},{"id":143774,"name":"Pakki Shagwanwali","latitude":30.79033,"longitude":70.87139},{"id":85655,"name":"Pakpattan","latitude":30.34314,"longitude":73.38944},{"id":85659,"name":"Pasrur","latitude":32.26286,"longitude":74.66327},{"id":85660,"name":"Pattoki","latitude":31.02021,"longitude":73.85333},{"id":85662,"name":"Phalia","latitude":32.43104,"longitude":73.579},{"id":85663,"name":"Pind Dadan Khan","latitude":32.58662,"longitude":73.04456},{"id":85664,"name":"Pindi Bhattian","latitude":31.89844,"longitude":73.27339},{"id":85665,"name":"Pindi Gheb","latitude":33.24095,"longitude":72.2648},{"id":85667,"name":"Pir Mahal","latitude":30.76663,"longitude":72.43455},{"id":85670,"name":"Qadirpur Ran","latitude":30.29184,"longitude":71.67164},{"id":143775,"name":"Qila Didar Singh","latitude":32.8,"longitude":74.1},{"id":85389,"name":"Rabwah","latitude":31.75511,"longitude":72.91403},{"id":85674,"name":"Rahim Yar Khan","latitude":28.41987,"longitude":70.30345},{"id":143776,"name":"Rahimyar Khan District","latitude":28.4602,"longitude":70.52837},{"id":85675,"name":"Raiwind","latitude":31.24895,"longitude":74.21534},{"id":85676,"name":"Raja Jang","latitude":31.22078,"longitude":74.25483},{"id":85677,"name":"Rajanpur","latitude":29.10408,"longitude":70.32969},{"id":85680,"name":"Rasulnagar","latitude":32.32794,"longitude":73.7804},{"id":85683,"name":"Rawalpindi","latitude":33.59733,"longitude":73.0479},{"id":85684,"name":"Rawalpindi District","latitude":33.42987,"longitude":73.23092},{"id":85685,"name":"Renala Khurd","latitude":30.87878,"longitude":73.59857},{"id":85688,"name":"Rojhan","latitude":28.68735,"longitude":69.9535},{"id":85690,"name":"Sadiqabad","latitude":28.3091,"longitude":70.12652},{"id":85691,"name":"Sahiwal","latitude":30.66595,"longitude":73.10186},{"id":85694,"name":"Sambrial","latitude":32.47835,"longitude":74.35338},{"id":85696,"name":"Sangla Hill","latitude":31.71667,"longitude":73.38333},{"id":85697,"name":"Sanjwal","latitude":33.76105,"longitude":72.43315},{"id":85699,"name":"Sarai Alamgir","latitude":32.90495,"longitude":73.75518},{"id":85701,"name":"Sarai Sidhu","latitude":30.59476,"longitude":71.9699},{"id":85702,"name":"Sargodha","latitude":32.08586,"longitude":72.67418},{"id":143777,"name":"Shahkot Tehsil","latitude":31.56166667,"longitude":73.4875},{"id":85709,"name":"Shahpur","latitude":32.2682,"longitude":72.46884},{"id":85711,"name":"Shahr Sultan","latitude":29.57517,"longitude":71.02209},{"id":85712,"name":"Shakargarh","latitude":32.26361,"longitude":75.16008},{"id":85713,"name":"Sharqpur","latitude":31.46116,"longitude":74.10091},{"id":85714,"name":"Sheikhupura","latitude":31.71287,"longitude":73.98556},{"id":85708,"name":"Shorkot","latitude":30.5,"longitude":72.4},{"id":85719,"name":"Shujaabad","latitude":29.88092,"longitude":71.29344},{"id":85720,"name":"Sialkot","latitude":32.49268,"longitude":74.53134},{"id":85722,"name":"Sillanwali","latitude":31.82539,"longitude":72.54064},{"id":85726,"name":"Sodhra","latitude":32.46211,"longitude":74.18207},{"id":85729,"name":"Sukheke Mandi","latitude":31.86541,"longitude":73.50875},{"id":85732,"name":"Surkhpur","latitude":32.71816,"longitude":74.44773},{"id":85735,"name":"Talagang","latitude":32.92766,"longitude":72.41594},{"id":85736,"name":"Talamba","latitude":30.52693,"longitude":72.24079},{"id":85738,"name":"Tandlianwala","latitude":31.03359,"longitude":73.13268},{"id":85748,"name":"Taunsa","latitude":30.70358,"longitude":70.65054},{"id":85753,"name":"Toba Tek Singh","latitude":30.97127,"longitude":72.48275},{"id":143778,"name":"Umerkot","latitude":25.36138889,"longitude":69.73611111},{"id":85763,"name":"Vihari","latitude":30.0445,"longitude":72.3556},{"id":143779,"name":"Wah","latitude":33.81,"longitude":72.70972222},{"id":143780,"name":"Warburton","latitude":31.55,"longitude":73.8333},{"id":85766,"name":"Wazirabad","latitude":32.44324,"longitude":74.12},{"id":143781,"name":"West Punjab","latitude":31.0,"longitude":72.0},{"id":85767,"name":"Yazman","latitude":29.12122,"longitude":71.74459},{"id":85768,"name":"Zafarwal","latitude":32.34464,"longitude":74.8999},{"id":85769,"name":"Zahir Pir","latitude":28.81284,"longitude":70.52341}]