[{"id":56326,"name":"Kabupaten Banggai","latitude":-0.91141,"longitude":122.71836},{"id":56327,"name":"Kabupaten Banggai Kepulauan","latitude":-1.30236,"longitude":123.03726},{"id":56328,"name":"Kabupaten Banggai Laut","latitude":-1.61841,"longitude":123.49388},{"id":56383,"name":"Kabupaten Buol","latitude":1.04656,"longitude":121.36867},{"id":56401,"name":"Kabupaten Donggala","latitude":-0.58333,"longitude":119.85},{"id":56541,"name":"Kabupaten Morowali Utara","latitude":-1.7207,"longitude":121.24649},{"id":56578,"name":"Kabupaten Parigi Moutong","latitude":0.3368,"longitude":120.17841},{"id":56598,"name":"Kabupaten Poso","latitude":-1.65,"longitude":120.5},{"id":56630,"name":"Kabupaten Sigi","latitude":-1.385,"longitude":119.96694},{"id":56682,"name":"Kabupaten Toli-Toli","latitude":1.30862,"longitude":120.88643},{"id":56780,"name":"Kota Palu","latitude":-0.86972,"longitude":119.9},{"id":56849,"name":"Luwuk","latitude":-0.9516,"longitude":122.7875},{"id":56876,"name":"Morowali Regency","latitude":-2.76062,"longitude":121.95267},{"id":56901,"name":"Palu","latitude":-0.90833,"longitude":119.87083},{"id":56937,"name":"Poso","latitude":-1.3959,"longitude":120.7524},{"id":57034,"name":"Tojo Una-Una Regency","latitude":-1.2036,"longitude":121.48201}]