[{"id":106834,"name":"Baguia","latitude":-8.62787,"longitude":126.65743},{"id":106836,"name":"Baucau","latitude":-8.46667,"longitude":126.45},{"id":106837,"name":"Baukau","latitude":-8.47572,"longitude":126.45633},{"id":106852,"name":"Laga","latitude":-8.47411,"longitude":126.59228},{"id":106866,"name":"Quelicai","latitude":-8.60135,"longitude":126.55904},{"id":106877,"name":"Vemasse","latitude":-8.51036,"longitude":126.20823},{"id":106878,"name":"Venilale","latitude":-8.64306,"longitude":126.37833}]