[{"id":80651,"name":"Huancavelica","latitude":-12.78261,"longitude":-74.97266},{"id":80662,"name":"Huaytara","latitude":-13.65616,"longitude":-75.09234},{"id":80749,"name":"Pampas","latitude":-12.3949,"longitude":-74.86687},{"id":80768,"name":"Provincia de Acobamba","latitude":-12.75,"longitude":-74.66667},{"id":80773,"name":"Provincia de Angaraes","latitude":-13.0,"longitude":-74.75},{"id":80799,"name":"Provincia de Castrovirreyna","latitude":-13.14535,"longitude":-75.40598},{"id":80810,"name":"Provincia de Churcampa","latitude":-12.6,"longitude":-74.52},{"id":80833,"name":"Provincia de Huancavelica","latitude":-12.66667,"longitude":-75.25},{"id":80903,"name":"Provincia de Tayacaja","latitude":-12.25,"longitude":-74.75}]