[{"id":105225,"name":"Amphoe Bang Khan","latitude":8.01208,"longitude":99.48449},{"id":105267,"name":"Amphoe Cha-uat","latitude":7.95645,"longitude":99.98929},{"id":105278,"name":"Amphoe Chaloem Phra Kiat","latitude":8.18333,"longitude":100.05},{"id":105284,"name":"Amphoe Chang Klang","latitude":8.35697,"longitude":99.64592},{"id":105290,"name":"Amphoe Chawang","latitude":8.46322,"longitude":99.51107},{"id":105291,"name":"Amphoe Chian Yai","latitude":8.11719,"longitude":100.15819},{"id":105309,"name":"Amphoe Chulabhorn","latitude":8.07591,"longitude":99.85365},{"id":105350,"name":"Amphoe Hua Sai","latitude":8.01181,"longitude":100.24614},{"id":105389,"name":"Amphoe Khanom","latitude":9.18317,"longitude":99.80192},{"id":105482,"name":"Amphoe Lan Saka","latitude":8.37799,"longitude":99.78328},{"id":105558,"name":"Amphoe Mueang Nakhon Si Thammarat","latitude":8.44013,"longitude":99.98537},{"id":105607,"name":"Amphoe Na Bon","latitude":8.26976,"longitude":99.55694},{"id":105688,"name":"Amphoe Nopphitam","latitude":8.75166,"longitude":99.67087},{"id":105704,"name":"Amphoe Pak Phanang","latitude":8.30711,"longitude":100.17361},{"id":105742,"name":"Amphoe Phipun","latitude":8.60289,"longitude":99.59528},{"id":105761,"name":"Amphoe Phra Phrom","latitude":8.32652,"longitude":99.9324},{"id":105772,"name":"Amphoe Phrom Khiri","latitude":8.54242,"longitude":99.79229},{"id":105812,"name":"Amphoe Ron Phibun","latitude":8.17997,"longitude":99.89248},{"id":106231,"name":"Amphoe Sichon","latitude":8.94981,"longitude":99.81322},{"id":106284,"name":"Amphoe Tha Sala","latitude":8.69367,"longitude":99.88539},{"id":106296,"name":"Amphoe Tham Phannara","latitude":8.45822,"longitude":99.37718},{"id":106317,"name":"Amphoe Thung Song","latitude":8.11757,"longitude":99.66907},{"id":106320,"name":"Amphoe Thung Yai","latitude":8.28708,"longitude":99.37196},{"id":106470,"name":"Chawang","latitude":8.42614,"longitude":99.50472},{"id":106585,"name":"Nakhon Si Thammarat","latitude":8.43333,"longitude":99.96667},{"id":106611,"name":"Pak Phanang","latitude":8.35109,"longitude":100.20195},{"id":106669,"name":"Ron Phibun","latitude":8.17911,"longitude":99.85425},{"id":106726,"name":"Tham Phannara","latitude":8.42045,"longitude":99.39517},{"id":106733,"name":"Thung Song","latitude":8.16453,"longitude":99.68039}]