[{"id":105268,"name":"Amphoe Chae Hom","latitude":18.75404,"longitude":99.66822},{"id":105343,"name":"Amphoe Hang Chat","latitude":18.35497,"longitude":99.27978},{"id":105440,"name":"Amphoe Ko Kha","latitude":18.14408,"longitude":99.35229},{"id":105505,"name":"Amphoe Mae Mo","latitude":18.40244,"longitude":99.82135},{"id":105507,"name":"Amphoe Mae Phrik","latitude":17.5045,"longitude":99.05847},{"id":105517,"name":"Amphoe Mae Tha","latitude":18.11122,"longitude":99.57826},{"id":105547,"name":"Amphoe Mueang Lampang","latitude":18.38901,"longitude":99.54388},{"id":105564,"name":"Amphoe Mueang Pan","latitude":18.79093,"longitude":99.45408},{"id":105642,"name":"Amphoe Ngao","latitude":18.75948,"longitude":99.95295},{"id":106240,"name":"Amphoe Soem Ngam","latitude":18.09406,"longitude":99.17297},{"id":106249,"name":"Amphoe Sop Prap","latitude":17.89861,"longitude":99.34081},{"id":106307,"name":"Amphoe Thoen","latitude":17.58128,"longitude":99.28836},{"id":106342,"name":"Amphoe Wang Nuea","latitude":19.16011,"longitude":99.64767},{"id":106549,"name":"Lampang","latitude":18.29232,"longitude":99.49277},{"id":106731,"name":"Thoen","latitude":17.61289,"longitude":99.21612},{"id":106745,"name":"Wang Nuea","latitude":19.14678,"longitude":99.61933}]