[{"id":105345,"name":"Amphoe Hankha","latitude":15.05048,"longitude":99.9609},{"id":105526,"name":"Amphoe Manorom","latitude":15.31894,"longitude":100.15677},{"id":105536,"name":"Amphoe Mueang Chainat","latitude":15.19104,"longitude":100.1354},{"id":105646,"name":"Amphoe Noen Kham","latitude":14.98254,"longitude":99.8459},{"id":105671,"name":"Amphoe Nong Mamong","latitude":15.23372,"longitude":99.81087},{"id":106190,"name":"Amphoe Sankhaburi","latitude":15.02105,"longitude":100.17038},{"id":106194,"name":"Amphoe Sapphaya","latitude":15.14873,"longitude":100.25506},{"id":106357,"name":"Amphoe Wat Sing","latitude":15.21574,"longitude":99.9668},{"id":106463,"name":"Chai Nat","latitude":15.18636,"longitude":100.12353}]