[{"id":31902,"name":"Abajas","latitude":42.6231,"longitude":-3.58086},{"id":31937,"name":"Adrada de Haza","latitude":41.59454,"longitude":-3.82327},{"id":152289,"name":"Aguas Cándidas","latitude":0.0,"longitude":0.0},{"id":31959,"name":"Aguilar de Bureba","latitude":42.58974,"longitude":-3.32913},{"id":32045,"name":"Albillos","latitude":42.2768,"longitude":-3.78908},{"id":32100,"name":"Alcocero de Mola","latitude":42.47222,"longitude":-3.3579},{"id":152290,"name":"Alfoz de Bricia","latitude":0.0,"longitude":0.0},{"id":152367,"name":"Alfoz de Quintanadueñas","latitude":0.0,"longitude":0.0},{"id":152291,"name":"Alfoz de Santa Gadea","latitude":0.0,"longitude":0.0},{"id":32337,"name":"Altable","latitude":42.60276,"longitude":-3.07719},{"id":152292,"name":"Altos Los","latitude":0.0,"longitude":0.0},{"id":32353,"name":"Ameyugo","latitude":42.65617,"longitude":-3.0617},{"id":32383,"name":"Anguix","latitude":41.75331,"longitude":-3.93125},{"id":32407,"name":"Aranda de Duero","latitude":41.67041,"longitude":-3.6892},{"id":32409,"name":"Arandilla","latitude":41.73778,"longitude":-3.42914},{"id":32417,"name":"Arauzo de Miel","latitude":41.85878,"longitude":-3.38773},{"id":32418,"name":"Arauzo de Salce","latitude":41.81919,"longitude":-3.41191},{"id":32419,"name":"Arauzo de Torre","latitude":41.79818,"longitude":-3.42314},{"id":32435,"name":"Arcos","latitude":42.26664,"longitude":-3.75458},{"id":152293,"name":"Arenillas de Riopisuerga","latitude":0.0,"longitude":0.0},{"id":32479,"name":"Arija","latitude":42.9935,"longitude":-3.94497},{"id":32484,"name":"Arlanzón","latitude":42.32267,"longitude":-3.45784},{"id":32503,"name":"Arraya de Oca","latitude":42.41488,"longitude":-3.39781},{"id":32548,"name":"Atapuerca","latitude":42.37757,"longitude":-3.5079},{"id":152294,"name":"Ausines Los","latitude":0.0,"longitude":0.0},{"id":32567,"name":"Avellanosa de Muñó","latitude":41.98349,"longitude":-3.82553},{"id":32612,"name":"Bahabón de Esgueva","latitude":41.86162,"longitude":-3.7298},{"id":152295,"name":"Balbases Los","latitude":0.0,"longitude":0.0},{"id":32708,"name":"Baños de Valdearados","latitude":41.7701,"longitude":-3.55589},{"id":32711,"name":"Bañuelos de Bureba","latitude":42.50258,"longitude":-3.27957},{"id":32641,"name":"Barbadillo de Herreros","latitude":42.14974,"longitude":-3.17702},{"id":32642,"name":"Barbadillo del Mercado","latitude":42.03858,"longitude":-3.35669},{"id":32643,"name":"Barbadillo del Pez","latitude":42.11879,"longitude":-3.22803},{"id":32676,"name":"Barrio de Muñó","latitude":42.17584,"longitude":-4.00715},{"id":152296,"name":"Barrios de Bureba Los","latitude":0.0,"longitude":0.0},{"id":32679,"name":"Barrios de Colina","latitude":42.39595,"longitude":-3.46001},{"id":32689,"name":"Basconcillos del Tozo","latitude":42.70236,"longitude":-3.98937},{"id":32690,"name":"Bascuñana","latitude":42.42548,"longitude":-3.08231},{"id":32736,"name":"Belbimbre","latitude":42.16873,"longitude":-4.0128},{"id":32752,"name":"Belorado","latitude":42.42048,"longitude":-3.19133},{"id":32835,"name":"Berberana","latitude":42.91784,"longitude":-3.06063},{"id":32857,"name":"Berlangas de Roa","latitude":41.68913,"longitude":-3.87284},{"id":32874,"name":"Berzosa de Bureba","latitude":42.62678,"longitude":-3.26652},{"id":152297,"name":"Bozoó","latitude":0.0,"longitude":0.0},{"id":32970,"name":"Brazacorta","latitude":41.71737,"longitude":-3.36711},{"id":32989,"name":"Briviesca","latitude":42.54993,"longitude":-3.32315},{"id":33011,"name":"Bugedo","latitude":42.64912,"longitude":-3.01786},{"id":33019,"name":"Buniel","latitude":42.31197,"longitude":-3.8223},{"id":33026,"name":"Burgos","latitude":42.34106,"longitude":-3.70184},{"id":33044,"name":"Busto de Bureba","latitude":42.6591,"longitude":-3.26512},{"id":33076,"name":"Cabañes de Esgueva","latitude":41.83023,"longitude":-3.78824},{"id":33095,"name":"Cabezón de la Sierra","latitude":41.93434,"longitude":-3.24153},{"id":33142,"name":"Caleruega","latitude":41.82548,"longitude":-3.48593},{"id":33188,"name":"Campillo de Aranda","latitude":41.61015,"longitude":-3.73017},{"id":33205,"name":"Campolara","latitude":42.11953,"longitude":-3.4274},{"id":33238,"name":"Canicosa de la Sierra","latitude":41.93673,"longitude":-3.04089},{"id":33248,"name":"Cantabrana","latitude":42.73422,"longitude":-3.46704},{"id":33278,"name":"Carazo","latitude":41.96832,"longitude":-3.3531},{"id":33293,"name":"Carcedo de Bureba","latitude":42.57818,"longitude":-3.49831},{"id":33294,"name":"Carcedo de Burgos","latitude":42.28696,"longitude":-3.62274},{"id":33299,"name":"Cardeñadijo","latitude":42.30217,"longitude":-3.66779},{"id":33300,"name":"Cardeñajimeno","latitude":42.33038,"longitude":-3.62103},{"id":152299,"name":"Cardeñuela Riopico","latitude":0.0,"longitude":0.0},{"id":33326,"name":"Carrias","latitude":42.48141,"longitude":-3.28319},{"id":33384,"name":"Cascajares de Bureba","latitude":42.67884,"longitude":-3.23768},{"id":33385,"name":"Cascajares de la Sierra","latitude":42.06177,"longitude":-3.39936},{"id":33414,"name":"Castellanos de Castro","latitude":42.32806,"longitude":-4.03417},{"id":33444,"name":"Castil de Peones","latitude":42.48347,"longitude":-3.38461},{"id":33448,"name":"Castildelgado","latitude":42.43756,"longitude":-3.08389},{"id":33481,"name":"Castrillo de la Reina","latitude":41.98714,"longitude":-3.2356},{"id":33483,"name":"Castrillo de la Vega","latitude":41.65166,"longitude":-3.78089},{"id":152300,"name":"Castrillo de Riopisuerga","latitude":0.0,"longitude":0.0},{"id":33484,"name":"Castrillo del Val","latitude":42.31401,"longitude":-3.58501},{"id":152301,"name":"Castrillo Matajudíos","latitude":0.0,"longitude":0.0},{"id":152302,"name":"Castrojeriz","latitude":0.0,"longitude":0.0},{"id":152298,"name":"Cavia","latitude":0.0,"longitude":0.0},{"id":33520,"name":"Cayuela","latitude":42.27223,"longitude":-3.81895},{"id":33550,"name":"Cebrecos","latitude":41.98408,"longitude":-3.59661},{"id":33562,"name":"Celada del Camino","latitude":42.26359,"longitude":-3.93362},{"id":152303,"name":"Cerezo de Río Tirón","latitude":0.0,"longitude":0.0},{"id":33592,"name":"Cerratón de Juarros","latitude":42.42227,"longitude":-3.37347},{"id":33655,"name":"Ciadoncha","latitude":42.15814,"longitude":-3.93235},{"id":152304,"name":"Cillaperlata","latitude":0.0,"longitude":0.0},{"id":33669,"name":"Cilleruelo de Abajo","latitude":41.88405,"longitude":-3.79723},{"id":33670,"name":"Cilleruelo de Arriba","latitude":41.90487,"longitude":-3.66102},{"id":33687,"name":"Ciruelos de Cervera","latitude":41.90562,"longitude":-3.53015},{"id":33722,"name":"Cogollos","latitude":42.19982,"longitude":-3.70005},{"id":152305,"name":"Condado de Treviño","latitude":0.0,"longitude":0.0},{"id":33770,"name":"Contreras","latitude":42.02004,"longitude":-3.41084},{"id":33814,"name":"Coruña del Conde","latitude":41.76566,"longitude":-3.39059},{"id":33827,"name":"Covarrubias","latitude":42.05927,"longitude":-3.51956},{"id":33855,"name":"Cubillo del Campo","latitude":42.16854,"longitude":-3.61025},{"id":33860,"name":"Cubo de Bureba","latitude":42.64011,"longitude":-3.20626},{"id":152306,"name":"Cueva de Roa La","latitude":0.0,"longitude":0.0},{"id":33873,"name":"Cuevas de San Clemente","latitude":42.13009,"longitude":-3.5684},{"id":34056,"name":"Encío","latitude":42.67115,"longitude":-3.0868},{"id":34119,"name":"Espinosa de Cervera","latitude":41.89683,"longitude":-3.46858},{"id":34122,"name":"Espinosa de los Monteros","latitude":43.07754,"longitude":-3.55365},{"id":34123,"name":"Espinosa del Camino","latitude":42.4059,"longitude":-3.28019},{"id":34150,"name":"Estépar","latitude":42.27731,"longitude":-3.89946},{"id":34216,"name":"Fontioso","latitude":41.94273,"longitude":-3.73872},{"id":34239,"name":"Frandovínez","latitude":42.31032,"longitude":-3.83783},{"id":34247,"name":"Fresneda de la Sierra Tirón","latitude":42.31535,"longitude":-3.13596},{"id":34252,"name":"Fresneña","latitude":42.41366,"longitude":-3.13453},{"id":34253,"name":"Fresnillo de las Dueñas","latitude":41.647,"longitude":-3.64558},{"id":152307,"name":"Fresno de Río Tirón","latitude":0.0,"longitude":0.0},{"id":34257,"name":"Fresno de Rodilla","latitude":42.42054,"longitude":-3.48507},{"id":34271,"name":"Frías","latitude":42.76225,"longitude":-3.29394},{"id":34311,"name":"Fuentebureba","latitude":42.634,"longitude":-3.2351},{"id":34314,"name":"Fuentecén","latitude":41.62852,"longitude":-3.86867},{"id":34319,"name":"Fuentelcésped","latitude":41.59162,"longitude":-3.64064},{"id":34323,"name":"Fuentelisendo","latitude":41.62274,"longitude":-3.90129},{"id":34327,"name":"Fuentemolinos","latitude":41.60477,"longitude":-3.85005},{"id":34328,"name":"Fuentenebro","latitude":41.52873,"longitude":-3.75449},{"id":34357,"name":"Fuentespina","latitude":41.63079,"longitude":-3.68475},{"id":34376,"name":"Galbarros","latitude":42.52729,"longitude":-3.43827},{"id":152308,"name":"Gallega La","latitude":0.0,"longitude":0.0},{"id":34511,"name":"Grijalba","latitude":42.43002,"longitude":-4.11896},{"id":34513,"name":"Grisaleña","latitude":42.59122,"longitude":-3.26416},{"id":152309,"name":"Gumiel de Izán","latitude":0.0,"longitude":0.0},{"id":152310,"name":"Gumiel de Mercado","latitude":0.0,"longitude":0.0},{"id":34571,"name":"Hacinas","latitude":41.98514,"longitude":-3.28709},{"id":34574,"name":"Haza","latitude":41.61667,"longitude":-3.81667},{"id":34641,"name":"Hontanas","latitude":42.31312,"longitude":-4.04529},{"id":34643,"name":"Hontangas","latitude":41.58216,"longitude":-3.7955},{"id":34648,"name":"Hontoria de la Cantera","latitude":42.18879,"longitude":-3.64251},{"id":34647,"name":"Hontoria de Valdearados","latitude":41.74488,"longitude":-3.51983},{"id":34649,"name":"Hontoria del Pinar","latitude":41.84838,"longitude":-3.16245},{"id":152311,"name":"Hormazas Las","latitude":0.0,"longitude":0.0},{"id":34663,"name":"Hornillos del Camino","latitude":42.33863,"longitude":-3.9256},{"id":152312,"name":"Horra La","latitude":0.0,"longitude":0.0},{"id":34668,"name":"Hortigüela","latitude":42.06842,"longitude":-3.42578},{"id":34673,"name":"Hoyales de Roa","latitude":41.65893,"longitude":-3.86202},{"id":34715,"name":"Huérmeces","latitude":42.5225,"longitude":-3.77072},{"id":34687,"name":"Huerta de Arriba","latitude":42.11672,"longitude":-3.08211},{"id":152313,"name":"Huerta de Rey","latitude":0.0,"longitude":0.0},{"id":34699,"name":"Humada","latitude":42.66667,"longitude":-4.08333},{"id":34703,"name":"Hurones","latitude":42.40571,"longitude":-3.61588},{"id":34726,"name":"Ibeas de Juarros","latitude":42.33088,"longitude":-3.53519},{"id":34730,"name":"Ibrillos","latitude":42.45431,"longitude":-3.08238},{"id":34736,"name":"Iglesiarrubia","latitude":41.97383,"longitude":-3.84701},{"id":34737,"name":"Iglesias","latitude":42.29807,"longitude":-3.98932},{"id":34764,"name":"Isar","latitude":42.3614,"longitude":-3.9304},{"id":34771,"name":"Itero del Castillo","latitude":42.28988,"longitude":-4.24441},{"id":34800,"name":"Jaramillo de la Fuente","latitude":42.11472,"longitude":-3.31239},{"id":34799,"name":"Jaramillo Quemado","latitude":42.08568,"longitude":-3.35868},{"id":152314,"name":"Junta de Traslaloma","latitude":0.0,"longitude":0.0},{"id":152315,"name":"Junta de Villalba de Losa","latitude":0.0,"longitude":0.0},{"id":152316,"name":"Jurisdicción de Lara","latitude":0.0,"longitude":0.0},{"id":152317,"name":"Jurisdicción de San Zadornil","latitude":0.0,"longitude":0.0},{"id":35032,"name":"Lerma","latitude":42.02609,"longitude":-3.75978},{"id":35068,"name":"Llano de Bureba","latitude":42.62435,"longitude":-3.4589},{"id":35191,"name":"Madrigal del Monte","latitude":42.14464,"longitude":-3.67571},{"id":35193,"name":"Madrigalejo del Monte","latitude":42.12442,"longitude":-3.72509},{"id":35206,"name":"Mahamud","latitude":42.11981,"longitude":-3.9406},{"id":35236,"name":"Mambrilla de Castrejón","latitude":41.66634,"longitude":-3.98448},{"id":35237,"name":"Mambrillas de Lara","latitude":42.09446,"longitude":-3.46195},{"id":35238,"name":"Mamolar","latitude":41.92762,"longitude":-3.36228},{"id":35245,"name":"Manciles","latitude":42.45728,"longitude":-3.94461},{"id":35360,"name":"Mazuela","latitude":42.20767,"longitude":-3.9192},{"id":35365,"name":"Mecerreyes","latitude":42.09536,"longitude":-3.57393},{"id":35370,"name":"Medina de Pomar","latitude":42.92938,"longitude":-3.48804},{"id":35387,"name":"Melgar de Fernamental","latitude":42.40445,"longitude":-4.24484},{"id":152318,"name":"Merindad de Cuesta-Urria","latitude":0.0,"longitude":0.0},{"id":152319,"name":"Merindad de Montija","latitude":0.0,"longitude":0.0},{"id":152366,"name":"Merindad de Río Ubierna","latitude":0.0,"longitude":0.0},{"id":152320,"name":"Merindad de Sotoscueva","latitude":0.0,"longitude":0.0},{"id":152321,"name":"Merindad de Valdeporres","latitude":0.0,"longitude":0.0},{"id":152322,"name":"Merindad de Valdivielso","latitude":0.0,"longitude":0.0},{"id":35429,"name":"Milagros","latitude":41.575,"longitude":-3.69907},{"id":35450,"name":"Miranda de Ebro","latitude":42.6865,"longitude":-2.94695},{"id":35453,"name":"Miraveche","latitude":42.67396,"longitude":-3.19947},{"id":35464,"name":"Modúbar de la Emparedada","latitude":42.26118,"longitude":-3.65965},{"id":35498,"name":"Monasterio de la Sierra","latitude":42.0518,"longitude":-3.19314},{"id":35496,"name":"Monasterio de Rodilla","latitude":42.45775,"longitude":-3.46965},{"id":35500,"name":"Moncalvillo","latitude":41.95413,"longitude":-3.19886},{"id":152323,"name":"Monterrubio de la Demanda","latitude":0.0,"longitude":0.0},{"id":35581,"name":"Montorio","latitude":42.58469,"longitude":-3.77724},{"id":35595,"name":"Moradillo de Roa","latitude":41.55164,"longitude":-3.79118},{"id":35724,"name":"Nava de Roa","latitude":41.61326,"longitude":-3.96442},{"id":35777,"name":"Navas de Bureba","latitude":42.6809,"longitude":-3.32698},{"id":35795,"name":"Nebreda","latitude":41.96881,"longitude":-3.6343},{"id":35799,"name":"Neila","latitude":42.06016,"longitude":-2.99691},{"id":35900,"name":"Olmedillo de Roa","latitude":41.78362,"longitude":-3.93419},{"id":35904,"name":"Olmillos de Muñó","latitude":42.20322,"longitude":-3.93911},{"id":35988,"name":"Oña","latitude":42.734,"longitude":-3.41459},{"id":35931,"name":"Oquillas","latitude":41.83085,"longitude":-3.70564},{"id":152324,"name":"Orbaneja Riopico","latitude":0.0,"longitude":0.0},{"id":35991,"name":"Padilla de Abajo","latitude":42.40774,"longitude":-4.17652},{"id":35992,"name":"Padilla de Arriba","latitude":42.43803,"longitude":-4.19094},{"id":35994,"name":"Padrones de Bureba","latitude":42.70582,"longitude":-3.53296},{"id":36008,"name":"Palacios de la Sierra","latitude":41.96392,"longitude":-3.12788},{"id":152325,"name":"Palacios de Riopisuerga","latitude":0.0,"longitude":0.0},{"id":36021,"name":"Palazuelos de la Sierra","latitude":42.21162,"longitude":-3.46014},{"id":36020,"name":"Palazuelos de Muñó","latitude":42.19692,"longitude":-3.98984},{"id":36044,"name":"Pampliega","latitude":42.20582,"longitude":-3.98666},{"id":36046,"name":"Pancorbo","latitude":42.63418,"longitude":-3.1118},{"id":36063,"name":"Pardilla","latitude":41.55183,"longitude":-3.71089},{"id":152326,"name":"Partido de la Sierra en Tobalina","latitude":0.0,"longitude":0.0},{"id":36104,"name":"Pedrosa de Duero","latitude":41.71289,"longitude":-3.98804},{"id":152327,"name":"Pedrosa de Río Úrbel","latitude":0.0,"longitude":0.0},{"id":36107,"name":"Pedrosa del Páramo","latitude":42.44208,"longitude":-3.9719},{"id":36106,"name":"Pedrosa del Príncipe","latitude":42.24918,"longitude":-4.19849},{"id":36172,"name":"Peñaranda de Duero","latitude":41.68849,"longitude":-3.47863},{"id":36131,"name":"Peral de Arlanza","latitude":42.07612,"longitude":-4.07733},{"id":36226,"name":"Piérnigas","latitude":42.5903,"longitude":-3.41337},{"id":36198,"name":"Pineda de la Sierra","latitude":42.2156,"longitude":-3.2969},{"id":152328,"name":"Pineda Trasmonte","latitude":0.0,"longitude":0.0},{"id":36204,"name":"Pinilla de los Barruecos","latitude":41.91791,"longitude":-3.30371},{"id":36205,"name":"Pinilla de los Moros","latitude":42.06815,"longitude":-3.32706},{"id":152329,"name":"Pinilla Trasmonte","latitude":0.0,"longitude":0.0},{"id":36311,"name":"Poza de la Sal","latitude":42.66542,"longitude":-3.5014},{"id":36402,"name":"Prádanos de Bureba","latitude":42.50264,"longitude":-3.34752},{"id":36347,"name":"Pradoluengo","latitude":42.32484,"longitude":-3.20284},{"id":36351,"name":"Presencio","latitude":42.18656,"longitude":-3.90135},{"id":152330,"name":"Puebla de Arganzón La","latitude":0.0,"longitude":0.0},{"id":36442,"name":"Puentedura","latitude":42.04134,"longitude":-3.58227},{"id":36493,"name":"Quemada","latitude":41.70073,"longitude":-3.57476},{"id":36505,"name":"Quintana del Pidio","latitude":41.75886,"longitude":-3.75121},{"id":36508,"name":"Quintanabureba","latitude":42.58665,"longitude":-3.36685},{"id":36516,"name":"Quintanaélez","latitude":42.66921,"longitude":-3.29877},{"id":36509,"name":"Quintanaortuño","latitude":42.45,"longitude":-3.68333},{"id":36510,"name":"Quintanapalla","latitude":42.40914,"longitude":-3.53296},{"id":36512,"name":"Quintanar de la Sierra","latitude":41.98288,"longitude":-3.03765},{"id":36515,"name":"Quintanavides","latitude":42.48084,"longitude":-3.42449},{"id":36522,"name":"Quintanilla de la Mata","latitude":41.98855,"longitude":-3.76756},{"id":152361,"name":"Quintanilla del Agua y Tordueles","latitude":0.0,"longitude":0.0},{"id":36523,"name":"Quintanilla del Coco","latitude":41.98333,"longitude":-3.51667},{"id":152332,"name":"Quintanilla San García","latitude":0.0,"longitude":0.0},{"id":152333,"name":"Quintanilla Vivar","latitude":0.0,"longitude":0.0},{"id":152331,"name":"Quintanillas Las","latitude":0.0,"longitude":0.0},{"id":36535,"name":"Rabanera del Pinar","latitude":41.89375,"longitude":-3.19665},{"id":36710,"name":"Rábanos","latitude":42.31971,"longitude":-3.27029},{"id":36536,"name":"Rabé de las Calzadas","latitude":42.34065,"longitude":-3.83414},{"id":36554,"name":"Rebolledo de la Torre","latitude":42.68931,"longitude":-4.22693},{"id":36559,"name":"Redecilla del Camino","latitude":42.43804,"longitude":-3.06547},{"id":36560,"name":"Redecilla del Campo","latitude":42.46675,"longitude":-3.11531},{"id":36566,"name":"Regumiel de la Sierra","latitude":41.95623,"longitude":-2.98843},{"id":36569,"name":"Reinoso","latitude":42.50915,"longitude":-3.38466},{"id":36590,"name":"Retuerta","latitude":42.02945,"longitude":-3.50679},{"id":36596,"name":"Revilla del Campo","latitude":42.21081,"longitude":-3.54289},{"id":152335,"name":"Revilla Vallejera","latitude":0.0,"longitude":0.0},{"id":152334,"name":"Revilla y Ahedo La","latitude":0.0,"longitude":0.0},{"id":36597,"name":"Revillarruz","latitude":42.23006,"longitude":-3.65246},{"id":36599,"name":"Rezmondo","latitude":42.51565,"longitude":-4.23877},{"id":36628,"name":"Riocavado de la Sierra","latitude":42.15209,"longitude":-3.19759},{"id":36643,"name":"Roa","latitude":41.69699,"longitude":-3.92782},{"id":36666,"name":"Rojas","latitude":42.57781,"longitude":-3.44195},{"id":36684,"name":"Royuela de Río Franco","latitude":42.00217,"longitude":-3.95547},{"id":36688,"name":"Rubena","latitude":42.38746,"longitude":-3.57485},{"id":36693,"name":"Rublacedo de Abajo","latitude":42.55332,"longitude":-3.50236},{"id":36696,"name":"Rucandio","latitude":42.75111,"longitude":-3.54166},{"id":36750,"name":"Salas de Bureba","latitude":42.6919,"longitude":-3.47359},{"id":36751,"name":"Salas de los Infantes","latitude":42.02242,"longitude":-3.28631},{"id":36755,"name":"Saldaña de Burgos","latitude":42.25838,"longitude":-3.69707},{"id":36767,"name":"Salinillas de Bureba","latitude":42.55243,"longitude":-3.38753},{"id":36796,"name":"San Adrián de Juarros","latitude":42.27427,"longitude":-3.47551},{"id":36851,"name":"San Juan del Monte","latitude":41.68313,"longitude":-3.52337},{"id":36861,"name":"San Mamés de Burgos","latitude":42.33685,"longitude":-3.79397},{"id":36867,"name":"San Martín de Rubiales","latitude":41.64191,"longitude":-3.99134},{"id":36889,"name":"San Millán de Lara","latitude":42.13621,"longitude":-3.34515},{"id":36932,"name":"San Vicente del Valle","latitude":42.33756,"longitude":-3.1621},{"id":37010,"name":"Santa Cecilia","latitude":42.05225,"longitude":-3.80345},{"id":37039,"name":"Santa Cruz de la Salceda","latitude":41.59591,"longitude":-3.59317},{"id":37046,"name":"Santa Cruz del Valle Urbión","latitude":42.30558,"longitude":-3.2214},{"id":37060,"name":"Santa Gadea del Cid","latitude":42.71531,"longitude":-3.05885},{"id":37061,"name":"Santa Inés","latitude":42.04013,"longitude":-3.70322},{"id":37085,"name":"Santa María del Campo","latitude":42.13304,"longitude":-3.97283},{"id":37087,"name":"Santa María del Invierno","latitude":42.44288,"longitude":-3.43782},{"id":152336,"name":"Santa María del Mercadillo","latitude":0.0,"longitude":0.0},{"id":152337,"name":"Santa María Rivarredonda","latitude":0.0,"longitude":0.0},{"id":37093,"name":"Santa Olalla de Bureba","latitude":42.47721,"longitude":-3.44109},{"id":152338,"name":"Santibáñez de Esgueva","latitude":0.0,"longitude":0.0},{"id":37127,"name":"Santibáñez del Val","latitude":41.97354,"longitude":-3.48142},{"id":37140,"name":"Santo Domingo de Silos","latitude":41.964,"longitude":-3.4174},{"id":37161,"name":"Sargentes de la Lora","latitude":42.76917,"longitude":-3.87278},{"id":37165,"name":"Sarracín","latitude":42.25813,"longitude":-3.68608},{"id":37176,"name":"Sasamón","latitude":42.41687,"longitude":-4.04288},{"id":152339,"name":"Sequera de Haza La","latitude":0.0,"longitude":0.0},{"id":37281,"name":"Solarana","latitude":41.97168,"longitude":-3.65876},{"id":37299,"name":"Sordillos","latitude":42.46197,"longitude":-4.10726},{"id":37314,"name":"Sotillo de la Ribera","latitude":41.77717,"longitude":-3.82525},{"id":37325,"name":"Sotragero","latitude":42.40996,"longitude":-3.71312},{"id":37326,"name":"Sotresgudo","latitude":42.57935,"longitude":-4.17725},{"id":37333,"name":"Susinos del Páramo","latitude":42.47108,"longitude":-3.92555},{"id":37366,"name":"Tamarón","latitude":42.27386,"longitude":-3.99154},{"id":37377,"name":"Tardajos","latitude":42.34909,"longitude":-3.817},{"id":37394,"name":"Tejada","latitude":41.95249,"longitude":-3.53514},{"id":37408,"name":"Terradillos de Esgueva","latitude":41.81885,"longitude":-3.84318},{"id":152340,"name":"Tinieblas de la Sierra","latitude":0.0,"longitude":0.0},{"id":37435,"name":"Tobar","latitude":42.48384,"longitude":-3.93984},{"id":37462,"name":"Tordómar","latitude":42.0463,"longitude":-3.86514},{"id":37521,"name":"Torrecilla del Monte","latitude":42.0949,"longitude":-3.69356},{"id":37532,"name":"Torregalindo","latitude":41.58299,"longitude":-3.75222},{"id":37545,"name":"Torrelara","latitude":42.16673,"longitude":-3.51689},{"id":152341,"name":"Torrepadre","latitude":0.0,"longitude":0.0},{"id":37580,"name":"Torresandino","latitude":41.8292,"longitude":-3.90981},{"id":152342,"name":"Tórtoles de Esgueva","latitude":0.0,"longitude":0.0},{"id":37602,"name":"Tosantos","latitude":42.41368,"longitude":-3.24286},{"id":37632,"name":"Trespaderne","latitude":42.80221,"longitude":-3.38989},{"id":37646,"name":"Tubilla del Agua","latitude":42.70932,"longitude":-3.80116},{"id":37647,"name":"Tubilla del Lago","latitude":41.80154,"longitude":-3.58625},{"id":152343,"name":"Úrbel del Castillo","latitude":0.0,"longitude":0.0},{"id":37718,"name":"Vadocondes","latitude":41.63925,"longitude":-3.57378},{"id":37730,"name":"Valdeande","latitude":41.83302,"longitude":-3.52792},{"id":37808,"name":"Valdezate","latitude":41.60231,"longitude":-3.93045},{"id":37811,"name":"Valdorros","latitude":42.17232,"longitude":-3.70938},{"id":37838,"name":"Vallarta de Bureba","latitude":42.58864,"longitude":-3.20457},{"id":152364,"name":"Valle de las Navas","latitude":0.0,"longitude":0.0},{"id":152368,"name":"Valle de Losa","latitude":0.0,"longitude":0.0},{"id":152344,"name":"Valle de Manzanedo","latitude":0.0,"longitude":0.0},{"id":152345,"name":"Valle de Mena","latitude":0.0,"longitude":0.0},{"id":152346,"name":"Valle de Oca","latitude":0.0,"longitude":0.0},{"id":152362,"name":"Valle de Santibáñez","latitude":0.0,"longitude":0.0},{"id":152365,"name":"Valle de Sedano","latitude":0.0,"longitude":0.0},{"id":152347,"name":"Valle de Tobalina","latitude":0.0,"longitude":0.0},{"id":152348,"name":"Valle de Valdebezana","latitude":0.0,"longitude":0.0},{"id":152349,"name":"Valle de Valdelaguna","latitude":0.0,"longitude":0.0},{"id":152350,"name":"Valle de Valdelucio","latitude":0.0,"longitude":0.0},{"id":152351,"name":"Valle de Zamanzas","latitude":0.0,"longitude":0.0},{"id":152352,"name":"Vallejera","latitude":0.0,"longitude":0.0},{"id":37855,"name":"Valles de Palenzuela","latitude":42.12019,"longitude":-4.0775},{"id":37864,"name":"Valluércanes","latitude":42.5722,"longitude":-3.12113},{"id":37868,"name":"Valmala","latitude":42.3059,"longitude":-3.25456},{"id":152354,"name":"Vid de Bureba La","latitude":0.0,"longitude":0.0},{"id":152353,"name":"Vid y Barrios La","latitude":0.0,"longitude":0.0},{"id":38007,"name":"Vileña","latitude":42.62227,"longitude":-3.32293},{"id":38041,"name":"Villadiego","latitude":42.51589,"longitude":-4.00958},{"id":38046,"name":"Villaescusa de Roa","latitude":41.72727,"longitude":-4.0172},{"id":38047,"name":"Villaescusa la Sombría","latitude":42.41518,"longitude":-3.4184},{"id":38048,"name":"Villaespasa","latitude":42.09991,"longitude":-3.40436},{"id":152355,"name":"Villafranca Montes de Oca","latitude":0.0,"longitude":0.0},{"id":38066,"name":"Villafruela","latitude":41.91647,"longitude":-3.91371},{"id":38070,"name":"Villagalijo","latitude":42.34872,"longitude":-3.19203},{"id":152356,"name":"Villagonzalo Pedernales","latitude":0.0,"longitude":0.0},{"id":38086,"name":"Villahoz","latitude":42.07587,"longitude":-3.9129},{"id":38092,"name":"Villalba de Duero","latitude":41.68243,"longitude":-3.74443},{"id":38106,"name":"Villalbilla de Burgos","latitude":42.34757,"longitude":-3.78101},{"id":38107,"name":"Villalbilla de Gumiel","latitude":41.80621,"longitude":-3.62584},{"id":38111,"name":"Villaldemiro","latitude":42.24719,"longitude":-3.98534},{"id":38114,"name":"Villalmanzo","latitude":42.0484,"longitude":-3.74195},{"id":38146,"name":"Villamayor de los Montes","latitude":42.10565,"longitude":-3.76542},{"id":38145,"name":"Villamayor de Treviño","latitude":42.46048,"longitude":-4.11923},{"id":152357,"name":"Villambistia","latitude":0.0,"longitude":0.0},{"id":38150,"name":"Villamedianilla","latitude":42.1607,"longitude":-4.14592},{"id":38156,"name":"Villamiel de la Sierra","latitude":42.19124,"longitude":-3.41771},{"id":38167,"name":"Villangómez","latitude":42.17961,"longitude":-3.77419},{"id":38172,"name":"Villanueva de Argaño","latitude":42.38045,"longitude":-3.93353},{"id":38178,"name":"Villanueva de Carazo","latitude":41.98275,"longitude":-3.32428},{"id":38183,"name":"Villanueva de Gumiel","latitude":41.73778,"longitude":-3.62658},{"id":38193,"name":"Villanueva de Teba","latitude":42.6489,"longitude":-3.16313},{"id":38233,"name":"Villaquirán de la Puebla","latitude":42.28287,"longitude":-4.10037},{"id":38234,"name":"Villaquirán de los Infantes","latitude":42.22744,"longitude":-4.00864},{"id":152363,"name":"Villarcayo de Merindad de Castilla la Vieja","latitude":0.0,"longitude":0.0},{"id":38284,"name":"Villariezo","latitude":42.26965,"longitude":-3.73272},{"id":38312,"name":"Villasandino","latitude":42.37072,"longitude":-4.10975},{"id":152358,"name":"Villasur de Herreros","latitude":0.0,"longitude":0.0},{"id":38333,"name":"Villatuelda","latitude":41.81499,"longitude":-3.88054},{"id":38349,"name":"Villaverde del Monte","latitude":42.16075,"longitude":-3.81421},{"id":38352,"name":"Villaverde-Mogina","latitude":42.16041,"longitude":-4.05024},{"id":152359,"name":"Villayerno Morquillas","latitude":0.0,"longitude":0.0},{"id":38364,"name":"Villazopeque","latitude":42.19845,"longitude":-4.01688},{"id":38365,"name":"Villegas","latitude":42.46866,"longitude":-4.01759},{"id":38374,"name":"Villoruebo","latitude":42.16874,"longitude":-3.44159},{"id":38384,"name":"Viloria de Rioja","latitude":42.42608,"longitude":-3.10056},{"id":38386,"name":"Vilviestre del Pinar","latitude":41.95033,"longitude":-3.07803},{"id":38407,"name":"Vizcaínos","latitude":42.10359,"longitude":-3.26698},{"id":38448,"name":"Zael","latitude":42.10587,"longitude":-3.82623},{"id":152360,"name":"Zarzosa de Río Pisuerga","latitude":0.0,"longitude":0.0},{"id":38489,"name":"Zazuar","latitude":41.69528,"longitude":-3.55451},{"id":38511,"name":"Zuñeda","latitude":42.60501,"longitude":-3.22632}]