[{"id":104001,"name":"Åkarp","latitude":58.23333,"longitude":13.65},{"id":102987,"name":"Alafors","latitude":57.92579,"longitude":12.07835},{"id":102991,"name":"Alingsås","latitude":57.93033,"longitude":12.53345},{"id":103995,"name":"Älvängen","latitude":57.95872,"longitude":12.1235},{"id":104007,"name":"Åmål","latitude":59.051,"longitude":12.70492},{"id":102997,"name":"Andalen","latitude":57.70039,"longitude":11.76136},{"id":103000,"name":"Anderstorp","latitude":58.88333,"longitude":14.28333},{"id":103003,"name":"Angered","latitude":57.78628,"longitude":12.09852},{"id":103006,"name":"Annelund","latitude":57.98843,"longitude":13.07483},{"id":103024,"name":"Axvall","latitude":58.38333,"longitude":13.56667},{"id":103030,"name":"Bengtsfors","latitude":59.02912,"longitude":12.23207},{"id":103040,"name":"Billdal","latitude":57.56667,"longitude":11.93333},{"id":103043,"name":"Billingsfors","latitude":58.98333,"longitude":12.25},{"id":103052,"name":"Björboholm","latitude":57.87096,"longitude":12.32546},{"id":103055,"name":"Björkö","latitude":57.73221,"longitude":11.67916},{"id":103056,"name":"Björlanda","latitude":57.76667,"longitude":11.83333},{"id":103064,"name":"Bollebygd","latitude":57.66866,"longitude":12.57272},{"id":103077,"name":"Borås","latitude":57.73783,"longitude":12.94076},{"id":103095,"name":"Brålanda","latitude":58.56344,"longitude":12.34923},{"id":103081,"name":"Brastad","latitude":58.38333,"longitude":11.48333},{"id":103110,"name":"Dals Långed","latitude":58.92555,"longitude":12.30865},{"id":103112,"name":"Dalsjöfors","latitude":57.71667,"longitude":13.08333},{"id":103120,"name":"Diseröd","latitude":57.92636,"longitude":12.02598},{"id":103124,"name":"Donsö","latitude":57.6,"longitude":11.79917},{"id":103127,"name":"Ed","latitude":58.91247,"longitude":11.93308},{"id":103139,"name":"Ellös","latitude":58.18333,"longitude":11.46667},{"id":103148,"name":"Eriksbo","latitude":57.77141,"longitude":12.04183},{"id":103159,"name":"Falköping","latitude":58.17347,"longitude":13.55068},{"id":103191,"name":"Färgelanda","latitude":58.56816,"longitude":11.99235},{"id":103175,"name":"Floby","latitude":58.13333,"longitude":13.33333},{"id":103183,"name":"Fristad","latitude":57.82483,"longitude":13.01064},{"id":103184,"name":"Fritsla","latitude":57.55655,"longitude":12.78457},{"id":103189,"name":"Furulund","latitude":57.71667,"longitude":12.13333},{"id":103242,"name":"Gånghester","latitude":57.7,"longitude":13.01667},{"id":103243,"name":"Gårdsten","latitude":57.8048,"longitude":12.02883},{"id":103244,"name":"Göta","latitude":58.10617,"longitude":12.15254},{"id":103245,"name":"Göteborg","latitude":57.70716,"longitude":11.96679},{"id":103246,"name":"Göteborgs stad","latitude":57.72288,"longitude":11.94577},{"id":103247,"name":"Götene","latitude":58.52824,"longitude":13.49458},{"id":103230,"name":"Gråbo","latitude":57.83625,"longitude":12.29954},{"id":103228,"name":"Grästorp","latitude":58.33219,"longitude":12.68122},{"id":103220,"name":"Grebbestad","latitude":58.70248,"longitude":11.25738},{"id":103232,"name":"Gullspång","latitude":58.98615,"longitude":14.09644},{"id":103261,"name":"Hammarkullen","latitude":57.78049,"longitude":12.03604},{"id":103280,"name":"Henån","latitude":58.23848,"longitude":11.67598},{"id":103282,"name":"Herrljunga","latitude":58.07739,"longitude":13.02662},{"id":103286,"name":"Hindås","latitude":57.70338,"longitude":12.44657},{"id":103288,"name":"Hjo","latitude":58.30133,"longitude":14.28784},{"id":103290,"name":"Hjuvik","latitude":57.70167,"longitude":11.71639},{"id":103337,"name":"Hönö","latitude":57.68972,"longitude":11.64972},{"id":103298,"name":"Horred","latitude":57.35475,"longitude":12.47777},{"id":103300,"name":"Hova","latitude":58.85363,"longitude":14.21914},{"id":103341,"name":"Höviksnäs","latitude":58.03333,"longitude":11.76667},{"id":103309,"name":"Hunnebostrand","latitude":58.44127,"longitude":11.3032},{"id":103345,"name":"Ingared","latitude":57.85989,"longitude":12.45161},{"id":103355,"name":"Jonstorp","latitude":58.0,"longitude":12.71667},{"id":103368,"name":"Jörlanda","latitude":57.9863,"longitude":11.82943},{"id":103436,"name":"Källby","latitude":58.50999,"longitude":13.30582},{"id":103441,"name":"Kållered","latitude":57.60992,"longitude":12.05106},{"id":103375,"name":"Karlsborg","latitude":58.53724,"longitude":14.5047},{"id":103393,"name":"Kinna","latitude":57.50728,"longitude":12.69463},{"id":103406,"name":"Kode","latitude":57.94263,"longitude":11.85051},{"id":103430,"name":"Kungälv","latitude":57.87096,"longitude":11.98054},{"id":103425,"name":"Kungshamn","latitude":58.36305,"longitude":11.25938},{"id":103435,"name":"Kvänum","latitude":58.3,"longitude":13.18333},{"id":103452,"name":"Landvetter","latitude":57.68665,"longitude":12.21169},{"id":103501,"name":"Länghem","latitude":57.6,"longitude":13.23333},{"id":103459,"name":"Lerum","latitude":57.77051,"longitude":12.26904},{"id":103464,"name":"Lidköping","latitude":58.50517,"longitude":13.15765},{"id":103466,"name":"Lilla Edet","latitude":58.13333,"longitude":12.13333},{"id":103468,"name":"Limmared","latitude":57.53592,"longitude":13.35566},{"id":103472,"name":"Lindome","latitude":57.56667,"longitude":12.08333},{"id":103484,"name":"Ljungskile","latitude":58.22452,"longitude":11.92014},{"id":103508,"name":"Lödöse","latitude":58.02994,"longitude":12.15934},{"id":103510,"name":"Lövgärdet","latitude":57.81555,"longitude":12.03861},{"id":103499,"name":"Lysekil","latitude":58.27429,"longitude":11.43576},{"id":103512,"name":"Majorna","latitude":57.69195,"longitude":11.91605},{"id":103529,"name":"Mariestad","latitude":58.70971,"longitude":13.82367},{"id":103536,"name":"Mellerud","latitude":58.69979,"longitude":12.45312},{"id":103560,"name":"Mölltorp","latitude":58.5,"longitude":14.4},{"id":103562,"name":"Mölndal","latitude":57.6554,"longitude":12.01378},{"id":103564,"name":"Mölnlycke","latitude":57.65893,"longitude":12.11792},{"id":103553,"name":"Munkedal","latitude":58.46634,"longitude":11.67345},{"id":103557,"name":"Myggenäs","latitude":58.06176,"longitude":11.74936},{"id":103576,"name":"Nolvik","latitude":57.775,"longitude":11.83333},{"id":103592,"name":"Nossebro","latitude":58.18808,"longitude":12.71599},{"id":104025,"name":"Öckerö","latitude":57.70814,"longitude":11.65585},{"id":104029,"name":"Ödsmål","latitude":58.1,"longitude":11.85},{"id":104031,"name":"Öjersjö","latitude":57.69882,"longitude":12.13448},{"id":103611,"name":"Olofstorp","latitude":57.80444,"longitude":12.17131},{"id":103615,"name":"Olstorp","latitude":57.82277,"longitude":12.27696},{"id":103620,"name":"Orust","latitude":58.18025,"longitude":11.63419},{"id":103632,"name":"Partille","latitude":57.7395,"longitude":12.10642},{"id":103643,"name":"Rannebergen","latitude":57.80236,"longitude":12.07131},{"id":103667,"name":"Rävlanda","latitude":57.65338,"longitude":12.49791},{"id":103674,"name":"Rönnäng","latitude":57.93333,"longitude":11.58333},{"id":103816,"name":"Sålanda","latitude":57.98333,"longitude":12.21667},{"id":103679,"name":"Sandared","latitude":57.70992,"longitude":12.79238},{"id":103809,"name":"Sätila","latitude":57.54172,"longitude":12.43429},{"id":103694,"name":"Sjömarken","latitude":57.71533,"longitude":12.83495},{"id":103691,"name":"Sjuntorp","latitude":58.2,"longitude":12.21667},{"id":103696,"name":"Skara","latitude":58.38659,"longitude":13.43836},{"id":103720,"name":"Skärhamn","latitude":57.98665,"longitude":11.55742},{"id":103703,"name":"Skepplanda","latitude":57.98333,"longitude":12.2},{"id":103724,"name":"Skövde","latitude":58.39118,"longitude":13.84506},{"id":103712,"name":"Skultorp","latitude":58.35,"longitude":13.83333},{"id":103733,"name":"Smögen","latitude":58.35593,"longitude":11.22411},{"id":103734,"name":"Sollebrunn","latitude":58.11667,"longitude":12.53333},{"id":103751,"name":"Stenkullen","latitude":57.79476,"longitude":12.31688},{"id":103753,"name":"Stenstorp","latitude":58.27254,"longitude":13.71454},{"id":103754,"name":"Stenungsund","latitude":58.07046,"longitude":11.8181},{"id":103782,"name":"Stöpen","latitude":58.47802,"longitude":13.86611},{"id":103761,"name":"Stora Höga","latitude":58.01667,"longitude":11.83333},{"id":103775,"name":"Strömstad","latitude":58.93945,"longitude":11.1712},{"id":103780,"name":"Styrsö","latitude":57.61639,"longitude":11.78556},{"id":103792,"name":"Surte","latitude":57.82533,"longitude":12.01604},{"id":103796,"name":"Svanesund","latitude":58.14292,"longitude":11.81821},{"id":103799,"name":"Svenljunga","latitude":57.49551,"longitude":13.11078},{"id":103838,"name":"Tanumshede","latitude":58.72385,"longitude":11.32587},{"id":103842,"name":"Tibro","latitude":58.42453,"longitude":14.16162},{"id":103844,"name":"Tidaholm","latitude":58.18035,"longitude":13.95824},{"id":103854,"name":"Tjuvkil","latitude":57.9,"longitude":11.73333},{"id":103892,"name":"Töreboda","latitude":58.70739,"longitude":14.12597},{"id":103865,"name":"Torslanda","latitude":57.72432,"longitude":11.77013},{"id":103869,"name":"Tranemo","latitude":57.48333,"longitude":13.35},{"id":103876,"name":"Trollhättan","latitude":58.21208,"longitude":12.35033},{"id":103894,"name":"Uddevalla","latitude":58.34784,"longitude":11.9424},{"id":103896,"name":"Ulricehamn","latitude":57.79159,"longitude":13.41422},{"id":103962,"name":"Vänersborg","latitude":58.38075,"longitude":12.3234},{"id":103922,"name":"Vara","latitude":58.26234,"longitude":12.95413},{"id":103979,"name":"Vårgårda","latitude":58.03706,"longitude":12.80907},{"id":103926,"name":"Vargön","latitude":58.35599,"longitude":12.3906},{"id":103973,"name":"Västra Frölunda","latitude":57.64667,"longitude":11.92944},{"id":103953,"name":"Vinninga","latitude":58.45,"longitude":13.26667},{"id":103958,"name":"Viskafors","latitude":57.62941,"longitude":12.8489}]