[{"id":89749,"name":"Colonia Mauricio José Troche","latitude":-25.56667,"longitude":-56.28333},{"id":89756,"name":"Coronel Martínez","latitude":-25.75862,"longitude":-56.61677},{"id":89778,"name":"Independencia","latitude":-25.691,"longitude":-56.26781},{"id":89783,"name":"Itapé","latitude":-25.85172,"longitude":-56.61385},{"id":89785,"name":"Iturbe","latitude":-26.05508,"longitude":-56.48463},{"id":89795,"name":"Mbocayaty","latitude":-25.71938,"longitude":-56.42179},{"id":89800,"name":"Natalicio Talavera","latitude":-25.63333,"longitude":-56.3},{"id":89846,"name":"Villarrica","latitude":-25.74946,"longitude":-56.43518}]