[{"id":97486,"name":"Abinsk","latitude":44.86803,"longitude":38.15728},{"id":97487,"name":"Abinskiy Rayon","latitude":44.83402,"longitude":38.27891},{"id":97490,"name":"Abrau-Dyurso","latitude":44.69973,"longitude":37.60098},{"id":97503,"name":"Adler","latitude":43.42896,"longitude":39.92391},{"id":97509,"name":"Afipskiy","latitude":44.90005,"longitude":38.84265},{"id":97520,"name":"Agoy","latitude":44.1466,"longitude":39.0373},{"id":97521,"name":"Agronom","latitude":45.14021,"longitude":39.19484},{"id":97529,"name":"Akhtanizovskaya","latitude":45.32128,"longitude":37.10071},{"id":97534,"name":"Akhtyrskiy","latitude":44.8546,"longitude":38.3031},{"id":97580,"name":"Alekseyevskaya","latitude":45.77167,"longitude":40.15528},{"id":97620,"name":"Anapa","latitude":44.89084,"longitude":37.3239},{"id":97621,"name":"Anapskaya","latitude":44.89671,"longitude":37.386},{"id":97623,"name":"Anastasiyevskaya","latitude":45.21576,"longitude":37.89258},{"id":97651,"name":"Apsheronsk","latitude":44.46472,"longitude":39.73417},{"id":97668,"name":"Arkhipo-Osipovka","latitude":44.37194,"longitude":38.52972},{"id":97673,"name":"Armavir","latitude":44.9892,"longitude":41.1234},{"id":97708,"name":"Atamanskaya","latitude":46.1773,"longitude":39.6358},{"id":97736,"name":"Azovskaya","latitude":44.79083,"longitude":38.62639},{"id":97814,"name":"Baturinskaya","latitude":45.79267,"longitude":39.37065},{"id":97840,"name":"Belaya Glina","latitude":46.07802,"longitude":40.86651},{"id":97862,"name":"Belorechensk","latitude":44.77127,"longitude":39.87879},{"id":97863,"name":"Belorechenskiy Rayon","latitude":44.79923,"longitude":39.72061},{"id":97872,"name":"Belozërnyy","latitude":45.06433,"longitude":38.67901},{"id":97893,"name":"Berezanskaya","latitude":45.70562,"longitude":39.59324},{"id":97912,"name":"Besleneyevskaya","latitude":44.231,"longitude":40.725},{"id":97913,"name":"Besskorbnaya","latitude":44.6447,"longitude":41.311},{"id":97951,"name":"Blagovetschenskaya","latitude":45.0553,"longitude":37.13276},{"id":98062,"name":"Bryukhovetskaya","latitude":45.80603,"longitude":38.99959},{"id":98111,"name":"Chamlykskaya","latitude":44.71583,"longitude":40.87861},{"id":98138,"name":"Chelbasskaya","latitude":45.97924,"longitude":39.37186},{"id":98173,"name":"Chernomorskiy","latitude":44.85056,"longitude":38.49361},{"id":98174,"name":"Chernoyerkovskaya","latitude":45.43306,"longitude":37.76861},{"id":98233,"name":"Dagomys","latitude":43.66974,"longitude":39.66863},{"id":98277,"name":"Dinskaya","latitude":45.21516,"longitude":39.2265},{"id":98280,"name":"Divnomorskoye","latitude":44.5017,"longitude":38.1342},{"id":98283,"name":"Dmitriyevskaya","latitude":45.65639,"longitude":40.76528},{"id":98289,"name":"Dneprovskaya","latitude":45.62359,"longitude":38.80807},{"id":98304,"name":"Dolzhanskaya","latitude":46.63369,"longitude":37.80246},{"id":98360,"name":"Dvubratskiy","latitude":45.23888,"longitude":39.80499},{"id":98378,"name":"Dzhiginka","latitude":45.133,"longitude":37.33825},{"id":98379,"name":"Dzhubga","latitude":44.3211,"longitude":38.7073},{"id":98414,"name":"Fastovetskaya","latitude":45.91889,"longitude":40.15889},{"id":98466,"name":"Gayduk","latitude":44.78489,"longitude":37.7005},{"id":98474,"name":"Gelendzhik","latitude":44.5622,"longitude":38.0848},{"id":98491,"name":"Girey","latitude":45.4012,"longitude":40.6587},{"id":98494,"name":"Glafirovka","latitude":46.76378,"longitude":38.40785},{"id":98502,"name":"Glubokiy","latitude":44.94673,"longitude":41.01845},{"id":98510,"name":"Golubitskaya","latitude":45.32566,"longitude":37.2702},{"id":98533,"name":"Gornoye Loo","latitude":43.71294,"longitude":39.60492},{"id":98570,"name":"Goryachiy Klyuch","latitude":44.63083,"longitude":39.13},{"id":98571,"name":"Gostagayevskaya","latitude":45.02284,"longitude":37.50511},{"id":98592,"name":"Grivenskaya","latitude":45.6473,"longitude":38.17597},{"id":98605,"name":"Gubskaya","latitude":44.31639,"longitude":40.63583},{"id":98609,"name":"Gul’kevichi","latitude":45.35383,"longitude":40.69465},{"id":98649,"name":"Il’ich","latitude":45.42488,"longitude":36.77402},{"id":98660,"name":"Il’skiy","latitude":44.84222,"longitude":38.56686},{"id":98692,"name":"Irkliyevskaya","latitude":45.85635,"longitude":39.65381},{"id":98765,"name":"Kabardinka","latitude":44.65139,"longitude":37.94278},{"id":98789,"name":"Kalininskaya","latitude":45.4844,"longitude":38.66221},{"id":98798,"name":"Kalnibolotskaya","latitude":46.00583,"longitude":40.45682},{"id":98828,"name":"Kamyshevatskaya","latitude":46.41316,"longitude":37.95632},{"id":98840,"name":"Kanelovskaya","latitude":46.5896,"longitude":39.1944},{"id":98841,"name":"Kanevskaya","latitude":46.0849,"longitude":38.9596},{"id":98913,"name":"Kavkazskaya","latitude":45.4453,"longitude":40.6765},{"id":98928,"name":"Kazanskaya","latitude":45.4106,"longitude":40.4361},{"id":98953,"name":"Khadyzhensk","latitude":44.4258,"longitude":39.5362},{"id":98997,"name":"Kholmskiy","latitude":44.84694,"longitude":38.385},{"id":99009,"name":"Khosta","latitude":43.51484,"longitude":39.86825},{"id":99082,"name":"Kislyakovskaya","latitude":46.4417,"longitude":39.675},{"id":99086,"name":"Kiyevskoye","latitude":45.03829,"longitude":37.88829},{"id":99185,"name":"Konokovo","latitude":44.8616,"longitude":41.3266},{"id":99191,"name":"Konstantinovskaya","latitude":44.83528,"longitude":40.72694},{"id":99195,"name":"Kontenko","latitude":45.35806,"longitude":36.83222},{"id":99198,"name":"Kopanskaya","latitude":46.27785,"longitude":38.47955},{"id":99203,"name":"Korenovsk","latitude":45.46899,"longitude":39.45136},{"id":99222,"name":"Korzhevskiy","latitude":45.19414,"longitude":37.71949},{"id":99251,"name":"Kovalevskoye","latitude":45.19417,"longitude":40.97611},{"id":99283,"name":"Krasnaya Polyana","latitude":43.67952,"longitude":40.20403},{"id":99292,"name":"Krasnoarmeyskaya","latitude":45.36614,"longitude":38.21171},{"id":99300,"name":"Krasnodar","latitude":45.04484,"longitude":38.97603},{"id":99351,"name":"Krasnoye","latitude":46.7373,"longitude":39.5645},{"id":99399,"name":"Kropotkin","latitude":45.4375,"longitude":40.57556},{"id":99405,"name":"Krylovskaya","latitude":46.31944,"longitude":39.97111},{"id":99406,"name":"Krylovskiy Rayon","latitude":46.33333,"longitude":39.96667},{"id":99408,"name":"Krymsk","latitude":44.92934,"longitude":37.99117},{"id":99409,"name":"Krymskiy Rayon","latitude":44.90532,"longitude":37.80526},{"id":99415,"name":"Kubanskiy","latitude":45.92917,"longitude":40.58056},{"id":99417,"name":"Kuchugury","latitude":45.40702,"longitude":36.95586},{"id":99419,"name":"Kudepsta","latitude":43.49547,"longitude":39.89294},{"id":99460,"name":"Kurganinsk","latitude":44.88,"longitude":40.59861},{"id":99485,"name":"Kushchëvskaya","latitude":46.5599,"longitude":39.6321},{"id":99530,"name":"Labinsk","latitude":44.63417,"longitude":40.73556},{"id":99533,"name":"Ladozhskaya","latitude":45.30902,"longitude":39.93803},{"id":99549,"name":"Lazarevskoye","latitude":43.90886,"longitude":39.33137},{"id":99562,"name":"Lenina","latitude":46.06667,"longitude":39.78333},{"id":99564,"name":"Leningradskaya","latitude":46.3214,"longitude":39.3877},{"id":99587,"name":"Lermontovo","latitude":44.3038,"longitude":38.7572},{"id":99672,"name":"Lovlinskaya","latitude":45.51611,"longitude":40.24},{"id":99822,"name":"Maykopskoye","latitude":45.39361,"longitude":40.76583},{"id":99845,"name":"Medvedovskaya","latitude":45.45151,"longitude":39.02485},{"id":99901,"name":"Mikhaylovskaya","latitude":44.99472,"longitude":40.59639},{"id":99926,"name":"Mirskoy","latitude":45.5439,"longitude":40.3998},{"id":99981,"name":"Mostovskiy Rayon","latitude":44.27503,"longitude":40.64588},{"id":99982,"name":"Mostovskoy","latitude":44.41222,"longitude":40.79361},{"id":100032,"name":"Myskhako","latitude":44.65917,"longitude":37.76611},{"id":100081,"name":"Nebug","latitude":44.1717,"longitude":39.0026},{"id":100083,"name":"Neftegorsk","latitude":44.3658,"longitude":39.7078},{"id":100093,"name":"Nekrasovskaya","latitude":45.14468,"longitude":39.74868},{"id":100223,"name":"Novoalekseyevskaya","latitude":44.81889,"longitude":40.93389},{"id":100229,"name":"Novobeysugskaya","latitude":45.47195,"longitude":39.88614},{"id":100237,"name":"Novoderevyankovskaya","latitude":46.32312,"longitude":38.74724},{"id":100238,"name":"Novodmitriyevskaya","latitude":44.83276,"longitude":38.87847},{"id":100241,"name":"Novodzhereliyevskaya","latitude":45.77373,"longitude":38.67227},{"id":100252,"name":"Novokorsunskaya","latitude":45.6408,"longitude":39.14641},{"id":100254,"name":"Novokubansk","latitude":45.117,"longitude":41.0267},{"id":100255,"name":"Novokubanskiy Rayon","latitude":45.08798,"longitude":41.04466},{"id":100260,"name":"Novolabinskaya","latitude":45.10956,"longitude":39.89399},{"id":100263,"name":"Novoleushkovskaya","latitude":45.9956,"longitude":39.9921},{"id":100265,"name":"Novomalorossiyskaya","latitude":45.63483,"longitude":39.89481},{"id":100267,"name":"Novomikhaylovskiy","latitude":44.2626,"longitude":38.8585},{"id":100268,"name":"Novominskaya","latitude":46.3163,"longitude":38.9586},{"id":100270,"name":"Novomyshastovskaya","latitude":45.19909,"longitude":38.58272},{"id":100282,"name":"Novoplatnirovskaya","latitude":46.1065,"longitude":39.4191},{"id":100286,"name":"Novopokrovskaya","latitude":45.95139,"longitude":40.70056},{"id":100288,"name":"Novorossiysk","latitude":44.72439,"longitude":37.76752},{"id":100289,"name":"Novorozhdestvenskaya","latitude":45.86057,"longitude":39.94968},{"id":100299,"name":"Novoshcherbinovskaya","latitude":46.47669,"longitude":38.64757},{"id":100314,"name":"Novotitarovskaya","latitude":45.23756,"longitude":38.98059},{"id":100319,"name":"Novoukrainskiy","latitude":44.8942,"longitude":38.04886},{"id":100320,"name":"Novoukrainskoye","latitude":45.37833,"longitude":40.52972},{"id":100327,"name":"Novovelichkovskaya","latitude":45.27638,"longitude":38.84165},{"id":100432,"name":"Ol’ginka","latitude":44.2075,"longitude":38.89111},{"id":100435,"name":"Ol’ginskaya","latitude":45.9461,"longitude":38.54864},{"id":100483,"name":"Orël-Izumrud","latitude":43.46005,"longitude":39.92377},{"id":100504,"name":"Otradnaya","latitude":44.39333,"longitude":41.52056},{"id":100509,"name":"Otrado-Kubanskoye","latitude":45.24417,"longitude":40.84083},{"id":100551,"name":"Parkovyy","latitude":45.83306,"longitude":40.14556},{"id":100562,"name":"Pashkovskiy","latitude":45.02366,"longitude":39.10436},{"id":100574,"name":"Pavlovskaya","latitude":46.1377,"longitude":39.7832},{"id":100579,"name":"Pavlovskiy Rayon","latitude":46.08978,"longitude":39.7315},{"id":100597,"name":"Peredovaya","latitude":44.11722,"longitude":41.47556},{"id":100603,"name":"Perepravnaya","latitude":44.3366,"longitude":40.7849},{"id":100610,"name":"Pereyaslovskaya","latitude":45.84121,"longitude":39.02379},{"id":100653,"name":"Petropavlovskaya","latitude":45.08189,"longitude":40.45125},{"id":100662,"name":"Petrovskaya","latitude":45.43139,"longitude":37.955},{"id":100696,"name":"Plastunovskaya","latitude":45.29432,"longitude":39.26505},{"id":100697,"name":"Platnirovskaya","latitude":45.39531,"longitude":39.3842},{"id":100773,"name":"Poputnaya","latitude":44.5125,"longitude":41.4392},{"id":100824,"name":"Prikubanskiy","latitude":45.0015,"longitude":41.1795},{"id":100835,"name":"Primorsko-Akhtarsk","latitude":46.0497,"longitude":38.1747},{"id":100854,"name":"Prochnookopskaya","latitude":45.0666,"longitude":41.1175},{"id":100877,"name":"Psebay","latitude":44.1234,"longitude":40.8107},{"id":100879,"name":"Pshada","latitude":44.47,"longitude":38.3996},{"id":100880,"name":"Pshekhskaya","latitude":44.69597,"longitude":39.79665},{"id":100947,"name":"Rayevskaya","latitude":44.83571,"longitude":37.55577},{"id":100979,"name":"Rodnikovskaya","latitude":44.76444,"longitude":40.66556},{"id":100985,"name":"Rogovskaya","latitude":45.73117,"longitude":38.7396},{"id":101042,"name":"Ryazanskaya","latitude":44.95528,"longitude":39.58894},{"id":101115,"name":"Saratovskaya","latitude":44.70752,"longitude":39.22156},{"id":101223,"name":"Severskaya","latitude":44.85407,"longitude":38.67686},{"id":101229,"name":"Shabel’skoye","latitude":46.85275,"longitude":38.47278},{"id":101287,"name":"Shedok","latitude":44.2179,"longitude":40.8487},{"id":101303,"name":"Shepsi","latitude":44.0355,"longitude":39.1474},{"id":101328,"name":"Shirochanka","latitude":46.64968,"longitude":38.39782},{"id":101335,"name":"Shkurinskaya","latitude":46.5858,"longitude":39.3599},{"id":101405,"name":"Slavyansk-na-Kubani","latitude":45.2558,"longitude":38.1256},{"id":101406,"name":"Slavyansky rayon","latitude":45.41667,"longitude":37.75},{"id":101416,"name":"Smolenskaya","latitude":44.78636,"longitude":38.80333},{"id":101429,"name":"Sochi","latitude":43.59917,"longitude":39.72569},{"id":101439,"name":"Sokolovskoye","latitude":45.25833,"longitude":40.67972},{"id":101506,"name":"Sovetskaya","latitude":44.77694,"longitude":41.17222},{"id":101519,"name":"Sovkhoznyy","latitude":45.29462,"longitude":38.11384},{"id":101540,"name":"Spokoynaya","latitude":44.2468,"longitude":41.4015},{"id":101564,"name":"Staraya Stanitsa","latitude":45.0098,"longitude":41.1512},{"id":101576,"name":"Staroderevyankovskaya","latitude":46.1276,"longitude":38.9674},{"id":101580,"name":"Starodzhereliyevskaya","latitude":45.47599,"longitude":38.2968},{"id":101582,"name":"Starokorsunskaya","latitude":45.05727,"longitude":39.31611},{"id":101585,"name":"Staroleushkovskaya","latitude":45.98666,"longitude":39.75987},{"id":101586,"name":"Starominskaya","latitude":46.53,"longitude":39.04972},{"id":101587,"name":"Staromyshastovskaya","latitude":45.34329,"longitude":39.07608},{"id":101588,"name":"Staronizhestebliyevskaya","latitude":45.38315,"longitude":38.44304},{"id":101594,"name":"Staroshcherbinovskaya","latitude":46.6311,"longitude":38.6742},{"id":101597,"name":"Starotitarovskaya","latitude":45.21938,"longitude":37.15476},{"id":101599,"name":"Starovelichkovskaya","latitude":45.42884,"longitude":38.73261},{"id":101626,"name":"Strelka","latitude":45.20633,"longitude":37.2865},{"id":101655,"name":"Sukko","latitude":44.79945,"longitude":37.42145},{"id":101760,"name":"Taman’","latitude":45.2117,"longitude":36.71609},{"id":101808,"name":"Tbilisskaya","latitude":45.36333,"longitude":40.19},{"id":101814,"name":"Temirgoyevskaya","latitude":45.11414,"longitude":40.28027},{"id":101816,"name":"Temizhbekskaya","latitude":45.44556,"longitude":40.845},{"id":101820,"name":"Temruksky rayon","latitude":45.25,"longitude":37.25},{"id":101821,"name":"Temryuk","latitude":45.27055,"longitude":37.38716},{"id":101832,"name":"Ternevskaya","latitude":45.8513,"longitude":40.4125},{"id":101851,"name":"Tikhoretsk","latitude":45.85472,"longitude":40.12528},{"id":101852,"name":"Tikhoretskiy Rayon","latitude":45.73846,"longitude":40.27549},{"id":101858,"name":"Timashëvsk","latitude":45.61694,"longitude":38.94528},{"id":101915,"name":"Troitskaya","latitude":45.13493,"longitude":38.12544},{"id":101932,"name":"Trudobelikovskiy","latitude":45.26853,"longitude":38.15376},{"id":101946,"name":"Tsibanobalka","latitude":44.98034,"longitude":37.34384},{"id":101957,"name":"Tuapse","latitude":44.1053,"longitude":39.0802},{"id":101958,"name":"Tuapsinskiy Rayon","latitude":44.25,"longitude":39.08333},{"id":102023,"name":"Udobnaya","latitude":44.1932,"longitude":41.5529},{"id":102065,"name":"Upornaya","latitude":44.3914,"longitude":41.0196},{"id":102103,"name":"Uspenskaya","latitude":45.76448,"longitude":41.06696},{"id":102104,"name":"Uspenskoye","latitude":44.8311,"longitude":41.3927},{"id":102135,"name":"Ust’-Labinsk","latitude":45.21077,"longitude":39.68914},{"id":102187,"name":"Vardane","latitude":43.73179,"longitude":39.55428},{"id":102188,"name":"Varenikovskaya","latitude":45.12085,"longitude":37.64171},{"id":102202,"name":"Vasyurinskaya","latitude":45.11809,"longitude":39.42399},{"id":102219,"name":"Velikovechnoye","latitude":44.93402,"longitude":39.75499},{"id":102225,"name":"Ventsy","latitude":45.37639,"longitude":40.83583},{"id":102236,"name":"Verkhnebakanskiy","latitude":44.84917,"longitude":37.65722},{"id":102313,"name":"Vinogradnyy","latitude":45.0561,"longitude":37.32125},{"id":102322,"name":"Vityazevo","latitude":45.0013,"longitude":37.28211},{"id":102328,"name":"Vladimirskaya","latitude":44.5455,"longitude":40.7933},{"id":102382,"name":"Vorontsovka","latitude":46.6529,"longitude":38.0787},{"id":102408,"name":"Voznesenskaya","latitude":44.5527,"longitude":41.0318},{"id":102436,"name":"Vyselki","latitude":45.58128,"longitude":39.66409},{"id":102437,"name":"Vyselkovskiy Rayon","latitude":45.66667,"longitude":39.75},{"id":102439,"name":"Vyshestebliyevskaya","latitude":45.19611,"longitude":37.01806},{"id":102450,"name":"Vysokoye","latitude":43.46304,"longitude":39.96701},{"id":102500,"name":"Yaroslavskaya","latitude":44.61056,"longitude":40.46417},{"id":102507,"name":"Yasenskaya","latitude":46.3592,"longitude":38.269},{"id":102542,"name":"Yelizavetinskaya","latitude":45.04616,"longitude":38.79491},{"id":102579,"name":"Yeysk","latitude":46.7055,"longitude":38.2739},{"id":102580,"name":"Yeyskoye Ukrepleniye","latitude":46.7063,"longitude":38.6121},{"id":102600,"name":"Yurovka","latitude":45.1147,"longitude":37.41882},{"id":102620,"name":"Yuzhnyy","latitude":45.0025,"longitude":40.47472},{"id":102670,"name":"Zavetnyy","latitude":44.9316,"longitude":41.1373}]