[{"id":3915,"name":"Acton","latitude":-35.27767,"longitude":149.11829},{"id":3923,"name":"Ainslie","latitude":-35.26255,"longitude":149.1437},{"id":3974,"name":"Amaroo","latitude":-35.16959,"longitude":149.12802},{"id":3995,"name":"Aranda","latitude":-35.25817,"longitude":149.0804},{"id":4098,"name":"Banks","latitude":-35.47194,"longitude":149.09965},{"id":4129,"name":"Barton","latitude":-35.30489,"longitude":149.14121},{"id":4184,"name":"Belconnen","latitude":-35.23798,"longitude":149.06627},{"id":4331,"name":"Bonner","latitude":-35.16225,"longitude":149.13855},{"id":4338,"name":"Bonython","latitude":-35.43326,"longitude":149.07822},{"id":4377,"name":"Braddon","latitude":-35.27078,"longitude":149.13569},{"id":4436,"name":"Bruce","latitude":-35.24405,"longitude":149.09083},{"id":4536,"name":"Calwell","latitude":-35.44042,"longitude":149.10707},{"id":4555,"name":"Campbell","latitude":-35.28907,"longitude":149.15382},{"id":4566,"name":"Canberra","latitude":-35.28346,"longitude":149.12807},{"id":4621,"name":"Casey","latitude":-35.16701,"longitude":149.0947},{"id":4662,"name":"Chapman","latitude":-35.35621,"longitude":149.03742},{"id":4669,"name":"Charnwood","latitude":-35.20019,"longitude":149.03412},{"id":4687,"name":"Chifley","latitude":-35.3534,"longitude":149.07684},{"id":4697,"name":"Chisholm","latitude":-35.41249,"longitude":149.12825},{"id":4708,"name":"City","latitude":-35.28125,"longitude":149.12927},{"id":4787,"name":"Conder","latitude":-35.45926,"longitude":149.10422},{"id":4799,"name":"Cook","latitude":-35.26014,"longitude":149.06566},{"id":4816,"name":"Coombs","latitude":-35.31634,"longitude":149.03941},{"id":4855,"name":"Crace","latitude":-35.20282,"longitude":149.10736},{"id":4916,"name":"Curtin","latitude":-35.32464,"longitude":149.07763},{"id":4957,"name":"Deakin","latitude":-35.31927,"longitude":149.10308},{"id":4989,"name":"Dickson","latitude":-35.25082,"longitude":149.13932},{"id":5024,"name":"Downer","latitude":-35.24457,"longitude":149.14468},{"id":5036,"name":"Duffy","latitude":-35.33459,"longitude":149.03188},{"id":5046,"name":"Dunlop","latitude":-35.19402,"longitude":149.01984},{"id":5197,"name":"Evatt","latitude":-35.21191,"longitude":149.06891},{"id":5204,"name":"Fadden","latitude":-35.405,"longitude":149.11662},{"id":5219,"name":"Farrer","latitude":-35.37673,"longitude":149.105},{"id":5239,"name":"Fisher","latitude":-35.36126,"longitude":149.05704},{"id":5257,"name":"Florey","latitude":-35.22588,"longitude":149.05},{"id":5258,"name":"Flynn","latitude":-35.20593,"longitude":149.04389},{"id":5261,"name":"Forde","latitude":-35.16823,"longitude":149.14607},{"id":5270,"name":"Forrest","latitude":-35.31499,"longitude":149.12859},{"id":5278,"name":"Franklin","latitude":-35.19946,"longitude":149.14329},{"id":5284,"name":"Fraser","latitude":-35.1917,"longitude":149.04534},{"id":5306,"name":"Garran","latitude":-35.34206,"longitude":149.10846},{"id":5336,"name":"Gilmore","latitude":-35.41994,"longitude":149.13481},{"id":5340,"name":"Giralang","latitude":-35.21093,"longitude":149.096},{"id":5420,"name":"Gordon","latitude":-35.45676,"longitude":149.08498},{"id":5429,"name":"Gowrie","latitude":-35.41187,"longitude":149.10903},{"id":5461,"name":"Greenway","latitude":-35.41829,"longitude":149.06658},{"id":5472,"name":"Griffith","latitude":-35.32533,"longitude":149.13714},{"id":5485,"name":"Gungahlin","latitude":-35.18674,"longitude":149.13619},{"id":5498,"name":"Hackett","latitude":-35.24948,"longitude":149.16352},{"id":5531,"name":"Harrison","latitude":-35.19906,"longitude":149.15631},{"id":5538,"name":"Hawker","latitude":-35.24707,"longitude":149.03666},{"id":5592,"name":"Higgins","latitude":-35.23242,"longitude":149.0272},{"id":5629,"name":"Holder","latitude":-35.33439,"longitude":149.04614},{"id":5639,"name":"Holt","latitude":-35.22441,"longitude":149.01188},{"id":5663,"name":"Hughes","latitude":-35.33269,"longitude":149.09491},{"id":5707,"name":"Isaacs","latitude":-35.36862,"longitude":149.11555},{"id":5708,"name":"Isabella Plains","latitude":-35.42829,"longitude":149.08795},{"id":5758,"name":"Kaleen","latitude":-35.21814,"longitude":149.10516},{"id":5768,"name":"Kambah","latitude":-35.38624,"longitude":149.05804},{"id":5886,"name":"Kingston","latitude":-35.31525,"longitude":149.14658},{"id":5980,"name":"Latham","latitude":-35.21652,"longitude":149.03144},{"id":6091,"name":"Lyneham","latitude":-35.2398,"longitude":149.13074},{"id":6093,"name":"Lyons","latitude":-35.3406,"longitude":149.07396},{"id":6097,"name":"Macarthur","latitude":-35.40885,"longitude":149.12696},{"id":6102,"name":"Macgregor","latitude":-35.2098,"longitude":149.01101},{"id":6112,"name":"Macquarie","latitude":-35.25126,"longitude":149.06363},{"id":6205,"name":"Mawson","latitude":-35.3634,"longitude":149.09863},{"id":6218,"name":"McKellar","latitude":-35.21752,"longitude":149.07704},{"id":6234,"name":"Melba","latitude":-35.21016,"longitude":149.05405},{"id":6345,"name":"Monash","latitude":-35.41577,"longitude":149.09063},{"id":6533,"name":"Narrabundah","latitude":-35.3357,"longitude":149.14924},{"id":6583,"name":"Ngunnawal","latitude":-35.1728,"longitude":149.11147},{"id":6587,"name":"Nicholls","latitude":-35.18733,"longitude":149.09648},{"id":6691,"name":"O'Connor","latitude":-35.25645,"longitude":149.11248},{"id":6749,"name":"Oxley","latitude":-35.40952,"longitude":149.0786},{"id":6761,"name":"Page","latitude":-35.23864,"longitude":149.04988},{"id":6770,"name":"Palmerston","latitude":-35.19447,"longitude":149.1194},{"id":6820,"name":"Pearce","latitude":-35.36222,"longitude":149.08338},{"id":6848,"name":"Phillip","latitude":-35.35035,"longitude":149.09151},{"id":6977,"name":"Red Hill","latitude":-35.32624,"longitude":149.11906},{"id":6992,"name":"Reid","latitude":-35.28578,"longitude":149.13905},{"id":7004,"name":"Richardson","latitude":-35.42787,"longitude":149.11377},{"id":7031,"name":"Rivett","latitude":-35.34709,"longitude":149.0379},{"id":7157,"name":"Scullin","latitude":-35.23462,"longitude":149.039},{"id":7303,"name":"Spence","latitude":-35.19873,"longitude":149.06438},{"id":7348,"name":"Stirling","latitude":-35.34969,"longitude":149.0493},{"id":7498,"name":"Theodore","latitude":-35.44962,"longitude":149.11971},{"id":7544,"name":"Torrens","latitude":-35.37203,"longitude":149.08773},{"id":7582,"name":"Turner","latitude":-35.26881,"longitude":149.12465},{"id":7693,"name":"Wanniassa","latitude":-35.39783,"longitude":149.09086},{"id":7697,"name":"Waramanga","latitude":-35.35297,"longitude":149.06214},{"id":7735,"name":"Watson","latitude":-35.23815,"longitude":149.15271},{"id":7753,"name":"Weetangera","latitude":-35.25,"longitude":149.05},{"id":7827,"name":"Weston","latitude":-35.33582,"longitude":149.05929},{"id":7955,"name":"Wright","latitude":-35.32239,"longitude":149.03456},{"id":8002,"name":"Yarralumla","latitude":-35.2998,"longitude":149.10585}]