[{"id":134496,"name":"Arbil","latitude":36.1907,"longitude":44.00947},{"id":134513,"name":"Erbil","latitude":36.18333,"longitude":44.01193},{"id":134522,"name":"Koysinceq","latitude":36.08289,"longitude":44.62873},{"id":134534,"name":"Ruwāndiz","latitude":36.61207,"longitude":44.52372},{"id":134536,"name":"Shaqlāwah","latitude":36.40422,"longitude":44.32563},{"id":134539,"name":"Soran","latitude":36.6532,"longitude":44.54407}]