[{"id":63217,"name":"Agatsuma-gun","latitude":36.57368,"longitude":138.67243},{"id":63247,"name":"Annaka","latitude":36.33011,"longitude":138.89585},{"id":63248,"name":"Annaka Shi","latitude":36.34079,"longitude":138.77647},{"id":63350,"name":"Fujioka","latitude":36.24624,"longitude":139.07204},{"id":63351,"name":"Fujioka Shi","latitude":36.19213,"longitude":138.99918},{"id":63588,"name":"Isesaki","latitude":36.31667,"longitude":139.2},{"id":63589,"name":"Isesaki Shi","latitude":36.32126,"longitude":139.21823},{"id":63709,"name":"Kanekomachi","latitude":36.41097,"longitude":138.99621},{"id":63790,"name":"Kiryū","latitude":36.4,"longitude":139.33333},{"id":63791,"name":"Kiryū Shi","latitude":36.45702,"longitude":139.30962},{"id":63908,"name":"Maebashi","latitude":36.4,"longitude":139.08333},{"id":63909,"name":"Maebashi Shi","latitude":36.41432,"longitude":139.1311},{"id":63946,"name":"Midori","latitude":36.44492,"longitude":139.28448},{"id":63947,"name":"Midori Shi","latitude":36.53044,"longitude":139.34728},{"id":64088,"name":"Nakanojōmachi","latitude":36.58717,"longitude":138.84083},{"id":64170,"name":"Numata","latitude":36.63333,"longitude":139.05},{"id":64171,"name":"Numata Shi","latitude":36.67371,"longitude":139.18353},{"id":64737,"name":"Ōmamachō-ōmama","latitude":36.43181,"longitude":139.27534},{"id":64757,"name":"Ōta","latitude":36.3,"longitude":139.36667},{"id":64759,"name":"Ōta-shi","latitude":36.3,"longitude":139.36667},{"id":64258,"name":"Sakai-nakajima","latitude":36.26667,"longitude":139.25},{"id":64312,"name":"Shibukawa","latitude":36.48333,"longitude":139.0},{"id":64313,"name":"Shibukawa-shi","latitude":36.5,"longitude":138.98333},{"id":64436,"name":"Takasaki","latitude":36.33333,"longitude":139.01667},{"id":64437,"name":"Takasaki Shi","latitude":36.40538,"longitude":138.89227},{"id":64456,"name":"Tamamura","latitude":36.3,"longitude":139.11667},{"id":64472,"name":"Tatebayashi","latitude":36.25,"longitude":139.53333},{"id":64473,"name":"Tatebayashi-shi","latitude":36.24597,"longitude":139.53533},{"id":64506,"name":"Tomioka","latitude":36.25411,"longitude":138.89813},{"id":64507,"name":"Tomioka-shi","latitude":36.25,"longitude":138.88333},{"id":64684,"name":"Yoshii","latitude":36.25,"longitude":138.98333}]