[{"id":55051,"name":"Arcahaie","latitude":19.81667,"longitude":-72.91667},{"id":55062,"name":"Arrondissement de Port-de-Paix","latitude":19.83333,"longitude":-72.88333},{"id":55063,"name":"Arrondissement de Saint-Louis du Nord","latitude":19.85,"longitude":-72.66667},{"id":55068,"name":"Arrondissement du Môle Saint-Nicolas","latitude":19.75,"longitude":-73.25},{"id":55071,"name":"Baie de Henne","latitude":19.66307,"longitude":-73.20943},{"id":55074,"name":"Bombardopolis","latitude":19.69142,"longitude":-73.33769},{"id":55097,"name":"Fond Bassin Bleu","latitude":19.79445,"longitude":-72.79949},{"id":55110,"name":"Jean-Rabel","latitude":19.85379,"longitude":-73.19131},{"id":55133,"name":"Môle Saint-Nicolas","latitude":19.807,"longitude":-73.37605},{"id":55138,"name":"Petite Anse","latitude":19.63011,"longitude":-73.15499},{"id":55147,"name":"Port-de-Paix","latitude":19.93984,"longitude":-72.83037},{"id":55153,"name":"Saint-Louis du Nord","latitude":19.93397,"longitude":-72.72138},{"id":55161,"name":"Ti Port-de-Paix","latitude":19.93333,"longitude":-72.83333}]