[{"id":153256,"name":"Baguirmi Department","latitude":11.39833333,"longitude":16.1675},{"id":153257,"name":"Bousso","latitude":10.4825,"longitude":16.71611111},{"id":153258,"name":"Chari Department","latitude":12.05,"longitude":15.3},{"id":153259,"name":"Dababa","latitude":12.38,"longitude":17.06},{"id":153260,"name":"Gaoui","latitude":12.1807,"longitude":15.1476},{"id":153261,"name":"Linia","latitude":12.05,"longitude":15.3},{"id":153262,"name":"Mandjafa","latitude":11.19861111,"longitude":15.36111111},{"id":153263,"name":"Massenya","latitude":11.40277778,"longitude":16.17}]