[{"id":55177,"name":"Ajak","latitude":48.17664,"longitude":22.06273},{"id":55187,"name":"Anarcs","latitude":48.17642,"longitude":22.11167},{"id":55189,"name":"Apagy","latitude":47.96431,"longitude":21.93539},{"id":55193,"name":"Aranyosapáti","latitude":48.20595,"longitude":22.25916},{"id":55208,"name":"Baktalórántháza","latitude":48.0,"longitude":22.08333},{"id":55209,"name":"Baktalórántházai Járás","latitude":48.00436,"longitude":22.02449},{"id":55224,"name":"Balkány","latitude":47.77066,"longitude":21.86314},{"id":55307,"name":"Bököny","latitude":47.73333,"longitude":21.75},{"id":55285,"name":"Buj","latitude":48.1,"longitude":21.65},{"id":55329,"name":"Csenger","latitude":47.83582,"longitude":22.68096},{"id":55330,"name":"Csengeri Járás","latitude":47.83045,"longitude":22.5981},{"id":55356,"name":"Demecser","latitude":48.11648,"longitude":21.92624},{"id":55391,"name":"Döge","latitude":48.26246,"longitude":22.06339},{"id":55367,"name":"Dombrád","latitude":48.23333,"longitude":21.93333},{"id":55406,"name":"Encsencs","latitude":47.73333,"longitude":22.11667},{"id":55420,"name":"Fehérgyarmat","latitude":47.98333,"longitude":22.51667},{"id":55421,"name":"Fehérgyarmati Járás","latitude":48.00436,"longitude":22.63014},{"id":55435,"name":"Fényeslitke","latitude":48.27133,"longitude":22.10009},{"id":55473,"name":"Gégény","latitude":48.15,"longitude":21.95},{"id":55454,"name":"Gyulaháza","latitude":48.13333,"longitude":22.11667},{"id":55513,"name":"Hodász","latitude":47.91834,"longitude":22.20153},{"id":55524,"name":"Ibrány","latitude":48.12329,"longitude":21.70953},{"id":55525,"name":"Ibrányi Járás","latitude":48.12794,"longitude":21.69344},{"id":55636,"name":"Kállósemjén","latitude":47.86081,"longitude":21.93929},{"id":55637,"name":"Kálmánháza","latitude":47.88333,"longitude":21.58333},{"id":55639,"name":"Kántorjánosi","latitude":47.93333,"longitude":22.15},{"id":55641,"name":"Kék","latitude":48.11667,"longitude":21.88333},{"id":55582,"name":"Kemecse","latitude":48.07532,"longitude":21.80625},{"id":55583,"name":"Kemecsei Járás","latitude":48.10048,"longitude":21.88414},{"id":55605,"name":"Kisléta","latitude":47.84244,"longitude":22.00393},{"id":55612,"name":"Kisvárda","latitude":48.21667,"longitude":22.08333},{"id":55613,"name":"Kisvárdai Járás","latitude":48.221,"longitude":22.06415},{"id":55616,"name":"Kocsord","latitude":47.93912,"longitude":22.38333},{"id":55646,"name":"Kótaj","latitude":48.05,"longitude":21.71667},{"id":55662,"name":"Levelek","latitude":47.96282,"longitude":21.98537},{"id":55721,"name":"Mándok","latitude":48.32149,"longitude":22.19107},{"id":55723,"name":"Máriapócs","latitude":47.88303,"longitude":22.02501},{"id":55728,"name":"Mátészalka","latitude":47.95528,"longitude":22.32348},{"id":55729,"name":"Mátészalkai Járás","latitude":47.92961,"longitude":22.31892},{"id":55732,"name":"Mérk","latitude":47.78824,"longitude":22.38038},{"id":55743,"name":"Nagycserkesz","latitude":47.96667,"longitude":21.53333},{"id":55744,"name":"Nagydobos","latitude":48.05759,"longitude":22.30423},{"id":55746,"name":"Nagyecsed","latitude":47.86547,"longitude":22.39159},{"id":55747,"name":"Nagyhalász","latitude":48.13266,"longitude":21.76104},{"id":55751,"name":"Nagykálló","latitude":47.87491,"longitude":21.84082},{"id":55752,"name":"Nagykállói Járás","latitude":47.79994,"longitude":21.84753},{"id":55764,"name":"Napkor","latitude":47.93797,"longitude":21.86763},{"id":55775,"name":"Nyírbátor","latitude":47.83333,"longitude":22.13333},{"id":55776,"name":"Nyírbátori Járás","latitude":47.77553,"longitude":22.11755},{"id":55777,"name":"Nyírbéltek","latitude":47.7,"longitude":22.13333},{"id":55774,"name":"Nyírbogát","latitude":47.8034,"longitude":22.06561},{"id":55773,"name":"Nyírbogdány","latitude":48.05723,"longitude":21.88242},{"id":55778,"name":"Nyírcsaholy","latitude":47.90383,"longitude":22.3363},{"id":55779,"name":"Nyíregyháza","latitude":47.95539,"longitude":21.71671},{"id":55780,"name":"Nyíregyházi Járás","latitude":47.97691,"longitude":21.64463},{"id":55781,"name":"Nyírgyulaj","latitude":47.88622,"longitude":22.09781},{"id":55782,"name":"Nyírkarász","latitude":48.09477,"longitude":22.10463},{"id":55783,"name":"Nyírlugos","latitude":47.69315,"longitude":22.04476},{"id":55784,"name":"Nyírmada","latitude":48.06667,"longitude":22.2},{"id":55785,"name":"Nyírmeggyes","latitude":47.91667,"longitude":22.26667},{"id":55786,"name":"Nyírmihálydi","latitude":47.73976,"longitude":21.96445},{"id":55788,"name":"Nyírpazony","latitude":47.98333,"longitude":21.8},{"id":55789,"name":"Nyírtass","latitude":48.11667,"longitude":22.03333},{"id":55790,"name":"Nyírtelek","latitude":48.01667,"longitude":21.63333},{"id":55791,"name":"Nyírvasvári","latitude":47.81667,"longitude":22.18683},{"id":56150,"name":"Ófehértó","latitude":47.93333,"longitude":22.05},{"id":56157,"name":"Ököritófülpös","latitude":47.91862,"longitude":22.5081},{"id":56153,"name":"Ópályi","latitude":47.99771,"longitude":22.32617},{"id":55846,"name":"Pátroha","latitude":48.16667,"longitude":22.0},{"id":55815,"name":"Petneháza","latitude":48.06084,"longitude":22.07485},{"id":55830,"name":"Porcsalma","latitude":47.88333,"longitude":22.56667},{"id":55862,"name":"Rakamaz","latitude":48.12372,"longitude":21.46429},{"id":55916,"name":"Szakoly","latitude":47.76667,"longitude":21.91667},{"id":55918,"name":"Szamosszeg","latitude":48.04561,"longitude":22.36582},{"id":56015,"name":"Tarpa","latitude":48.1048,"longitude":22.53744},{"id":56022,"name":"Tiszabercel","latitude":48.15,"longitude":21.65},{"id":56023,"name":"Tiszabezdéd","latitude":48.36667,"longitude":22.15},{"id":56027,"name":"Tiszadada","latitude":48.03333,"longitude":21.25},{"id":56028,"name":"Tiszadob","latitude":48.01667,"longitude":21.16667},{"id":56029,"name":"Tiszaeszlár","latitude":48.05,"longitude":21.46667},{"id":56037,"name":"Tiszalök","latitude":48.01667,"longitude":21.38333},{"id":56039,"name":"Tiszanagyfalu","latitude":48.1,"longitude":21.48333},{"id":56046,"name":"Tiszavasvári","latitude":47.96667,"longitude":21.35},{"id":56047,"name":"Tiszavasvári Járás","latitude":47.98606,"longitude":21.36545},{"id":56056,"name":"Tornyospálca","latitude":48.26667,"longitude":22.18333},{"id":56057,"name":"Tunyogmatolcs","latitude":47.96667,"longitude":22.46667},{"id":56059,"name":"Tuzsér","latitude":48.34407,"longitude":22.11762},{"id":56060,"name":"Tyukod","latitude":47.85378,"longitude":22.5633},{"id":56160,"name":"Újfehértó","latitude":47.8,"longitude":21.68333},{"id":56088,"name":"Vaja","latitude":48.00574,"longitude":22.16761},{"id":56114,"name":"Vásárosnamény","latitude":48.12542,"longitude":22.31325},{"id":56115,"name":"Vásárosnaményi Járás","latitude":48.17981,"longitude":22.35859},{"id":56134,"name":"Záhony","latitude":48.40906,"longitude":22.17614},{"id":56135,"name":"Záhonyi Járás","latitude":48.34914,"longitude":22.18925}]