[{"id":110874,"name":"Adjumani","latitude":3.37786,"longitude":31.7909},{"id":110875,"name":"Amudat","latitude":1.95,"longitude":34.95},{"id":110876,"name":"Apac","latitude":1.97556,"longitude":32.53861},{"id":110877,"name":"Arua","latitude":3.02013,"longitude":30.91105},{"id":110894,"name":"Gulu","latitude":2.77457,"longitude":32.29899},{"id":110920,"name":"Kitgum","latitude":3.27833,"longitude":32.88667},{"id":110921,"name":"Kotido","latitude":2.98056,"longitude":34.13306},{"id":110925,"name":"Lira","latitude":2.2499,"longitude":32.89985},{"id":110937,"name":"Moroto","latitude":2.53453,"longitude":34.66659},{"id":110938,"name":"Moyo","latitude":3.66088,"longitude":31.72474},{"id":110946,"name":"Nebbi","latitude":2.47826,"longitude":31.08893},{"id":110950,"name":"Otuke District","latitude":2.48372,"longitude":33.34201},{"id":110951,"name":"Oyam District","latitude":2.38129,"longitude":32.50071},{"id":110952,"name":"Pader","latitude":3.05,"longitude":33.21667},{"id":110953,"name":"Pader Palwo","latitude":2.80056,"longitude":33.135},{"id":110954,"name":"Paidha","latitude":2.41669,"longitude":30.98551},{"id":110964,"name":"Yumbe","latitude":3.46506,"longitude":31.24689}]