[{"id":48162,"name":"Aberaeron","latitude":52.24247,"longitude":-4.25871},{"id":48163,"name":"Abercanaid","latitude":51.72361,"longitude":-3.36611},{"id":48164,"name":"Abercarn","latitude":51.64733,"longitude":-3.13476},{"id":48166,"name":"Abercynon","latitude":51.64548,"longitude":-3.32727},{"id":48167,"name":"Aberdare","latitude":51.71438,"longitude":-3.44918},{"id":48172,"name":"Aberfan","latitude":51.68892,"longitude":-3.34178},{"id":48175,"name":"Abergavenny","latitude":51.82098,"longitude":-3.01743},{"id":48176,"name":"Abergele","latitude":53.28436,"longitude":-3.5822},{"id":48177,"name":"Aberkenfig","latitude":51.54,"longitude":-3.59556},{"id":48180,"name":"Aberporth","latitude":52.13248,"longitude":-4.54173},{"id":48181,"name":"Abertillery","latitude":51.72981,"longitude":-3.13432},{"id":48182,"name":"Abertridwr","latitude":51.59583,"longitude":-3.26833},{"id":48183,"name":"Aberystwyth","latitude":52.41548,"longitude":-4.08292},{"id":48245,"name":"Amlwch","latitude":53.40986,"longitude":-4.34712},{"id":48246,"name":"Ammanford","latitude":51.79279,"longitude":-3.98833},{"id":48250,"name":"Anglesey","latitude":53.25,"longitude":-4.33333},{"id":48335,"name":"Bagillt","latitude":53.2654,"longitude":-3.16551},{"id":48340,"name":"Bala","latitude":52.91111,"longitude":-3.59722},{"id":48370,"name":"Bangor","latitude":53.22752,"longitude":-4.12936},{"id":48384,"name":"Bargoed","latitude":51.68333,"longitude":-3.23333},{"id":48393,"name":"Barmouth","latitude":52.72377,"longitude":-4.05748},{"id":48413,"name":"Barry","latitude":51.39979,"longitude":-3.2838},{"id":48441,"name":"Beaumaris","latitude":53.26315,"longitude":-4.09233},{"id":48448,"name":"Beddau","latitude":51.55398,"longitude":-3.35814},{"id":48451,"name":"Bedlinog","latitude":51.70432,"longitude":-3.31306},{"id":48452,"name":"Bedwas","latitude":51.59183,"longitude":-3.19886},{"id":48472,"name":"Benllech","latitude":53.32044,"longitude":-4.22607},{"id":48481,"name":"Bethesda","latitude":53.1815,"longitude":-4.05828},{"id":48484,"name":"Betws","latitude":51.56917,"longitude":-3.58833},{"id":48485,"name":"Betws-y-Coed","latitude":53.09382,"longitude":-3.80668},{"id":48533,"name":"Bishopston","latitude":51.5775,"longitude":-4.04806},{"id":48553,"name":"Blackwood","latitude":51.66778,"longitude":-3.2075},{"id":48555,"name":"Blaenau Gwent","latitude":51.75,"longitude":-3.16667},{"id":48556,"name":"Blaenau-Ffestiniog","latitude":52.99464,"longitude":-3.93697},{"id":48557,"name":"Blaenavon","latitude":51.77402,"longitude":-3.08537},{"id":48558,"name":"Blaengwynfi","latitude":51.65623,"longitude":-3.60371},{"id":48580,"name":"Bodedern","latitude":53.29232,"longitude":-4.50303},{"id":48581,"name":"Bodelwyddan","latitude":53.26827,"longitude":-3.50078},{"id":48613,"name":"Borth","latitude":52.48887,"longitude":-4.05039},{"id":48633,"name":"Bow Street","latitude":52.44213,"longitude":-4.02783},{"id":48670,"name":"Brecon","latitude":51.94612,"longitude":-3.38887},{"id":48683,"name":"Bridgend","latitude":51.50583,"longitude":-3.57722},{"id":48684,"name":"Bridgend county borough","latitude":51.55,"longitude":-3.58333},{"id":48705,"name":"Briton Ferry","latitude":51.63106,"longitude":-3.81898},{"id":48730,"name":"Broughton","latitude":53.16303,"longitude":-2.99309},{"id":48737,"name":"Brymbo","latitude":53.06667,"longitude":-3.06667},{"id":48738,"name":"Bryn","latitude":51.61639,"longitude":-3.71167},{"id":48739,"name":"Brynamman","latitude":51.8,"longitude":-3.86667},{"id":48740,"name":"Brynmawr","latitude":51.8,"longitude":-3.18333},{"id":48741,"name":"Brynna","latitude":51.53845,"longitude":-3.46378},{"id":48750,"name":"Buckley","latitude":53.16667,"longitude":-3.08333},{"id":48756,"name":"Builth Wells","latitude":52.1494,"longitude":-3.40469},{"id":48784,"name":"Burry Port","latitude":51.68435,"longitude":-4.24687},{"id":48810,"name":"Caergwrle","latitude":53.10953,"longitude":-3.03808},{"id":48811,"name":"Caerleon","latitude":51.60952,"longitude":-2.95378},{"id":48812,"name":"Caernarfon","latitude":53.14126,"longitude":-4.27016},{"id":48813,"name":"Caerphilly","latitude":51.57452,"longitude":-3.218},{"id":48814,"name":"Caerphilly County Borough","latitude":51.66667,"longitude":-3.16667},{"id":48815,"name":"Caerwent","latitude":51.6112,"longitude":-2.76865},{"id":48824,"name":"Caldicot","latitude":51.58661,"longitude":-2.75736},{"id":48854,"name":"Cardiff","latitude":51.48,"longitude":-3.18},{"id":48855,"name":"Cardigan","latitude":52.08373,"longitude":-4.66228},{"id":48862,"name":"Carmarthen","latitude":51.85552,"longitude":-4.30535},{"id":48863,"name":"Carmarthenshire","latitude":51.83333,"longitude":-4.16667},{"id":48901,"name":"Cefn Cribwr","latitude":51.53167,"longitude":-3.65278},{"id":48902,"name":"Cemaes Bay","latitude":53.41211,"longitude":-4.4519},{"id":48948,"name":"Chepstow","latitude":51.64087,"longitude":-2.67683},{"id":48976,"name":"Chirk","latitude":52.93586,"longitude":-3.05738},{"id":49005,"name":"City and County of Swansea","latitude":51.58333,"longitude":-4.0},{"id":49042,"name":"Clydach","latitude":51.68333,"longitude":-3.9},{"id":49057,"name":"Coedpoeth","latitude":53.05391,"longitude":-3.06234},{"id":49060,"name":"Coity","latitude":51.522,"longitude":-3.55531},{"id":49078,"name":"Colwyn Bay","latitude":53.29483,"longitude":-3.72674},{"id":49093,"name":"Conwy","latitude":53.08333,"longitude":-3.75},{"id":49122,"name":"County of Ceredigion","latitude":52.25,"longitude":-4.0},{"id":49123,"name":"County of Flintshire","latitude":53.25,"longitude":-3.16667},{"id":49129,"name":"Cowbridge","latitude":51.46028,"longitude":-3.44167},{"id":49156,"name":"Criccieth","latitude":52.92053,"longitude":-4.2346},{"id":49158,"name":"Crickhowell","latitude":51.85992,"longitude":-3.13771},{"id":49162,"name":"Croeserw","latitude":51.64472,"longitude":-3.64028},{"id":49165,"name":"Crofty","latitude":51.63448,"longitude":-4.12937},{"id":49172,"name":"Cross Hands","latitude":51.79306,"longitude":-4.0875},{"id":49189,"name":"Crumlin","latitude":51.67778,"longitude":-3.13528},{"id":49191,"name":"Crymych","latitude":51.97361,"longitude":-4.64722},{"id":49192,"name":"Crynant","latitude":51.72889,"longitude":-3.74806},{"id":49215,"name":"Cwm","latitude":51.74,"longitude":-3.18028},{"id":49216,"name":"Cwmafan","latitude":51.61671,"longitude":-3.76205},{"id":49217,"name":"Cwmbach","latitude":51.70556,"longitude":-3.40944},{"id":49218,"name":"Cwmbran","latitude":51.65446,"longitude":-3.02281},{"id":49254,"name":"Deeside","latitude":53.20053,"longitude":-3.03841},{"id":49255,"name":"Deganwy","latitude":53.30446,"longitude":-3.82735},{"id":49256,"name":"Deiniolen","latitude":53.14819,"longitude":-4.13185},{"id":49259,"name":"Denbigh","latitude":53.18333,"longitude":-3.41667},{"id":49260,"name":"Denbighshire","latitude":53.08333,"longitude":-3.33333},{"id":49271,"name":"Deri","latitude":51.70812,"longitude":-3.26312},{"id":49285,"name":"Dinas Powys","latitude":51.43486,"longitude":-3.21398},{"id":49300,"name":"Dolgellau","latitude":52.74222,"longitude":-3.88611},{"id":49370,"name":"Dyffryn Ardudwy","latitude":52.77748,"longitude":-4.06468},{"id":49372,"name":"Dyserth","latitude":53.30032,"longitude":-3.41262},{"id":49431,"name":"Ebbw Vale","latitude":51.77714,"longitude":-3.20792},{"id":49546,"name":"Ferndale","latitude":51.66056,"longitude":-3.4475},{"id":49562,"name":"Fishguard","latitude":51.99376,"longitude":-4.97631},{"id":49574,"name":"Flint","latitude":53.24488,"longitude":-3.13231},{"id":49580,"name":"Fochriw","latitude":51.74003,"longitude":-3.29861},{"id":49596,"name":"Four Crosses","latitude":52.75941,"longitude":-3.08106},{"id":49619,"name":"Gaerwen","latitude":53.22112,"longitude":-4.27362},{"id":49636,"name":"Gelligaer","latitude":51.66444,"longitude":-3.25611},{"id":49641,"name":"Gilfach Goch","latitude":51.59213,"longitude":-3.47296},{"id":49644,"name":"Gilwern","latitude":51.82475,"longitude":-3.09355},{"id":49647,"name":"Glanamman","latitude":51.8,"longitude":-3.93333},{"id":49648,"name":"Glandwr","latitude":51.92833,"longitude":-4.63333},{"id":49666,"name":"Glyn-neath","latitude":51.7475,"longitude":-3.61833},{"id":49667,"name":"Glyncorrwg","latitude":51.67944,"longitude":-3.62806},{"id":49676,"name":"Goodwick","latitude":52.00491,"longitude":-4.99511},{"id":49684,"name":"Gorseinon","latitude":51.66931,"longitude":-4.04163},{"id":49693,"name":"Govilon","latitude":51.81928,"longitude":-3.06295},{"id":49740,"name":"Greenfield","latitude":53.28333,"longitude":-3.21667},{"id":49749,"name":"Gresford","latitude":53.08539,"longitude":-2.97062},{"id":49756,"name":"Gronant","latitude":53.33669,"longitude":-3.36031},{"id":49759,"name":"Grovesend","latitude":51.68472,"longitude":-4.03833},{"id":49763,"name":"Guilsfield","latitude":52.69634,"longitude":-3.15712},{"id":49769,"name":"Gwynedd","latitude":52.83333,"longitude":-3.91667},{"id":49807,"name":"Harlech","latitude":52.85941,"longitude":-4.10831},{"id":49847,"name":"Haverfordwest","latitude":51.80169,"longitude":-4.96914},{"id":49850,"name":"Hawarden","latitude":53.18478,"longitude":-3.02578},{"id":49858,"name":"Hay","latitude":52.07049,"longitude":-3.12741},{"id":49902,"name":"Hengoed","latitude":51.65083,"longitude":-3.23167},{"id":49905,"name":"Henllan","latitude":53.2,"longitude":-3.46667},{"id":49950,"name":"Hirwaun","latitude":51.73917,"longitude":-3.51028},{"id":49971,"name":"Holyhead","latitude":53.30621,"longitude":-4.63211},{"id":49973,"name":"Holywell","latitude":53.27466,"longitude":-3.22895},{"id":49980,"name":"Hook","latitude":51.765,"longitude":-4.93167},{"id":49983,"name":"Hope","latitude":53.11667,"longitude":-3.03333},{"id":50022,"name":"Hundleton","latitude":51.66694,"longitude":-4.94917},{"id":50095,"name":"Johnston","latitude":51.75556,"longitude":-4.99667},{"id":50138,"name":"Kidwelly","latitude":51.73639,"longitude":-4.30333},{"id":50143,"name":"Kilgetty","latitude":51.73203,"longitude":-4.71983},{"id":50219,"name":"Knighton","latitude":52.34251,"longitude":-3.04708},{"id":50233,"name":"Lampeter","latitude":52.11285,"longitude":-4.08039},{"id":50273,"name":"Leeswood","latitude":53.13347,"longitude":-3.09466},{"id":50290,"name":"Letterston","latitude":51.92757,"longitude":-4.99141},{"id":50340,"name":"Llanarth","latitude":52.19424,"longitude":-4.30811},{"id":50341,"name":"Llanbedr","latitude":52.81667,"longitude":-4.1},{"id":50342,"name":"Llanberis","latitude":53.11809,"longitude":-4.12923},{"id":50343,"name":"Llanbradach","latitude":51.60639,"longitude":-3.23028},{"id":50344,"name":"Llandeilo","latitude":51.88459,"longitude":-3.99154},{"id":50345,"name":"Llandovery","latitude":51.99415,"longitude":-3.79637},{"id":50346,"name":"Llandrindod Wells","latitude":52.24164,"longitude":-3.37868},{"id":50347,"name":"Llandudno","latitude":53.32498,"longitude":-3.83148},{"id":50348,"name":"Llandybie","latitude":51.82044,"longitude":-4.0071},{"id":50349,"name":"Llandysul","latitude":52.04166,"longitude":-4.30909},{"id":50350,"name":"Llanelli","latitude":51.68195,"longitude":-4.16191},{"id":50351,"name":"Llanerchymedd","latitude":53.33055,"longitude":-4.377},{"id":50352,"name":"Llanfair Caereinion","latitude":52.6479,"longitude":-3.32668},{"id":50353,"name":"Llanfairfechan","latitude":53.25779,"longitude":-3.97423},{"id":50354,"name":"Llanfairpwllgwyngyll","latitude":53.22141,"longitude":-4.20329},{"id":50355,"name":"Llanfyllin","latitude":52.7657,"longitude":-3.27187},{"id":50356,"name":"Llangefni","latitude":53.25561,"longitude":-4.31063},{"id":50357,"name":"Llangoed","latitude":53.2942,"longitude":-4.08772},{"id":50358,"name":"Llangollen","latitude":52.96829,"longitude":-3.17127},{"id":50359,"name":"Llangwm","latitude":51.74833,"longitude":-4.91361},{"id":50360,"name":"Llangybi","latitude":51.66583,"longitude":-2.90806},{"id":50361,"name":"Llangynidr","latitude":51.8673,"longitude":-3.22762},{"id":50362,"name":"Llanharan","latitude":51.53805,"longitude":-3.43906},{"id":50363,"name":"Llanharry","latitude":51.51422,"longitude":-3.4324},{"id":50364,"name":"Llanidloes","latitude":52.44977,"longitude":-3.53997},{"id":50365,"name":"Llanilar","latitude":52.35657,"longitude":-4.02574},{"id":50366,"name":"Llanrhaeadr-ym-Mochnant","latitude":52.82507,"longitude":-3.30225},{"id":50367,"name":"Llanrug","latitude":53.14788,"longitude":-4.19596},{"id":50368,"name":"Llanrwst","latitude":53.14021,"longitude":-3.79527},{"id":50369,"name":"Llansantffraid Glan Conwy","latitude":53.26667,"longitude":-3.8},{"id":50370,"name":"Llansteffan","latitude":51.77222,"longitude":-4.39139},{"id":50371,"name":"Llantrisant","latitude":51.54028,"longitude":-3.37389},{"id":50372,"name":"Llantwit Fardre","latitude":51.5546,"longitude":-3.33241},{"id":50373,"name":"Llantwit Major","latitude":51.4107,"longitude":-3.48632},{"id":50374,"name":"Llwynypia","latitude":51.63333,"longitude":-3.45},{"id":50460,"name":"Machen","latitude":51.59599,"longitude":-3.1419},{"id":50461,"name":"Machynlleth","latitude":52.59097,"longitude":-3.85051},{"id":50465,"name":"Maesteg","latitude":51.60926,"longitude":-3.65823},{"id":50470,"name":"Magor","latitude":51.57944,"longitude":-2.83139},{"id":50493,"name":"Marchwiel","latitude":53.0239,"longitude":-2.96106},{"id":50518,"name":"Marshfield","latitude":51.53389,"longitude":-3.07306},{"id":50545,"name":"Menai Bridge","latitude":53.22775,"longitude":-4.16926},{"id":50554,"name":"Merthyr Tydfil","latitude":51.74794,"longitude":-3.37779},{"id":50555,"name":"Merthyr Tydfil County Borough","latitude":51.75,"longitude":-3.33333},{"id":50582,"name":"Milford Haven","latitude":51.71278,"longitude":-5.0341},{"id":50610,"name":"Moelfre","latitude":53.35228,"longitude":-4.23734},{"id":50614,"name":"Mold","latitude":53.16674,"longitude":-3.14143},{"id":50619,"name":"Monmouth","latitude":51.81265,"longitude":-2.71363},{"id":50620,"name":"Monmouthshire","latitude":51.75,"longitude":-2.83333},{"id":50636,"name":"Mostyn","latitude":53.31271,"longitude":-3.26765},{"id":50642,"name":"Mountain Ash","latitude":51.68361,"longitude":-3.38008},{"id":50664,"name":"Narberth","latitude":51.79784,"longitude":-4.74275},{"id":50667,"name":"Neath","latitude":51.66317,"longitude":-3.80443},{"id":50668,"name":"Neath Port Talbot","latitude":51.66667,"longitude":-3.75},{"id":50672,"name":"Nefyn","latitude":52.93538,"longitude":-4.5225},{"id":50675,"name":"Nelson","latitude":51.65333,"longitude":-3.28444},{"id":50694,"name":"New Quay","latitude":52.21515,"longitude":-4.35887},{"id":50697,"name":"New Tredegar","latitude":51.72051,"longitude":-3.2413},{"id":50703,"name":"Newbridge","latitude":51.66667,"longitude":-3.13333},{"id":50708,"name":"Newcastle Emlyn","latitude":52.04056,"longitude":-4.4667},{"id":50720,"name":"Newport","latitude":51.58774,"longitude":-2.99835},{"id":50737,"name":"Newtown","latitude":52.51667,"longitude":-3.3},{"id":50742,"name":"Neyland","latitude":51.71014,"longitude":-4.95155},{"id":50779,"name":"Northop","latitude":53.20692,"longitude":-3.13277},{"id":50799,"name":"Ogmore Vale","latitude":51.6023,"longitude":-3.54217},{"id":50836,"name":"Overton","latitude":52.96667,"longitude":-2.93333},{"id":50871,"name":"Pembroke","latitude":51.67464,"longitude":-4.91286},{"id":50872,"name":"Pembroke Dock","latitude":51.69161,"longitude":-4.94036},{"id":50873,"name":"Pembrokeshire","latitude":51.83333,"longitude":-4.91667},{"id":50875,"name":"Pen-clawdd","latitude":51.64028,"longitude":-4.09917},{"id":50876,"name":"Penally","latitude":51.65986,"longitude":-4.72399},{"id":50877,"name":"Penarth","latitude":51.4386,"longitude":-3.17342},{"id":50878,"name":"Pencader","latitude":52.0008,"longitude":-4.26575},{"id":50880,"name":"Pencoed","latitude":51.52371,"longitude":-3.50016},{"id":50884,"name":"Penmaenmawr","latitude":53.26667,"longitude":-3.93333},{"id":50885,"name":"Penparcau","latitude":52.40333,"longitude":-4.07417},{"id":50886,"name":"Penrhyndeudraeth","latitude":52.93333,"longitude":-4.06667},{"id":50890,"name":"Pentre","latitude":51.65429,"longitude":-3.49133},{"id":50891,"name":"Pentyrch","latitude":51.52889,"longitude":-3.295},{"id":50892,"name":"Penyffordd","latitude":53.14829,"longitude":-3.04584},{"id":50893,"name":"Penygroes","latitude":53.05502,"longitude":-4.28535},{"id":50936,"name":"Pont Rhyd-y-cyff","latitude":51.58694,"longitude":-3.63639},{"id":50937,"name":"Pontarddulais","latitude":51.71423,"longitude":-4.03859},{"id":50941,"name":"Pontlliw","latitude":51.69139,"longitude":-4.01056},{"id":50942,"name":"Pontyates","latitude":51.75182,"longitude":-4.21718},{"id":50943,"name":"Pontyberem","latitude":51.77826,"longitude":-4.1689},{"id":50944,"name":"Pontyclun","latitude":51.52162,"longitude":-3.39145},{"id":50945,"name":"Pontycymer","latitude":51.61118,"longitude":-3.58421},{"id":50946,"name":"Pontypool","latitude":51.70111,"longitude":-3.04444},{"id":50947,"name":"Pontypridd","latitude":51.6021,"longitude":-3.34211},{"id":50955,"name":"Port Talbot","latitude":51.59241,"longitude":-3.78019},{"id":50960,"name":"Porthcawl","latitude":51.47903,"longitude":-3.70362},{"id":50962,"name":"Porthmadog","latitude":52.92924,"longitude":-4.13137},{"id":50984,"name":"Prestatyn","latitude":53.33748,"longitude":-3.40776},{"id":50986,"name":"Presteigne","latitude":52.27183,"longitude":-3.00579},{"id":50991,"name":"Price Town","latitude":51.61832,"longitude":-3.53662},{"id":51008,"name":"Pwllheli","latitude":52.8899,"longitude":-4.41451},{"id":51009,"name":"Pyle","latitude":51.51667,"longitude":-3.7},{"id":51021,"name":"Radyr","latitude":51.51864,"longitude":-3.25829},{"id":51022,"name":"Raglan","latitude":51.765,"longitude":-2.85331},{"id":51064,"name":"Resolven","latitude":51.71193,"longitude":-3.69745},{"id":51066,"name":"Rhayader","latitude":52.30154,"longitude":-3.51146},{"id":51067,"name":"Rhondda","latitude":51.65896,"longitude":-3.44885},{"id":51068,"name":"Rhondda Cynon Taf","latitude":51.66667,"longitude":-3.5},{"id":51069,"name":"Rhoose","latitude":51.38818,"longitude":-3.3543},{"id":51070,"name":"Rhosllanerchrugog","latitude":53.00974,"longitude":-3.05814},{"id":51071,"name":"Rhosneigr","latitude":53.23186,"longitude":-4.5148},{"id":51073,"name":"Rhuddlan","latitude":53.29203,"longitude":-3.46996},{"id":51074,"name":"Rhyl","latitude":53.31929,"longitude":-3.49228},{"id":51075,"name":"Rhymney","latitude":51.75998,"longitude":-3.28553},{"id":51088,"name":"Risca","latitude":51.60799,"longitude":-3.10081},{"id":51100,"name":"Rogiet","latitude":51.58854,"longitude":-2.77868},{"id":51112,"name":"Rossett","latitude":53.10921,"longitude":-2.94478},{"id":51136,"name":"Ruabon","latitude":52.9878,"longitude":-3.03883},{"id":51150,"name":"Ruthin","latitude":53.11368,"longitude":-3.31782},{"id":51164,"name":"Saint Asaph","latitude":53.25815,"longitude":-3.44524},{"id":51167,"name":"Saint Clears","latitude":51.81989,"longitude":-4.49783},{"id":51170,"name":"Saint Davids","latitude":51.88094,"longitude":-5.26554},{"id":51202,"name":"Saundersfoot","latitude":51.70945,"longitude":-4.70215},{"id":51239,"name":"Seven Sisters","latitude":51.76667,"longitude":-3.71667},{"id":51315,"name":"Sir Powys","latitude":52.33333,"longitude":-3.41667},{"id":51375,"name":"Southgate","latitude":51.56944,"longitude":-4.08972},{"id":51389,"name":"Spittal","latitude":51.86889,"longitude":-4.9425},{"id":51448,"name":"Steynton","latitude":51.72917,"longitude":-5.01722},{"id":51532,"name":"Swansea","latitude":51.62079,"longitude":-3.94323},{"id":51546,"name":"Taibach","latitude":51.58333,"longitude":-3.76667},{"id":51549,"name":"Tal-y-bont","latitude":52.77471,"longitude":-4.09224},{"id":51550,"name":"Talgarth","latitude":51.99588,"longitude":-3.23205},{"id":51551,"name":"Talysarn","latitude":53.05365,"longitude":-4.25767},{"id":51573,"name":"Templeton","latitude":51.77194,"longitude":-4.73778},{"id":51576,"name":"Tenby","latitude":51.67279,"longitude":-4.70447},{"id":51611,"name":"Three Crosses","latitude":51.62865,"longitude":-4.06263},{"id":51629,"name":"Tintern","latitude":51.69677,"longitude":-2.68142},{"id":51641,"name":"Tonypandy","latitude":51.62202,"longitude":-3.45544},{"id":51642,"name":"Tonyrefail","latitude":51.58402,"longitude":-3.43041},{"id":51644,"name":"Torfaen County Borough","latitude":51.70146,"longitude":-3.05136},{"id":51660,"name":"Trawsfynydd","latitude":52.90212,"longitude":-3.92289},{"id":51661,"name":"Tredegar","latitude":51.77251,"longitude":-3.24679},{"id":51663,"name":"Trefnant","latitude":53.22526,"longitude":-3.4203},{"id":51664,"name":"Tregaron","latitude":52.2195,"longitude":-3.93295},{"id":51665,"name":"Tregarth","latitude":53.19012,"longitude":-4.0878},{"id":51666,"name":"Treharris","latitude":51.66457,"longitude":-3.30725},{"id":51667,"name":"Treorchy","latitude":51.65958,"longitude":-3.50587},{"id":51668,"name":"Treuddyn","latitude":53.1148,"longitude":-3.12003},{"id":51671,"name":"Trimsaran","latitude":51.71988,"longitude":-4.24168},{"id":51677,"name":"Tumble","latitude":51.78361,"longitude":-4.10972},{"id":51684,"name":"Tycroes","latitude":51.77806,"longitude":-4.02},{"id":51688,"name":"Tywyn","latitude":52.58578,"longitude":-4.09276},{"id":51696,"name":"Undy","latitude":51.57526,"longitude":-2.81453},{"id":51710,"name":"Usk","latitude":51.70347,"longitude":-2.90332},{"id":51712,"name":"Vale of Glamorgan","latitude":51.41667,"longitude":-3.41667},{"id":51714,"name":"Valley","latitude":53.2849,"longitude":-4.56644},{"id":51717,"name":"Victoria","latitude":51.75,"longitude":-3.2},{"id":51794,"name":"Welshpool","latitude":52.65973,"longitude":-3.1471},{"id":51803,"name":"Wenvoe","latitude":51.44776,"longitude":-3.26369},{"id":51877,"name":"Whitland","latitude":51.81889,"longitude":-4.61528},{"id":51888,"name":"Wick","latitude":51.43944,"longitude":-3.54944},{"id":51998,"name":"Wrexham","latitude":53.0,"longitude":-3.0},{"id":52008,"name":"Y Felinheli","latitude":53.18737,"longitude":-4.20476},{"id":52023,"name":"Ynysybwl","latitude":51.63922,"longitude":-3.36036},{"id":52027,"name":"Ystalyfera","latitude":51.76716,"longitude":-3.78082}]