[{"id":63403,"name":"Gōtsu Shi","latitude":34.98095,"longitude":132.29488},{"id":63404,"name":"Gōtsuchō","latitude":35.00856,"longitude":132.2257},{"id":63423,"name":"Hamada","latitude":34.88333,"longitude":132.08333},{"id":63424,"name":"Hamada Shi","latitude":34.82809,"longitude":132.13914},{"id":63494,"name":"Hiratachō","latitude":35.43333,"longitude":132.81667},{"id":63648,"name":"Izumo","latitude":35.36667,"longitude":132.76667},{"id":63649,"name":"Izumo Shi","latitude":35.33858,"longitude":132.73903},{"id":63927,"name":"Masuda","latitude":34.66667,"longitude":131.85},{"id":63928,"name":"Masuda Shi","latitude":34.62909,"longitude":131.9459},{"id":63933,"name":"Matsue","latitude":35.48333,"longitude":133.05},{"id":63934,"name":"Matsue Shi","latitude":35.47702,"longitude":133.05917},{"id":64717,"name":"Ōda Shi","latitude":35.13958,"longitude":132.48811},{"id":64718,"name":"Ōdachō-ōda","latitude":35.19025,"longitude":132.50846},{"id":64590,"name":"Unnan Shi","latitude":35.24918,"longitude":132.89478},{"id":64660,"name":"Yasugi Shi","latitude":35.3357,"longitude":133.19761},{"id":64661,"name":"Yasugichō","latitude":35.42146,"longitude":133.24224}]