[{"id":129917,"name":"Chortoq","latitude":41.06924,"longitude":71.82372},{"id":129918,"name":"Chust","latitude":41.00329,"longitude":71.23791},{"id":129933,"name":"Haqqulobod","latitude":40.91667,"longitude":72.11667},{"id":129952,"name":"Kosonsoy","latitude":41.24944,"longitude":71.54738},{"id":129960,"name":"Namangan","latitude":40.9983,"longitude":71.67257},{"id":129980,"name":"Pop","latitude":40.87361,"longitude":71.10889},{"id":130009,"name":"To‘rqao‘rg‘on","latitude":40.99984,"longitude":71.51162},{"id":130007,"name":"Toshbuloq","latitude":40.91617,"longitude":71.57819},{"id":130011,"name":"Uchqŭrghon Shahri","latitude":41.11371,"longitude":72.07915},{"id":130015,"name":"Uychi","latitude":41.08073,"longitude":71.92331},{"id":130021,"name":"Yangiqo‘rg‘on","latitude":41.19474,"longitude":71.72385}]