[{"id":107054,"name":"Acarlar","latitude":37.82444,"longitude":27.74667},{"id":107210,"name":"Atça","latitude":37.88859,"longitude":28.21528},{"id":107220,"name":"Aydın","latitude":37.84501,"longitude":27.83963},{"id":107381,"name":"Bozdoğan","latitude":37.67134,"longitude":28.31395},{"id":107402,"name":"Buharkent","latitude":37.96397,"longitude":28.7427},{"id":108834,"name":"Çine","latitude":37.61266,"longitude":28.05912},{"id":107441,"name":"Dalama","latitude":37.79028,"longitude":28.06639},{"id":107454,"name":"Davutlar","latitude":37.73392,"longitude":27.29283},{"id":107493,"name":"Didim","latitude":37.39305,"longitude":27.29357},{"id":107553,"name":"Efeler","latitude":37.83835,"longitude":27.84557},{"id":107668,"name":"Germencik","latitude":37.87056,"longitude":27.60283},{"id":108897,"name":"İncirliova","latitude":37.85222,"longitude":27.72361},{"id":108911,"name":"İsabeyli","latitude":37.90147,"longitude":28.26475},{"id":107893,"name":"Karacasu","latitude":37.74731,"longitude":28.59402},{"id":107929,"name":"Karpuzlu","latitude":37.55861,"longitude":27.83528},{"id":108036,"name":"Koçarlı","latitude":37.76113,"longitude":27.70583},{"id":108084,"name":"Köşk","latitude":37.85333,"longitude":28.05167},{"id":108067,"name":"Kuşadası","latitude":37.86014,"longitude":27.25713},{"id":108063,"name":"Kuyucak","latitude":37.9133,"longitude":28.45917},{"id":108243,"name":"Nazilli","latitude":37.9357,"longitude":28.30609},{"id":108404,"name":"Sarıkemer","latitude":37.56609,"longitude":27.3643},{"id":108515,"name":"Söke","latitude":37.7482,"longitude":27.40614},{"id":108497,"name":"Sultanhisar","latitude":37.88989,"longitude":28.15436},{"id":108567,"name":"Tepecik","latitude":37.82358,"longitude":27.87496},{"id":108704,"name":"Yenipazar","latitude":37.82332,"longitude":28.19573}]