[{"id":106881,"name":"Akdepe","latitude":42.05513,"longitude":59.37877},{"id":106890,"name":"Boldumsaz","latitude":42.12824,"longitude":59.67101},{"id":106891,"name":"Daşoguz","latitude":41.83625,"longitude":59.96661},{"id":106897,"name":"Köneürgench","latitude":42.32773,"longitude":59.15442},{"id":106904,"name":"Tagta","latitude":41.65041,"longitude":59.9164},{"id":106909,"name":"Yylanly","latitude":41.83333,"longitude":59.65}]