[{"id":76626,"name":"Arandis","latitude":-22.41667,"longitude":14.96667},{"id":76633,"name":"Hentiesbaai","latitude":-22.11667,"longitude":14.28333},{"id":76636,"name":"Karibib","latitude":-21.93333,"longitude":15.83333},{"id":76648,"name":"Omaruru","latitude":-21.43333,"longitude":15.93333},{"id":76659,"name":"Otjimbingwe","latitude":-22.35,"longitude":16.13333},{"id":76666,"name":"Swakopmund","latitude":-22.67842,"longitude":14.52663},{"id":76667,"name":"Swakopmund Constituency","latitude":-22.63199,"longitude":14.60119},{"id":76670,"name":"Usakos","latitude":-22.0,"longitude":15.6},{"id":76671,"name":"Walvis Bay","latitude":-22.9575,"longitude":14.50528}]