[{"id":102918,"name":"Ad Douiem","latitude":14.0012,"longitude":32.3116},{"id":102923,"name":"Al Kawa","latitude":13.7463,"longitude":32.4996},{"id":102930,"name":"Al Qiţena","latitude":14.8648,"longitude":32.3668},{"id":102959,"name":"Kosti","latitude":13.1629,"longitude":32.66347},{"id":102964,"name":"Marabba","latitude":12.35,"longitude":32.18333},{"id":102969,"name":"Rabak","latitude":13.18087,"longitude":32.73999},{"id":102975,"name":"Tandaltī","latitude":13.01667,"longitude":31.86667},{"id":102977,"name":"Um Jar Al Gharbiyya","latitude":13.8013,"longitude":32.4078},{"id":102982,"name":"Wad az Zāki","latitude":14.4619,"longitude":32.2065}]