[{"id":135246,"name":"Acate","latitude":37.02318,"longitude":14.49302},{"id":135256,"name":"Aci Bonaccorsi","latitude":37.5964,"longitude":15.10724},{"id":135257,"name":"Aci Castello","latitude":37.55564,"longitude":15.14535},{"id":135258,"name":"Aci Catena","latitude":37.60614,"longitude":15.14165},{"id":135259,"name":"Aci Sant'Antonio","latitude":37.60499,"longitude":15.12294},{"id":135260,"name":"Aci Trezza","latitude":37.56385,"longitude":15.16136},{"id":135262,"name":"Acireale","latitude":37.60886,"longitude":15.16577},{"id":135263,"name":"Acitrezza","latitude":37.5596,"longitude":15.1599},{"id":135279,"name":"Acquaviva Platani","latitude":37.57174,"longitude":13.70156},{"id":135282,"name":"Acquedolci","latitude":38.05708,"longitude":14.5855},{"id":135287,"name":"Adrano","latitude":37.66358,"longitude":14.83283},{"id":135300,"name":"Agira","latitude":37.6558,"longitude":14.51972},{"id":135302,"name":"Agliandroni-Paternella","latitude":38.1328,"longitude":13.06884},{"id":135318,"name":"Agrigento","latitude":37.45,"longitude":13.5},{"id":135324,"name":"Aidone","latitude":37.41468,"longitude":14.44542},{"id":135389,"name":"Alcamo","latitude":37.9779,"longitude":12.96473},{"id":135390,"name":"Alcara Li Fusi","latitude":38.02143,"longitude":14.70142},{"id":135396,"name":"Alessandria della Rocca","latitude":37.56767,"longitude":13.45343},{"id":135454,"name":"Alì","latitude":38.02678,"longitude":15.4191},{"id":135455,"name":"Alì Terme","latitude":38.00506,"longitude":15.42269},{"id":135406,"name":"Alia","latitude":37.77867,"longitude":13.71391},{"id":135412,"name":"Alimena","latitude":37.6931,"longitude":14.11369},{"id":135413,"name":"Aliminusa","latitude":37.86395,"longitude":13.78126},{"id":135433,"name":"Altavilla Milicia","latitude":38.038,"longitude":13.54947},{"id":135444,"name":"Altofonte","latitude":38.04298,"longitude":13.29434},{"id":135519,"name":"Antillo","latitude":37.97937,"longitude":15.24029},{"id":135550,"name":"Aragona","latitude":37.39904,"longitude":13.61974},{"id":135669,"name":"Assoro","latitude":37.6221,"longitude":14.4181},{"id":135685,"name":"Augusta","latitude":37.24065,"longitude":15.22121},{"id":135713,"name":"Avola","latitude":36.9084,"longitude":15.13937},{"id":135747,"name":"Bagheria","latitude":38.07892,"longitude":13.51237},{"id":135787,"name":"Balestrate","latitude":38.05125,"longitude":13.00724},{"id":135834,"name":"Barcellona Pozzo di Gotto","latitude":38.14772,"longitude":15.21469},{"id":135868,"name":"Barrafranca","latitude":37.3785,"longitude":14.2027},{"id":135885,"name":"Basicò","latitude":38.06077,"longitude":15.06263},{"id":135911,"name":"Baucina","latitude":37.92521,"longitude":13.53636},{"id":135953,"name":"Belmonte Mezzagno","latitude":38.04653,"longitude":13.39207},{"id":135957,"name":"Belpasso","latitude":37.59192,"longitude":14.97985},{"id":135960,"name":"Belvedere","latitude":37.08839,"longitude":15.21314},{"id":135966,"name":"Belvedere-Piano Tavola","latitude":37.52955,"longitude":14.98786},{"id":136028,"name":"Biancavilla","latitude":37.64442,"longitude":14.86685},{"id":136060,"name":"Bisacquino","latitude":37.70352,"longitude":13.26051},{"id":136075,"name":"Bivona","latitude":37.61797,"longitude":13.43895},{"id":136083,"name":"Blufi","latitude":37.75205,"longitude":14.07296},{"id":136110,"name":"Bolognetta","latitude":37.9712,"longitude":13.45627},{"id":136120,"name":"Bompensiere","latitude":37.4724,"longitude":13.7814},{"id":136121,"name":"Bompietro","latitude":37.74394,"longitude":14.0947},{"id":136157,"name":"Borgetto","latitude":38.04664,"longitude":13.14071},{"id":136349,"name":"Brolo","latitude":38.15623,"longitude":14.82799},{"id":136353,"name":"Bronte","latitude":37.78863,"longitude":14.83377},{"id":136361,"name":"Brucoli","latitude":37.28191,"longitude":15.18836},{"id":136384,"name":"Buccheri","latitude":37.12494,"longitude":14.85222},{"id":136412,"name":"Burgio","latitude":37.60094,"longitude":13.28826},{"id":136423,"name":"Buscemi","latitude":37.08604,"longitude":14.88499},{"id":136425,"name":"Buseto Palizzolo","latitude":38.00339,"longitude":12.70911},{"id":136436,"name":"Butera","latitude":37.191,"longitude":14.18232},{"id":136451,"name":"Caccamo","latitude":37.93357,"longitude":13.66808},{"id":136489,"name":"Calamonaci","latitude":37.52566,"longitude":13.29053},{"id":136493,"name":"Calascibetta","latitude":37.59024,"longitude":14.2718},{"id":136496,"name":"Calatabiano","latitude":37.82049,"longitude":15.23069},{"id":136497,"name":"Calatafimi","latitude":37.9144,"longitude":12.86364},{"id":136540,"name":"Caltabellotta","latitude":37.57543,"longitude":13.21632},{"id":136541,"name":"Caltagirone","latitude":37.23785,"longitude":14.51551},{"id":136543,"name":"Caltanissetta","latitude":37.49025,"longitude":14.06216},{"id":136544,"name":"Caltavuturo","latitude":37.8204,"longitude":13.89158},{"id":136571,"name":"Camastra","latitude":37.2538,"longitude":13.79211},{"id":136594,"name":"Cammarata","latitude":37.63361,"longitude":13.62722},{"id":136609,"name":"Campanella-Gianforma","latitude":36.9263,"longitude":14.8336},{"id":136639,"name":"Campobello di Licata","latitude":37.25759,"longitude":13.91811},{"id":136640,"name":"Campobello di Mazara","latitude":37.63464,"longitude":12.74946},{"id":136650,"name":"Campofelice di Fitalia","latitude":37.82686,"longitude":13.48572},{"id":136651,"name":"Campofelice di Roccella","latitude":37.9927,"longitude":13.87648},{"id":136654,"name":"Campofiorito","latitude":37.75374,"longitude":13.26875},{"id":136656,"name":"Campofranco","latitude":37.51208,"longitude":13.71213},{"id":136674,"name":"Camporeale","latitude":37.88612,"longitude":13.10107},{"id":136677,"name":"Camporotondo Etneo","latitude":37.56565,"longitude":15.00319},{"id":136690,"name":"Canalicchio","latitude":37.54097,"longitude":15.09645},{"id":136712,"name":"Canicattì","latitude":37.35842,"longitude":13.84786},{"id":136711,"name":"Canicattini Bagni","latitude":37.03171,"longitude":15.06388},{"id":136721,"name":"Canneto","latitude":38.49505,"longitude":14.96037},{"id":136725,"name":"Cannizzaro-Favara","latitude":38.06163,"longitude":13.27167},{"id":136758,"name":"Capaci","latitude":38.17107,"longitude":13.2393},{"id":136776,"name":"Capizzi","latitude":37.84788,"longitude":14.47976},{"id":136778,"name":"Capo d'Orlando","latitude":38.14262,"longitude":14.73292},{"id":136810,"name":"Capri Leone","latitude":38.08682,"longitude":14.72959},{"id":136880,"name":"Carini","latitude":38.1324,"longitude":13.18274},{"id":136886,"name":"Carlentini","latitude":37.28071,"longitude":15.0102},{"id":136900,"name":"Caronia","latitude":38.02381,"longitude":14.44142},{"id":136931,"name":"Carrozziere","latitude":37.0376,"longitude":15.27195},{"id":136932,"name":"Carruba","latitude":37.69062,"longitude":15.18815},{"id":136933,"name":"Carrubazza-Motta","latitude":37.55323,"longitude":15.10819},{"id":136950,"name":"Casa Santa","latitude":38.02514,"longitude":12.5484},{"id":137010,"name":"Casalvecchio Siculo","latitude":37.9585,"longitude":15.32371},{"id":137102,"name":"Cassaro","latitude":37.10571,"longitude":14.94697},{"id":137103,"name":"Cassibile","latitude":36.97862,"longitude":15.20061},{"id":137125,"name":"Castanea delle Furie","latitude":38.26165,"longitude":15.52178},{"id":137170,"name":"Castel di Judica","latitude":37.49475,"longitude":14.64744},{"id":137172,"name":"Castel di Lucio","latitude":37.88698,"longitude":14.31116},{"id":137183,"name":"Castelbuono","latitude":37.9253,"longitude":14.08665},{"id":137188,"name":"Casteldaccia","latitude":38.05121,"longitude":13.53041},{"id":137209,"name":"Castell'Umberto","latitude":38.08626,"longitude":14.80686},{"id":137212,"name":"Castellammare del Golfo","latitude":38.02653,"longitude":12.88183},{"id":137216,"name":"Castellana Sicula","latitude":37.78686,"longitude":14.03906},{"id":137268,"name":"Castelluzzo","latitude":38.10096,"longitude":12.73599},{"id":137275,"name":"Castelmola","latitude":37.85829,"longitude":15.27713},{"id":137318,"name":"Casteltermini","latitude":37.53874,"longitude":13.64601},{"id":137329,"name":"Castelvetrano","latitude":37.68081,"longitude":12.79194},{"id":137357,"name":"Castiglione di Sicilia","latitude":37.8815,"longitude":15.12156},{"id":137380,"name":"Castrofilippo","latitude":37.35046,"longitude":13.75001},{"id":137385,"name":"Castronuovo di Sicilia","latitude":37.67894,"longitude":13.60346},{"id":137387,"name":"Castroreale","latitude":38.09857,"longitude":15.21012},{"id":137391,"name":"Catania","latitude":37.47169,"longitude":14.84731},{"id":137394,"name":"Catenanuova","latitude":37.56876,"longitude":14.69076},{"id":137397,"name":"Cattolica Eraclea","latitude":37.44069,"longitude":13.39265},{"id":137403,"name":"Cava d'Aliga","latitude":36.72964,"longitude":14.69031},{"id":137458,"name":"Cefalà Diana","latitude":37.91565,"longitude":13.46325},{"id":137459,"name":"Cefalù","latitude":38.03856,"longitude":14.02285},{"id":137504,"name":"Centuripe","latitude":37.62336,"longitude":14.74049},{"id":137511,"name":"Cerami","latitude":37.80953,"longitude":14.5066},{"id":137529,"name":"Cerda","latitude":37.90578,"longitude":13.81496},{"id":137598,"name":"Cerza","latitude":37.54297,"longitude":15.1051},{"id":137609,"name":"Cesarò","latitude":37.84476,"longitude":14.71308},{"id":137643,"name":"Chianchitta-Pallio","latitude":37.82108,"longitude":15.25317},{"id":137644,"name":"Chianchitta-Trappitello","latitude":37.82984,"longitude":15.25077},{"id":137648,"name":"Chiaramonte Gulfi","latitude":37.0305,"longitude":14.70302},{"id":137687,"name":"Chiusa Sclafani","latitude":37.67692,"longitude":13.27074},{"id":137700,"name":"Ciaculli","latitude":38.0753,"longitude":13.40719},{"id":137702,"name":"Cianciana","latitude":37.51896,"longitude":13.43349},{"id":137705,"name":"Ciavolo","latitude":37.77943,"longitude":12.53774},{"id":137724,"name":"Ciminna","latitude":37.89765,"longitude":13.55966},{"id":137735,"name":"Cinisi","latitude":38.16082,"longitude":13.10099},{"id":137771,"name":"Città Giardino","latitude":37.10444,"longitude":15.21172},{"id":137894,"name":"Collesano","latitude":37.91809,"longitude":13.93702},{"id":137942,"name":"Comiso","latitude":36.94893,"longitude":14.60731},{"id":137943,"name":"Comitini","latitude":37.40735,"longitude":13.6453},{"id":137965,"name":"Condrò","latitude":38.17375,"longitude":15.3266},{"id":137977,"name":"Contessa Entellina","latitude":37.73005,"longitude":13.18425},{"id":138017,"name":"Corleone","latitude":37.81338,"longitude":13.3017},{"id":138216,"name":"Custonaci","latitude":38.07931,"longitude":12.68571},{"id":138242,"name":"Delia","latitude":37.35796,"longitude":13.92867},{"id":138300,"name":"Donnalucata","latitude":36.76117,"longitude":14.64022},{"id":138360,"name":"Enna","latitude":37.58333,"longitude":14.43333},{"id":138374,"name":"Erice","latitude":38.03785,"longitude":12.58778},{"id":138389,"name":"Evangelisti-Rubino","latitude":37.98412,"longitude":15.17324},{"id":138417,"name":"Falcone","latitude":38.11698,"longitude":15.07965},{"id":138450,"name":"Faro Superiore","latitude":38.26794,"longitude":15.58268},{"id":138459,"name":"Favara","latitude":37.31754,"longitude":13.66226},{"id":138462,"name":"Favignana","latitude":37.92951,"longitude":12.32958},{"id":138481,"name":"Ferla","latitude":37.11978,"longitude":14.93881},{"id":138503,"name":"Ficarazzi","latitude":38.09229,"longitude":13.4639},{"id":138505,"name":"Ficarra","latitude":38.10849,"longitude":14.8299},{"id":138534,"name":"Finale","latitude":38.01891,"longitude":14.16151},{"id":138551,"name":"Fiumedinisi","latitude":38.02596,"longitude":15.38099},{"id":138553,"name":"Fiumefreddo Sicilia","latitude":37.79146,"longitude":15.20919},{"id":138564,"name":"Floresta","latitude":37.98779,"longitude":14.91096},{"id":138565,"name":"Floridia","latitude":37.08343,"longitude":15.15332},{"id":138587,"name":"Fondachelli-Fantina","latitude":37.98476,"longitude":15.17519},{"id":138664,"name":"Forza d'Agrò","latitude":37.91539,"longitude":15.33409},{"id":138698,"name":"Francavilla di Sicilia","latitude":37.90197,"longitude":15.13821},{"id":138703,"name":"Francofonte","latitude":37.22477,"longitude":14.87488},{"id":138727,"name":"Frazzanò","latitude":38.07202,"longitude":14.74407},{"id":138748,"name":"Fulgatore-Torretta","latitude":37.94977,"longitude":12.69303},{"id":138756,"name":"Furci Siculo","latitude":37.96159,"longitude":15.37763},{"id":138757,"name":"Furnari","latitude":38.10436,"longitude":15.12358},{"id":138775,"name":"Gaggi","latitude":37.85995,"longitude":15.22126},{"id":138782,"name":"Gagliano Castelferrato","latitude":37.70967,"longitude":14.53524},{"id":138794,"name":"Galati Mamertino","latitude":38.03176,"longitude":14.77145},{"id":138819,"name":"Gallodoro","latitude":37.90206,"longitude":15.29359},{"id":138840,"name":"Gangi","latitude":37.79565,"longitude":14.20437},{"id":138889,"name":"Gela","latitude":37.07381,"longitude":14.24038},{"id":138908,"name":"Geraci Siculo","latitude":37.85901,"longitude":14.15333},{"id":138937,"name":"Giacalone","latitude":38.03276,"longitude":13.23695},{"id":138940,"name":"Giammoro","latitude":38.20372,"longitude":15.30666},{"id":138944,"name":"Giardina Gallotti","latitude":37.35073,"longitude":13.52272},{"id":138945,"name":"Giardinello","latitude":38.08706,"longitude":13.15648},{"id":138946,"name":"Giardini-Naxos","latitude":37.82755,"longitude":15.26713},{"id":138948,"name":"Giarratana","latitude":37.04741,"longitude":14.79454},{"id":138949,"name":"Giarre","latitude":37.7244,"longitude":15.18165},{"id":138973,"name":"Gioiosa Marea","latitude":38.17373,"longitude":14.89932},{"id":138989,"name":"Giuliana","latitude":37.6728,"longitude":13.23737},{"id":139004,"name":"Gliaca","latitude":38.16317,"longitude":14.84768},{"id":139010,"name":"Godrano","latitude":37.9031,"longitude":13.42823},{"id":139058,"name":"Grammichele","latitude":37.21326,"longitude":14.63311},{"id":139066,"name":"Graniti","latitude":37.88986,"longitude":15.22459},{"id":139076,"name":"Gratteri","latitude":37.96607,"longitude":13.97314},{"id":139082,"name":"Gravina di Catania","latitude":37.56085,"longitude":15.06292},{"id":139125,"name":"Grotte","latitude":37.40346,"longitude":13.69889},{"id":139149,"name":"Gualtieri Sicaminò","latitude":38.16267,"longitude":15.31699},{"id":139177,"name":"Guidomandri Marina","latitude":38.04528,"longitude":15.46303},{"id":139235,"name":"Isnello","latitude":37.94324,"longitude":14.00724},{"id":139249,"name":"Isola delle Femmine","latitude":38.19123,"longitude":13.24691},{"id":139259,"name":"Ispica","latitude":36.78622,"longitude":14.9053},{"id":139267,"name":"Itala","latitude":38.05144,"longitude":15.43706},{"id":139282,"name":"Joppolo Giancaxio","latitude":37.38681,"longitude":13.55586},{"id":139284,"name":"Kamma","latitude":36.79701,"longitude":12.03617},{"id":139349,"name":"Lampedusa","latitude":35.50142,"longitude":12.60964},{"id":139372,"name":"Larderia","latitude":38.14101,"longitude":15.50287},{"id":139379,"name":"Lascari","latitude":38.00067,"longitude":13.94053},{"id":139416,"name":"Lavinaio-Monterosso","latitude":37.64097,"longitude":15.10462},{"id":139444,"name":"Leni","latitude":38.55534,"longitude":14.82497},{"id":139454,"name":"Lentini","latitude":37.28556,"longitude":14.99737},{"id":139457,"name":"Leonforte","latitude":37.64197,"longitude":14.39766},{"id":139463,"name":"Lercara Friddi","latitude":37.74657,"longitude":13.60391},{"id":139477,"name":"Letojanni","latitude":37.8805,"longitude":15.30735},{"id":139493,"name":"Librizzi","latitude":38.09719,"longitude":14.95909},{"id":139494,"name":"Licata","latitude":37.10267,"longitude":13.93972},{"id":139498,"name":"Licodia Eubea","latitude":37.15674,"longitude":14.70555},{"id":139522,"name":"Limina","latitude":37.94076,"longitude":15.27119},{"id":139530,"name":"Linera","latitude":37.6638,"longitude":15.13653},{"id":139531,"name":"Linguaglossa","latitude":37.84243,"longitude":15.13774},{"id":139533,"name":"Lipari","latitude":38.46743,"longitude":14.95398},{"id":139595,"name":"Longi","latitude":38.02617,"longitude":14.75306},{"id":139630,"name":"Lucca Sicula","latitude":37.57783,"longitude":13.30579},{"id":139763,"name":"Maletto","latitude":37.82914,"longitude":14.86403},{"id":139764,"name":"Malfa","latitude":38.5773,"longitude":14.83598},{"id":139776,"name":"Malvagna","latitude":37.91752,"longitude":15.05548},{"id":139783,"name":"Mandanici","latitude":38.00356,"longitude":15.31669},{"id":139799,"name":"Maniace","latitude":37.88306,"longitude":14.79808},{"id":139833,"name":"Marausa","latitude":37.94166,"longitude":12.50948},{"id":139869,"name":"Marianopoli","latitude":37.5984,"longitude":13.9152},{"id":139880,"name":"Marina di Caronia","latitude":38.03545,"longitude":14.44182},{"id":139893,"name":"Marina di Ragusa","latitude":36.78575,"longitude":14.55474},{"id":139898,"name":"Marinella","latitude":37.59475,"longitude":12.84434},{"id":139899,"name":"Marineo","latitude":37.95185,"longitude":13.41781},{"id":139919,"name":"Marsala","latitude":37.7992,"longitude":12.4367},{"id":139952,"name":"Mascali","latitude":37.75794,"longitude":15.19662},{"id":139953,"name":"Mascalucia","latitude":37.57465,"longitude":15.04964},{"id":140002,"name":"Maugeri","latitude":37.58608,"longitude":15.11785},{"id":140004,"name":"Mazara del Vallo","latitude":37.65535,"longitude":12.58986},{"id":140003,"name":"Mazara II","latitude":37.68146,"longitude":12.60074},{"id":140007,"name":"Mazzarino","latitude":37.30188,"longitude":14.20959},{"id":140009,"name":"Mazzarrà Sant'Andrea","latitude":38.08969,"longitude":15.13535},{"id":140008,"name":"Mazzarrone","latitude":37.08834,"longitude":14.56128},{"id":140044,"name":"Melia","latitude":37.90384,"longitude":15.27499},{"id":140047,"name":"Melilli","latitude":37.17821,"longitude":15.1302},{"id":140064,"name":"Menfi","latitude":37.60409,"longitude":12.96889},{"id":140090,"name":"Merì","latitude":38.1663,"longitude":15.2497},{"id":140098,"name":"Messina","latitude":38.05,"longitude":14.86667},{"id":140120,"name":"Mezzojuso","latitude":37.86509,"longitude":13.46509},{"id":140145,"name":"Milazzo","latitude":38.22008,"longitude":15.24023},{"id":140146,"name":"Milena","latitude":37.47133,"longitude":13.73613},{"id":140150,"name":"Militello in Val di Catania","latitude":37.27594,"longitude":14.79342},{"id":140149,"name":"Militello Rosmarino","latitude":38.04575,"longitude":14.67584},{"id":140153,"name":"Milo","latitude":37.7245,"longitude":15.11554},{"id":140156,"name":"Mineo","latitude":37.26494,"longitude":14.69381},{"id":140168,"name":"Mirabella Imbaccari","latitude":37.32702,"longitude":14.44605},{"id":140177,"name":"Mirto","latitude":38.08439,"longitude":14.74609},{"id":140180,"name":"Misilmeri","latitude":38.03183,"longitude":13.44795},{"id":140184,"name":"Misterbianco","latitude":37.51803,"longitude":15.00913},{"id":140185,"name":"Mistretta","latitude":37.92823,"longitude":14.3578},{"id":140189,"name":"Modica","latitude":36.85868,"longitude":14.75966},{"id":140205,"name":"Moio Alcantara","latitude":37.90056,"longitude":15.05072},{"id":140280,"name":"Monforte San Giorgio","latitude":38.15733,"longitude":15.38132},{"id":140287,"name":"Mongiuffi Melia","latitude":37.90336,"longitude":15.27539},{"id":140297,"name":"Monreale","latitude":38.08125,"longitude":13.28947},{"id":140311,"name":"Montagnareale","latitude":38.13216,"longitude":14.94658},{"id":140317,"name":"Montalbano Elicona","latitude":38.0236,"longitude":15.01393},{"id":140329,"name":"Montallegro","latitude":37.39121,"longitude":13.35179},{"id":140428,"name":"Montedoro","latitude":37.45431,"longitude":13.81684},{"id":140473,"name":"Montelepre","latitude":38.09026,"longitude":13.17518},{"id":140483,"name":"Montemaggiore Belsito","latitude":37.84818,"longitude":13.76206},{"id":140522,"name":"Monterosso Almo","latitude":37.08884,"longitude":14.76498},{"id":140546,"name":"Montevago","latitude":37.70224,"longitude":12.98584},{"id":140657,"name":"Motta Camastra","latitude":37.89431,"longitude":15.17008},{"id":140664,"name":"Motta d'Affermo","latitude":37.98096,"longitude":14.30337},{"id":140661,"name":"Motta Sant'Anastasia","latitude":37.51205,"longitude":14.96628},{"id":140704,"name":"Mussomeli","latitude":37.58067,"longitude":13.75214},{"id":140721,"name":"Naro","latitude":37.29248,"longitude":13.79337},{"id":140724,"name":"Naso","latitude":38.12215,"longitude":14.78702},{"id":140763,"name":"Nicolosi","latitude":37.62148,"longitude":15.02785},{"id":140765,"name":"Nicosia","latitude":37.74747,"longitude":14.39218},{"id":140771,"name":"Niscemi","latitude":37.14649,"longitude":14.39381},{"id":140772,"name":"Nissoria","latitude":37.6541,"longitude":14.4481},{"id":140775,"name":"Nizza di Sicilia","latitude":37.99081,"longitude":15.40956},{"id":140812,"name":"Noto","latitude":36.89244,"longitude":15.06977},{"id":140823,"name":"Novara di Sicilia","latitude":38.01538,"longitude":15.13134},{"id":140848,"name":"Nunziata","latitude":37.75858,"longitude":15.17058},{"id":140851,"name":"Nuova Gibellina","latitude":37.80704,"longitude":12.86954},{"id":140852,"name":"Nuovo Centro Urbano Poggioreale","latitude":37.76404,"longitude":13.03594},{"id":140900,"name":"Oliveri","latitude":38.12515,"longitude":15.06068},{"id":141068,"name":"Pace del Mela","latitude":38.17997,"longitude":15.30629},{"id":141069,"name":"Paceco","latitude":37.98026,"longitude":12.55766},{"id":141071,"name":"Pachino","latitude":36.71522,"longitude":15.09019},{"id":58204,"name":"Pagliara","latitude":37.98546,"longitude":15.35969},{"id":58221,"name":"Palagonia","latitude":37.32955,"longitude":14.74474},{"id":58228,"name":"Palazzo Adriano","latitude":37.68066,"longitude":13.37941},{"id":58232,"name":"Palazzolo","latitude":37.56224,"longitude":14.92987},{"id":58233,"name":"Palazzolo Acreide","latitude":37.06261,"longitude":14.90593},{"id":58240,"name":"Palermo","latitude":37.81667,"longitude":13.58333},{"id":58254,"name":"Palma di Montechiaro","latitude":37.19066,"longitude":13.76603},{"id":58284,"name":"Pantelleria","latitude":36.82836,"longitude":11.94611},{"id":58316,"name":"Partanna","latitude":37.7268,"longitude":12.88917},{"id":58317,"name":"Partinico","latitude":38.04657,"longitude":13.11785},{"id":58338,"name":"Pasteria-Lapide","latitude":37.81012,"longitude":15.22818},{"id":58346,"name":"Paternò","latitude":37.56675,"longitude":14.90254},{"id":58350,"name":"Patti","latitude":38.14736,"longitude":14.96409},{"id":58373,"name":"Pedagaggi","latitude":37.19182,"longitude":14.93654},{"id":58374,"name":"Pedalino","latitude":37.0232,"longitude":14.58116},{"id":58375,"name":"Pedara","latitude":37.62386,"longitude":15.05672},{"id":58409,"name":"Pennisi","latitude":37.64945,"longitude":15.12385},{"id":58477,"name":"Petralia Soprana","latitude":37.80064,"longitude":14.10813},{"id":58478,"name":"Petralia Sottana","latitude":37.80919,"longitude":14.09293},{"id":58487,"name":"Petrosino","latitude":37.71271,"longitude":12.49964},{"id":58491,"name":"Pettineo","latitude":37.96793,"longitude":14.29118},{"id":58514,"name":"Piana degli Albanesi","latitude":37.99372,"longitude":13.28464},{"id":58540,"name":"Piano dei Geli","latitude":38.09919,"longitude":13.27478},{"id":58539,"name":"Piano Maglio-Blandino","latitude":38.05793,"longitude":13.30909},{"id":58547,"name":"Pianoconte","latitude":38.47432,"longitude":14.92857},{"id":58565,"name":"Piazza Armerina","latitude":37.38417,"longitude":14.36921},{"id":58589,"name":"Piedimonte Etneo","latitude":37.80677,"longitude":15.17516},{"id":58622,"name":"Pietraperzia","latitude":37.41852,"longitude":14.13739},{"id":58692,"name":"Pioppo","latitude":38.05,"longitude":13.23333},{"id":58701,"name":"Piraino","latitude":38.16127,"longitude":14.861},{"id":58794,"name":"Polizzi Generosa","latitude":37.81159,"longitude":14.00268},{"id":58800,"name":"Pollina","latitude":37.99309,"longitude":14.14586},{"id":58916,"name":"Portella di Mare","latitude":38.07304,"longitude":13.46199},{"id":58928,"name":"Porto Empedocle","latitude":37.28942,"longitude":13.52494},{"id":58948,"name":"Portopalo di Capo Passero","latitude":36.68219,"longitude":15.13378},{"id":58979,"name":"Pozzallo","latitude":36.73028,"longitude":14.84672},{"id":59081,"name":"Priolo Gargallo","latitude":37.15512,"longitude":15.18248},{"id":59084,"name":"Prizzi","latitude":37.72088,"longitude":13.43435},{"id":59120,"name":"Provincia di Caltanissetta","latitude":37.37448,"longitude":14.06421},{"id":59176,"name":"Provincia di Siracusa","latitude":37.08805,"longitude":15.27924},{"id":59256,"name":"Racalmuto","latitude":37.40498,"longitude":13.72995},{"id":59258,"name":"Raccuja","latitude":38.05583,"longitude":14.91044},{"id":59262,"name":"Raddusa","latitude":37.47529,"longitude":14.53521},{"id":59266,"name":"Raffadali","latitude":37.40214,"longitude":13.53175},{"id":59267,"name":"Ragalna","latitude":37.63455,"longitude":14.94698},{"id":59269,"name":"Ragusa","latitude":36.91667,"longitude":14.6},{"id":59272,"name":"Ramacca","latitude":37.38616,"longitude":14.69241},{"id":59280,"name":"Randazzo","latitude":37.87736,"longitude":14.95012},{"id":59295,"name":"Ravanusa","latitude":37.26659,"longitude":13.96834},{"id":59305,"name":"Realmonte","latitude":37.30847,"longitude":13.46429},{"id":59318,"name":"Regalbuto","latitude":37.65195,"longitude":14.63915},{"id":59326,"name":"Reitano","latitude":37.97198,"longitude":14.34418},{"id":59337,"name":"Resuttano","latitude":37.67865,"longitude":14.02946},{"id":59359,"name":"Ribera","latitude":37.49773,"longitude":13.26676},{"id":59373,"name":"Riesi","latitude":37.28079,"longitude":14.08317},{"id":59381,"name":"Rilievo","latitude":37.91638,"longitude":12.54058},{"id":59412,"name":"Riposto","latitude":37.73183,"longitude":15.20576},{"id":59485,"name":"Rocca di Capri Leone","latitude":38.10677,"longitude":14.71032},{"id":59496,"name":"Roccafiorita","latitude":37.93086,"longitude":15.26739},{"id":59506,"name":"Roccalumera","latitude":37.97554,"longitude":15.39439},{"id":59508,"name":"Roccamena","latitude":37.83824,"longitude":13.15513},{"id":59513,"name":"Roccapalumba","latitude":37.80825,"longitude":13.63671},{"id":59526,"name":"Roccavaldina","latitude":38.18296,"longitude":15.37402},{"id":59533,"name":"Roccella Valdemone","latitude":37.93289,"longitude":15.00997},{"id":59555,"name":"Rodì","latitude":38.10823,"longitude":15.16933},{"id":59585,"name":"Rometta","latitude":38.17007,"longitude":15.41429},{"id":59586,"name":"Rometta Marea","latitude":38.23264,"longitude":15.40955},{"id":59643,"name":"Rosolini","latitude":36.82145,"longitude":14.95132},{"id":59747,"name":"Salaparuta","latitude":37.75694,"longitude":13.00981},{"id":59758,"name":"Salemi","latitude":37.82199,"longitude":12.80506},{"id":59805,"name":"Sambuca di Sicilia","latitude":37.65294,"longitude":13.11462},{"id":59841,"name":"San Biagio Platani","latitude":37.50927,"longitude":13.52844},{"id":59862,"name":"San Cataldo","latitude":37.48412,"longitude":13.98542},{"id":59868,"name":"San Cipirello","latitude":37.96067,"longitude":13.17732},{"id":59873,"name":"San Ciro-Ulmi-Filci","latitude":37.83328,"longitude":12.78229},{"id":59878,"name":"San Cono","latitude":37.28992,"longitude":14.36709},{"id":59919,"name":"San Filippo del Mela","latitude":38.17007,"longitude":15.27338},{"id":59928,"name":"San Fratello","latitude":38.01556,"longitude":14.59818},{"id":59951,"name":"San Giorgio","latitude":38.16834,"longitude":14.94825},{"id":59979,"name":"San Giovanni","latitude":37.73538,"longitude":15.15887},{"id":59983,"name":"San Giovanni Gemini","latitude":37.62785,"longitude":13.64357},{"id":60001,"name":"San Giovanni la Punta","latitude":37.5769,"longitude":15.09371},{"id":60012,"name":"San Giuseppe Jato","latitude":37.97331,"longitude":13.18889},{"id":60024,"name":"San Gregorio di Catania","latitude":37.56764,"longitude":15.1112},{"id":60032,"name":"San Leone Mosè","latitude":37.26497,"longitude":13.58434},{"id":60063,"name":"San Marco d'Alunzio","latitude":38.07261,"longitude":14.70093},{"id":60105,"name":"San Mauro Castelverde","latitude":37.91478,"longitude":14.18961},{"id":60123,"name":"San Michele di Ganzaria","latitude":37.28042,"longitude":14.42633},{"id":60164,"name":"San Pier Niceto","latitude":38.1605,"longitude":15.34982},{"id":60167,"name":"San Piero Patti","latitude":38.05214,"longitude":14.96816},{"id":60177,"name":"San Pietro Clarenza","latitude":37.56885,"longitude":15.02289},{"id":60233,"name":"San Salvatore di Fitalia","latitude":38.06841,"longitude":14.77799},{"id":60252,"name":"San Teodoro","latitude":37.84797,"longitude":14.69878},{"id":60276,"name":"San Vito Lo Capo","latitude":38.17395,"longitude":12.73599},{"id":60323,"name":"Sant'Agata di Militello","latitude":38.06838,"longitude":14.636},{"id":60318,"name":"Sant'Agata Li Battiati","latitude":37.55745,"longitude":15.07999},{"id":60334,"name":"Sant'Alessio Siculo","latitude":37.92516,"longitude":15.34968},{"id":60336,"name":"Sant'Alfio","latitude":37.74393,"longitude":15.13952},{"id":60365,"name":"Sant'Angelo di Brolo","latitude":38.11518,"longitude":14.88403},{"id":60360,"name":"Sant'Angelo Muxaro","latitude":37.48014,"longitude":13.54554},{"id":60415,"name":"Santa Caterina Villarmosa","latitude":37.59034,"longitude":14.03554},{"id":60422,"name":"Santa Cristina Gela","latitude":37.98514,"longitude":13.32747},{"id":60426,"name":"Santa Croce Camerina","latitude":36.82842,"longitude":14.52538},{"id":60433,"name":"Santa Domenica Vittoria","latitude":37.91624,"longitude":14.96288},{"id":60434,"name":"Santa Elisabetta","latitude":37.43171,"longitude":13.55386},{"id":60437,"name":"Santa Flavia","latitude":38.10448,"longitude":13.5334},{"id":60447,"name":"Santa Lucia del Mela","latitude":38.14408,"longitude":15.28055},{"id":60453,"name":"Santa Margherita di Belice","latitude":37.69281,"longitude":13.01584},{"id":60476,"name":"Santa Maria di Licodia","latitude":37.61684,"longitude":14.89337},{"id":60481,"name":"Santa Maria la Stella","latitude":37.62349,"longitude":15.12071},{"id":60483,"name":"Santa Marina Salina","latitude":38.56117,"longitude":14.87077},{"id":60487,"name":"Santa Ninfa","latitude":37.77042,"longitude":12.87744},{"id":60496,"name":"Santa Teresa di Riva","latitude":37.94635,"longitude":15.36671},{"id":60498,"name":"Santa Venerina","latitude":37.69103,"longitude":15.1388},{"id":60521,"name":"Santo Stefano di Camastra","latitude":38.01295,"longitude":14.35142},{"id":60514,"name":"Santo Stefano Quisquina","latitude":37.62606,"longitude":13.48976},{"id":60535,"name":"Saponara","latitude":38.19241,"longitude":15.43442},{"id":60536,"name":"Saponara Marittima","latitude":38.23121,"longitude":15.42621},{"id":60564,"name":"Sasi","latitude":37.90217,"longitude":12.88788},{"id":60595,"name":"Savoca","latitude":37.95326,"longitude":15.34009},{"id":60609,"name":"Scaletta Zanclea","latitude":38.04796,"longitude":15.46769},{"id":60649,"name":"Sciacca","latitude":37.50693,"longitude":13.08399},{"id":60650,"name":"Sciara","latitude":37.91511,"longitude":13.76177},{"id":60653,"name":"Scicli","latitude":36.79014,"longitude":14.7028},{"id":60656,"name":"Scillato","latitude":37.85778,"longitude":13.90632},{"id":60659,"name":"Sclafani Bagni","latitude":37.82175,"longitude":13.85476},{"id":60660,"name":"Scoglitti","latitude":36.89424,"longitude":14.43355},{"id":60666,"name":"Scordia","latitude":37.29548,"longitude":14.84058},{"id":60759,"name":"Serradifalco","latitude":37.45384,"longitude":13.88046},{"id":60826,"name":"Sfaranda","latitude":38.05815,"longitude":14.83147},{"id":60827,"name":"Sferracavallo","latitude":38.2,"longitude":13.28333},{"id":60840,"name":"Siculiana","latitude":37.33515,"longitude":13.42432},{"id":60862,"name":"Sinagra","latitude":38.08191,"longitude":14.85009},{"id":60871,"name":"Siracusa","latitude":37.07542,"longitude":15.28664},{"id":60903,"name":"Solarino","latitude":37.10136,"longitude":15.11988},{"id":60933,"name":"Sommatino","latitude":37.33471,"longitude":13.99739},{"id":60968,"name":"Sortino","latitude":37.15881,"longitude":15.02998},{"id":60988,"name":"Spadafora","latitude":38.22349,"longitude":15.38178},{"id":60992,"name":"Sparta'","latitude":38.29371,"longitude":15.53503},{"id":60997,"name":"Sperlinga","latitude":37.76653,"longitude":14.35075},{"id":61132,"name":"Sutera","latitude":37.52493,"longitude":13.73274},{"id":61161,"name":"Taormina","latitude":37.85358,"longitude":15.28851},{"id":61226,"name":"Terme","latitude":38.13586,"longitude":15.15658},{"id":61228,"name":"Termini Imerese","latitude":37.98225,"longitude":13.69729},{"id":61245,"name":"Terrasini","latitude":38.14621,"longitude":13.08319},{"id":61312,"name":"Tonnara di Bonagia","latitude":38.06309,"longitude":12.59434},{"id":61313,"name":"Tonnarella","latitude":38.12539,"longitude":15.11348},{"id":61354,"name":"Torre Colonna-Sperone","latitude":38.02986,"longitude":13.57377},{"id":61383,"name":"Torregrotta","latitude":38.20262,"longitude":15.3501},{"id":61386,"name":"Torrenova","latitude":38.09246,"longitude":14.67917},{"id":61389,"name":"Torretta","latitude":38.13036,"longitude":13.23549},{"id":61418,"name":"Tortorici","latitude":38.02973,"longitude":14.82212},{"id":61427,"name":"Trabia","latitude":38.0042,"longitude":13.63393},{"id":61440,"name":"Trapani","latitude":37.83333,"longitude":12.66667},{"id":61441,"name":"Trappeto","latitude":38.06875,"longitude":13.03794},{"id":61457,"name":"Tre Fontane","latitude":37.56989,"longitude":12.72423},{"id":61465,"name":"Trecastagni","latitude":37.61543,"longitude":15.07796},{"id":61478,"name":"Tremestieri Etneo","latitude":37.56494,"longitude":15.07863},{"id":61534,"name":"Tripi","latitude":38.04673,"longitude":15.0967},{"id":61535,"name":"Triscina","latitude":37.58717,"longitude":12.78912},{"id":61550,"name":"Troina","latitude":37.78437,"longitude":14.59605},{"id":61580,"name":"Tusa","latitude":37.98385,"longitude":14.23606},{"id":61586,"name":"Ucria","latitude":38.04624,"longitude":14.88087},{"id":61619,"name":"Ustica","latitude":38.70985,"longitude":13.19293},{"id":61653,"name":"Valderice","latitude":38.04005,"longitude":12.61505},{"id":61655,"name":"Valdina","latitude":38.19351,"longitude":15.3698},{"id":61678,"name":"Valguarnera Caropepe","latitude":37.49527,"longitude":14.39025},{"id":61705,"name":"Valledolmo","latitude":37.74703,"longitude":13.82811},{"id":61710,"name":"Vallelunga Pratameno","latitude":37.68205,"longitude":13.83156},{"id":61747,"name":"Valverde","latitude":37.57695,"longitude":15.12419},{"id":61750,"name":"Vambolieri","latitude":37.57417,"longitude":15.16019},{"id":61818,"name":"Venetico Marina","latitude":38.21928,"longitude":15.36648},{"id":61819,"name":"Venetico Superiore","latitude":38.19307,"longitude":15.38119},{"id":61826,"name":"Ventimiglia di Sicilia","latitude":37.92361,"longitude":13.56768},{"id":61901,"name":"Viagrande","latitude":37.61032,"longitude":15.09794},{"id":61911,"name":"Vicari","latitude":37.82371,"longitude":13.56889},{"id":61954,"name":"Vigliatore 2","latitude":38.12221,"longitude":15.13066},{"id":61993,"name":"Villa Ciambra","latitude":38.06129,"longitude":13.32},{"id":62047,"name":"Villabate","latitude":38.07789,"longitude":13.44275},{"id":62058,"name":"Villafranca Sicula","latitude":37.58761,"longitude":13.29048},{"id":62059,"name":"Villafranca Tirrena","latitude":38.23952,"longitude":15.43885},{"id":62063,"name":"Villafrati","latitude":37.90646,"longitude":13.48486},{"id":62068,"name":"Villaggio del Pino-Le Ginestre","latitude":37.58292,"longitude":15.00377},{"id":62076,"name":"Villalba","latitude":37.65457,"longitude":13.84452},{"id":62131,"name":"Villarosa","latitude":37.58753,"longitude":14.17089},{"id":62135,"name":"Villaseta","latitude":37.29877,"longitude":13.55919},{"id":62137,"name":"Villasmundo","latitude":37.25132,"longitude":15.09087},{"id":62178,"name":"Vita","latitude":37.86886,"longitude":12.82755},{"id":62184,"name":"Vittoria","latitude":36.95151,"longitude":14.52788},{"id":62193,"name":"Vizzini","latitude":37.16188,"longitude":14.75712},{"id":62229,"name":"Zafferana Etnea","latitude":37.67895,"longitude":15.10432}]