[{"id":107068,"name":"Afyonkarahisar","latitude":38.75667,"longitude":30.54333},{"id":107318,"name":"Başmakçı","latitude":37.89722,"longitude":30.01167},{"id":107293,"name":"Bayat","latitude":38.98306,"longitude":30.92472},{"id":107367,"name":"Bolvadin","latitude":38.71111,"longitude":31.04861},{"id":108795,"name":"Çay","latitude":38.59167,"longitude":31.02861},{"id":108841,"name":"Çobanlar İlçesi","latitude":38.71085,"longitude":30.78874},{"id":107455,"name":"Dazkırı","latitude":37.91861,"longitude":29.86056},{"id":107498,"name":"Dinar","latitude":38.065,"longitude":30.16557},{"id":107576,"name":"Emirdağ","latitude":39.01972,"longitude":31.15},{"id":107612,"name":"Evciler","latitude":38.04139,"longitude":29.88667},{"id":107831,"name":"Hocalar","latitude":38.57824,"longitude":29.96768},{"id":108883,"name":"İhsaniye","latitude":39.02916,"longitude":30.41639},{"id":108912,"name":"İscehisar","latitude":38.939,"longitude":30.75002},{"id":107854,"name":"Işıklar","latitude":38.67101,"longitude":30.74098},{"id":108120,"name":"Kızılören","latitude":38.25806,"longitude":30.15167},{"id":108190,"name":"Merkez","latitude":38.79698,"longitude":30.51951},{"id":108383,"name":"Sandıklı","latitude":38.46472,"longitude":30.26946},{"id":108468,"name":"Sinanpaşa","latitude":38.74444,"longitude":30.24278},{"id":108964,"name":"Şuhut","latitude":38.53111,"longitude":30.54583},{"id":108493,"name":"Sultandağı","latitude":38.53111,"longitude":31.22806}]