[{"id":97755,"name":"Bagrationovsk","latitude":54.38714,"longitude":20.64372},{"id":97784,"name":"Baltiysk","latitude":54.65455,"longitude":19.90929},{"id":97989,"name":"Bol'shoe Isakovo","latitude":54.71774,"longitude":20.60284},{"id":98177,"name":"Chernyakhovsk","latitude":54.63345,"longitude":21.81557},{"id":98316,"name":"Donskoye","latitude":54.93842,"longitude":19.96821},{"id":98616,"name":"Gur’yevsk","latitude":54.77323,"longitude":20.60521},{"id":98618,"name":"Gusev","latitude":54.59222,"longitude":22.19972},{"id":98624,"name":"Gvardeysk","latitude":54.64772,"longitude":21.06513},{"id":98787,"name":"Kaliningrad","latitude":54.70649,"longitude":20.51095},{"id":99013,"name":"Khrabrovo","latitude":54.89709,"longitude":20.58035},{"id":99356,"name":"Krasnoznamensk","latitude":54.94222,"longitude":22.48972},{"id":99534,"name":"Ladushkin","latitude":54.57025,"longitude":20.17099},{"id":99769,"name":"Maloye Isakovo","latitude":54.73269,"longitude":20.58413},{"id":99777,"name":"Mamonovo","latitude":54.46427,"longitude":19.93801},{"id":100100,"name":"Neman","latitude":55.03111,"longitude":22.02639},{"id":100101,"name":"Nemanskiy Rayon","latitude":54.91667,"longitude":22.0},{"id":100111,"name":"Nesterov","latitude":54.63056,"longitude":22.57139},{"id":100113,"name":"Nesterovskiy Rayon","latitude":54.58333,"longitude":22.58333},{"id":100507,"name":"Otradnoye","latitude":54.94114,"longitude":20.11397},{"id":100524,"name":"Ozërsk","latitude":54.41056,"longitude":22.01167},{"id":100520,"name":"Ozerskiy Rayon","latitude":54.41667,"longitude":22.0},{"id":100680,"name":"Pionerskiy","latitude":54.95083,"longitude":20.22748},{"id":100753,"name":"Polessk","latitude":54.86205,"longitude":21.10279},{"id":100802,"name":"Pravdinsk","latitude":54.44289,"longitude":21.01785},{"id":100830,"name":"Primorsk","latitude":54.73905,"longitude":20.00553},{"id":101402,"name":"Slavsk","latitude":55.0425,"longitude":21.67704},{"id":101403,"name":"Slavskiy Rayon","latitude":55.0,"longitude":21.66667},{"id":101504,"name":"Sovetsk","latitude":55.08392,"longitude":21.87851},{"id":101701,"name":"Svetlogorsk","latitude":54.93987,"longitude":20.15479},{"id":101705,"name":"Svetlyy","latitude":54.67501,"longitude":20.13473},{"id":102350,"name":"Volochayevskoye","latitude":54.70034,"longitude":20.21966},{"id":102456,"name":"Vzmorye","latitude":54.69606,"longitude":20.23613},{"id":102486,"name":"Yantarnyy","latitude":54.87102,"longitude":19.94016},{"id":102619,"name":"Yuzhnyy","latitude":54.54837,"longitude":20.59843},{"id":102699,"name":"Zelenogradsk","latitude":54.95893,"longitude":20.47668},{"id":102718,"name":"Zheleznodorozhnyy","latitude":54.36013,"longitude":21.30597},{"id":102758,"name":"Znamensk","latitude":54.61403,"longitude":21.22722}]