[{"id":102985,"name":"Abborrberget","latitude":60.15,"longitude":14.8},{"id":103989,"name":"Älvdalen","latitude":61.22774,"longitude":14.03935},{"id":103022,"name":"Avesta","latitude":60.14274,"longitude":16.16295},{"id":103046,"name":"Bjursås","latitude":60.73726,"longitude":15.45291},{"id":103075,"name":"Borlänge","latitude":60.4858,"longitude":15.43714},{"id":103093,"name":"Brunna","latitude":60.26255,"longitude":16.01034},{"id":103122,"name":"Djurås","latitude":60.56061,"longitude":15.13281},{"id":103142,"name":"Enbacka","latitude":60.40993,"longitude":15.59575},{"id":103162,"name":"Falun","latitude":60.60357,"longitude":15.62597},{"id":103197,"name":"Gagnef","latitude":60.59856,"longitude":15.07745},{"id":103226,"name":"Grängesberg","latitude":60.07465,"longitude":15.00784},{"id":103225,"name":"Grycksbo","latitude":60.68751,"longitude":15.48507},{"id":103274,"name":"Hedemora","latitude":60.27973,"longitude":15.98855},{"id":103297,"name":"Horndal","latitude":60.3,"longitude":16.41667},{"id":103347,"name":"Insjön","latitude":60.67688,"longitude":15.09487},{"id":103364,"name":"Järna","latitude":60.53333,"longitude":14.36667},{"id":103419,"name":"Krylbo","latitude":60.13333,"longitude":16.21667},{"id":103504,"name":"Långshyttan","latitude":60.45238,"longitude":16.03831},{"id":103456,"name":"Leksand","latitude":60.7303,"longitude":14.99994},{"id":103491,"name":"Ludvika","latitude":60.14959,"longitude":15.18776},{"id":103518,"name":"Malung","latitude":60.68329,"longitude":13.71542},{"id":103542,"name":"Mockfjärd","latitude":60.5,"longitude":14.96667},{"id":103545,"name":"Mora","latitude":61.00704,"longitude":14.54316},{"id":103595,"name":"Nyhammar","latitude":60.28333,"longitude":14.96667},{"id":103617,"name":"Ornäs","latitude":60.50944,"longitude":15.54128},{"id":103618,"name":"Orsa","latitude":61.12034,"longitude":14.6155},{"id":103665,"name":"Rättvik","latitude":60.88632,"longitude":15.11787},{"id":103654,"name":"Romme","latitude":60.43333,"longitude":15.5},{"id":103807,"name":"Säter","latitude":60.34778,"longitude":15.75051},{"id":103688,"name":"Siljansnäs","latitude":60.78333,"longitude":14.85},{"id":103728,"name":"Smedby","latitude":60.7,"longitude":15.05},{"id":103729,"name":"Smedjebacken","latitude":60.14181,"longitude":15.41416},{"id":103802,"name":"Svärdsjö","latitude":60.74022,"longitude":15.90173},{"id":103920,"name":"Vansbro","latitude":60.50893,"longitude":14.22458},{"id":103941,"name":"Vikarbyn","latitude":60.91667,"longitude":15.01667}]