[{"id":111362,"name":"Ansonia","latitude":41.34621,"longitude":-73.079},{"id":111781,"name":"Baltic","latitude":41.61704,"longitude":-72.08452},{"id":112280,"name":"Bethel","latitude":41.37121,"longitude":-73.41401},{"id":112292,"name":"Bethlehem Village","latitude":41.6401,"longitude":-73.20308},{"id":112468,"name":"Blue Hills","latitude":41.81288,"longitude":-72.69759},{"id":112693,"name":"Branford","latitude":41.27954,"longitude":-72.8151},{"id":112694,"name":"Branford Center","latitude":41.27738,"longitude":-72.81511},{"id":112766,"name":"Bridgeport","latitude":41.17923,"longitude":-73.18945},{"id":112809,"name":"Bristol","latitude":41.67176,"longitude":-72.94927},{"id":113140,"name":"Byram","latitude":41.00426,"longitude":-73.65374},{"id":113313,"name":"Canaan","latitude":42.02731,"longitude":-73.32928},{"id":113351,"name":"Canton Valley","latitude":41.83426,"longitude":-72.89177},{"id":113684,"name":"Central Waterford","latitude":41.34504,"longitude":-72.12948},{"id":113877,"name":"Cheshire","latitude":41.49899,"longitude":-72.90066},{"id":113879,"name":"Cheshire Village","latitude":41.5026,"longitude":-72.89952},{"id":113894,"name":"Chester Center","latitude":41.40132,"longitude":-72.4527},{"id":114071,"name":"City of Milford (balance)","latitude":41.22374,"longitude":-73.06164},{"id":114285,"name":"Clinton","latitude":41.27871,"longitude":-72.52759},{"id":114383,"name":"Colchester","latitude":41.57565,"longitude":-72.33203},{"id":114439,"name":"Collinsville","latitude":41.81288,"longitude":-72.9201},{"id":114566,"name":"Conning Towers-Nautilus Park","latitude":41.38548,"longitude":-72.06877},{"id":114684,"name":"Cos Cob","latitude":41.03343,"longitude":-73.59957},{"id":114733,"name":"Coventry Lake","latitude":41.77232,"longitude":-72.33258},{"id":114835,"name":"Cromwell","latitude":41.5951,"longitude":-72.64537},{"id":114879,"name":"Crystal Lake","latitude":41.93176,"longitude":-72.37842},{"id":115015,"name":"Danbury","latitude":41.39482,"longitude":-73.45401},{"id":115025,"name":"Danielson","latitude":41.8026,"longitude":-71.88591},{"id":115046,"name":"Darien","latitude":41.07871,"longitude":-73.46929},{"id":115170,"name":"Deep River Center","latitude":41.38221,"longitude":-72.43862},{"id":115261,"name":"Derby","latitude":41.32065,"longitude":-73.089},{"id":115570,"name":"Durham","latitude":41.48176,"longitude":-72.68121},{"id":115640,"name":"East Brooklyn","latitude":41.79677,"longitude":-71.89729},{"id":115677,"name":"East Haddam","latitude":41.45315,"longitude":-72.4612},{"id":115678,"name":"East Hampton","latitude":41.57593,"longitude":-72.50259},{"id":115684,"name":"East Hartford","latitude":41.78232,"longitude":-72.61203},{"id":115686,"name":"East Haven","latitude":41.27621,"longitude":-72.86843},{"id":115723,"name":"East Norwalk","latitude":41.10565,"longitude":-73.39845},{"id":115774,"name":"East Windsor","latitude":41.91232,"longitude":-72.54509},{"id":115786,"name":"Easton","latitude":41.25287,"longitude":-73.29734},{"id":116026,"name":"Ellington","latitude":41.90399,"longitude":-72.46981},{"id":116125,"name":"Enfield","latitude":41.97621,"longitude":-72.59176},{"id":116200,"name":"Essex Village","latitude":41.35544,"longitude":-72.39101},{"id":116312,"name":"Fairfield","latitude":41.14121,"longitude":-73.26373},{"id":116320,"name":"Fairfield County","latitude":41.22496,"longitude":-73.3712},{"id":116415,"name":"Farmington","latitude":41.71982,"longitude":-72.83204},{"id":117026,"name":"Gales Ferry","latitude":41.42982,"longitude":-72.08202},{"id":117161,"name":"Georgetown","latitude":41.25565,"longitude":-73.43484},{"id":117255,"name":"Glastonbury","latitude":41.71232,"longitude":-72.60815},{"id":117256,"name":"Glastonbury Center","latitude":41.70093,"longitude":-72.59953},{"id":117311,"name":"Glenville","latitude":41.03538,"longitude":-73.65985},{"id":117698,"name":"Greenwich","latitude":41.02649,"longitude":-73.62846},{"id":117749,"name":"Groton","latitude":41.3501,"longitude":-72.07841},{"id":117784,"name":"Guilford","latitude":41.28899,"longitude":-72.68176},{"id":117786,"name":"Guilford Center","latitude":41.28156,"longitude":-72.67619},{"id":117886,"name":"Hamden","latitude":41.39593,"longitude":-72.89677},{"id":118087,"name":"Hartford","latitude":41.76371,"longitude":-72.68509},{"id":118095,"name":"Hartford County","latitude":41.80642,"longitude":-72.73284},{"id":118201,"name":"Hazardville","latitude":41.98732,"longitude":-72.54481},{"id":118234,"name":"Hebron","latitude":41.65788,"longitude":-72.36592},{"id":118322,"name":"Heritage Village","latitude":41.48565,"longitude":-73.23789},{"id":118383,"name":"Higganum","latitude":41.49704,"longitude":-72.55703},{"id":119245,"name":"Jewett City","latitude":41.60677,"longitude":-71.98091},{"id":119481,"name":"Kensington","latitude":41.63538,"longitude":-72.76871},{"id":119486,"name":"Kent","latitude":41.72482,"longitude":-73.47707},{"id":119561,"name":"Killingly Center","latitude":41.83871,"longitude":-71.86924},{"id":119965,"name":"Lake Pocotopaug","latitude":41.59843,"longitude":-72.51037},{"id":120302,"name":"Ledyard","latitude":41.43982,"longitude":-72.01424},{"id":120597,"name":"Lisbon","latitude":41.60399,"longitude":-72.01174},{"id":120604,"name":"Litchfield","latitude":41.74732,"longitude":-73.18872},{"id":120608,"name":"Litchfield County","latitude":41.79249,"longitude":-73.24532},{"id":120744,"name":"Long Hill","latitude":41.35399,"longitude":-72.0523},{"id":120992,"name":"Madison","latitude":41.27954,"longitude":-72.59843},{"id":121001,"name":"Madison Center","latitude":41.27925,"longitude":-72.60048},{"id":121094,"name":"Manchester","latitude":41.77593,"longitude":-72.52148},{"id":121149,"name":"Mansfield City","latitude":41.76593,"longitude":-72.23369},{"id":121689,"name":"Meriden","latitude":41.53815,"longitude":-72.80704},{"id":121771,"name":"Middlebury","latitude":41.52787,"longitude":-73.12761},{"id":121779,"name":"Middlesex County","latitude":41.43538,"longitude":-72.52312},{"id":121788,"name":"Middletown","latitude":41.56232,"longitude":-72.65065},{"id":121847,"name":"Milford","latitude":41.22232,"longitude":-73.0565},{"id":122189,"name":"Montville Center","latitude":41.47899,"longitude":-72.15119},{"id":122194,"name":"Moodus","latitude":41.50288,"longitude":-72.45009},{"id":122217,"name":"Moosup","latitude":41.71288,"longitude":-71.88091},{"id":122526,"name":"Mystic","latitude":41.35427,"longitude":-71.96646},{"id":122595,"name":"Naugatuck","latitude":41.48593,"longitude":-73.05066},{"id":122674,"name":"New Britain","latitude":41.66121,"longitude":-72.77954},{"id":122679,"name":"New Canaan","latitude":41.14676,"longitude":-73.49484},{"id":122705,"name":"New Fairfield","latitude":41.46648,"longitude":-73.48568},{"id":122713,"name":"New Hartford Center","latitude":41.87996,"longitude":-72.9753},{"id":122716,"name":"New Haven","latitude":41.30815,"longitude":-72.92816},{"id":122719,"name":"New Haven County","latitude":41.34882,"longitude":-72.89986},{"id":122741,"name":"New London","latitude":41.35565,"longitude":-72.09952},{"id":122746,"name":"New London County","latitude":41.46678,"longitude":-72.1065},{"id":122754,"name":"New Milford","latitude":41.57704,"longitude":-73.40845},{"id":122767,"name":"New Preston","latitude":41.6751,"longitude":-73.35179},{"id":122831,"name":"Newington","latitude":41.69788,"longitude":-72.72371},{"id":122875,"name":"Newtown","latitude":41.41398,"longitude":-73.30345},{"id":122883,"name":"Niantic","latitude":41.32538,"longitude":-72.19313},{"id":122915,"name":"Noank","latitude":41.32788,"longitude":-71.99063},{"id":122995,"name":"North Branford","latitude":41.3276,"longitude":-72.76732},{"id":123031,"name":"North Granby","latitude":41.99593,"longitude":-72.82954},{"id":123033,"name":"North Grosvenor Dale","latitude":41.98565,"longitude":-71.89868},{"id":123037,"name":"North Haven","latitude":41.39093,"longitude":-72.85954},{"id":123111,"name":"North Stamford","latitude":41.13815,"longitude":-73.54346},{"id":123177,"name":"Northwest Harwinton","latitude":41.77685,"longitude":-73.07922},{"id":123190,"name":"Norwalk","latitude":41.1176,"longitude":-73.4079},{"id":123195,"name":"Norwich","latitude":41.52426,"longitude":-72.07591},{"id":123307,"name":"Oakville","latitude":41.59343,"longitude":-73.08539},{"id":123420,"name":"Old Greenwich","latitude":41.02287,"longitude":-73.56485},{"id":123423,"name":"Old Mystic","latitude":41.39149,"longitude":-71.96174},{"id":123427,"name":"Old Saybrook","latitude":41.29177,"longitude":-72.3762},{"id":123428,"name":"Old Saybrook Center","latitude":41.2915,"longitude":-72.36528},{"id":123507,"name":"Orange","latitude":41.27843,"longitude":-73.02566},{"id":123681,"name":"Oxford","latitude":41.43399,"longitude":-73.11678},{"id":123690,"name":"Oxoboxo River","latitude":41.44391,"longitude":-72.12502},{"id":123929,"name":"Pawcatuck","latitude":41.37732,"longitude":-71.83368},{"id":124002,"name":"Pemberwick","latitude":41.02565,"longitude":-73.66068},{"id":124319,"name":"Plainfield","latitude":41.67649,"longitude":-71.91507},{"id":124322,"name":"Plainfield Village","latitude":41.67686,"longitude":-71.92489},{"id":124334,"name":"Plainville","latitude":41.67454,"longitude":-72.85816},{"id":124400,"name":"Plymouth","latitude":41.67204,"longitude":-73.05289},{"id":124488,"name":"Poquonock Bridge","latitude":41.3451,"longitude":-72.0248},{"id":124559,"name":"Portland","latitude":41.57288,"longitude":-72.64065},{"id":124658,"name":"Preston City","latitude":41.52899,"longitude":-71.97396},{"id":124706,"name":"Prospect","latitude":41.50232,"longitude":-72.97872},{"id":124760,"name":"Putnam","latitude":41.9151,"longitude":-71.90896},{"id":124801,"name":"Quinebaug","latitude":42.02371,"longitude":-71.9498},{"id":125119,"name":"Ridgefield","latitude":41.28148,"longitude":-73.49818},{"id":125204,"name":"Riverside","latitude":41.03371,"longitude":-73.57818},{"id":125323,"name":"Rockville","latitude":41.86676,"longitude":-72.44953},{"id":125732,"name":"Salem","latitude":41.49038,"longitude":-72.27536},{"id":125764,"name":"Salmon Brook","latitude":41.95649,"longitude":-72.79537},{"id":125986,"name":"Saybrook Manor","latitude":41.28538,"longitude":-72.39897},{"id":126196,"name":"Seymour","latitude":41.39676,"longitude":-73.07594},{"id":126297,"name":"Shelton","latitude":41.31649,"longitude":-73.09316},{"id":126331,"name":"Sherman","latitude":41.57926,"longitude":-73.49568},{"id":126343,"name":"Sherwood Manor","latitude":42.01343,"longitude":-72.56425},{"id":126453,"name":"Simsbury Center","latitude":41.88088,"longitude":-72.81116},{"id":126575,"name":"Somers","latitude":41.98537,"longitude":-72.4462},{"id":126644,"name":"South Coventry","latitude":41.7701,"longitude":-72.30508},{"id":126751,"name":"South Windham","latitude":41.67954,"longitude":-72.17036},{"id":126753,"name":"South Windsor","latitude":41.82371,"longitude":-72.6212},{"id":126754,"name":"South Woodstock","latitude":41.93899,"longitude":-71.95952},{"id":126763,"name":"Southbury","latitude":41.48148,"longitude":-73.21317},{"id":126784,"name":"Southport","latitude":41.13649,"longitude":-73.28345},{"id":126792,"name":"Southwood Acres","latitude":41.9626,"longitude":-72.57148},{"id":126934,"name":"Stafford","latitude":41.98482,"longitude":-72.28897},{"id":126938,"name":"Stafford Springs","latitude":41.95426,"longitude":-72.3023},{"id":126944,"name":"Stamford","latitude":41.05343,"longitude":-73.53873},{"id":127105,"name":"Storrs","latitude":41.80843,"longitude":-72.24952},{"id":127124,"name":"Stratford","latitude":41.18454,"longitude":-73.13317},{"id":127165,"name":"Suffield Depot","latitude":41.98121,"longitude":-72.64981},{"id":127430,"name":"Tariffville","latitude":41.90871,"longitude":-72.7601},{"id":127519,"name":"Terramuggus","latitude":41.6351,"longitude":-72.47036},{"id":127535,"name":"Terryville","latitude":41.67815,"longitude":-73.01094},{"id":127584,"name":"Thomaston","latitude":41.67399,"longitude":-73.07316},{"id":127590,"name":"Thompson","latitude":41.95871,"longitude":-71.86257},{"id":127594,"name":"Thompsonville","latitude":41.99704,"longitude":-72.59898},{"id":127701,"name":"Tolland","latitude":41.87149,"longitude":-72.36869},{"id":127702,"name":"Tolland County","latitude":41.85501,"longitude":-72.33649},{"id":127744,"name":"Torrington","latitude":41.80065,"longitude":-73.12122},{"id":127858,"name":"Trumbull","latitude":41.24287,"longitude":-73.20067},{"id":127967,"name":"Uncasville","latitude":41.43454,"longitude":-72.1098},{"id":128406,"name":"Wallingford","latitude":41.45704,"longitude":-72.82316},{"id":128407,"name":"Wallingford Center","latitude":41.44987,"longitude":-72.81892},{"id":128545,"name":"Washington","latitude":41.63148,"longitude":-73.31067},{"id":128602,"name":"Waterbury","latitude":41.55815,"longitude":-73.0515},{"id":128610,"name":"Waterford","latitude":41.3417,"longitude":-72.13597},{"id":128620,"name":"Watertown","latitude":41.60621,"longitude":-73.11817},{"id":128658,"name":"Wauregan","latitude":41.74427,"longitude":-71.90924},{"id":128720,"name":"Weatogue","latitude":41.84371,"longitude":-72.82843},{"id":128885,"name":"West Hartford","latitude":41.76204,"longitude":-72.74204},{"id":128887,"name":"West Haven","latitude":41.27065,"longitude":-72.94705},{"id":128982,"name":"West Simsbury","latitude":41.87315,"longitude":-72.85815},{"id":128991,"name":"West Torrington","latitude":41.81843,"longitude":-73.14372},{"id":129014,"name":"Westbrook Center","latitude":41.27997,"longitude":-72.44254},{"id":129072,"name":"Westport","latitude":41.14149,"longitude":-73.3579},{"id":129090,"name":"Wethersfield","latitude":41.71427,"longitude":-72.65259},{"id":129293,"name":"Willimantic","latitude":41.71065,"longitude":-72.20813},{"id":129342,"name":"Wilton","latitude":41.19537,"longitude":-73.4379},{"id":129362,"name":"Winchester Center","latitude":41.9001,"longitude":-73.13483},{"id":129371,"name":"Windham","latitude":41.69982,"longitude":-72.15702},{"id":129373,"name":"Windham County","latitude":41.83003,"longitude":-71.98749},{"id":129382,"name":"Windsor","latitude":41.8526,"longitude":-72.6437},{"id":129390,"name":"Windsor Locks","latitude":41.92926,"longitude":-72.62731},{"id":129430,"name":"Winsted","latitude":41.92121,"longitude":-73.06011},{"id":129468,"name":"Wolcott","latitude":41.60232,"longitude":-72.98677},{"id":129499,"name":"Woodbridge","latitude":41.3526,"longitude":-73.00844},{"id":129508,"name":"Woodbury","latitude":41.54454,"longitude":-73.209},{"id":129511,"name":"Woodbury Center","latitude":41.54453,"longitude":-73.20476},{"id":129542,"name":"Woodmont","latitude":41.22815,"longitude":-72.99149}]