[{"id":31486,"name":"Bahía de Caráquez","latitude":-0.59792,"longitude":-80.42367},{"id":31491,"name":"Calceta","latitude":-0.84582,"longitude":-80.16389},{"id":31492,"name":"Cantón Portoviejo","latitude":-1.05,"longitude":-80.45},{"id":31497,"name":"Chone","latitude":-0.69819,"longitude":-80.09361},{"id":31514,"name":"Jipijapa","latitude":-1.34872,"longitude":-80.57875},{"id":31515,"name":"Junín","latitude":-0.92777,"longitude":-80.20583},{"id":31527,"name":"Manta","latitude":-0.96212,"longitude":-80.71271},{"id":31530,"name":"Montecristi","latitude":-1.04576,"longitude":-80.65889},{"id":31537,"name":"Paján","latitude":-1.55238,"longitude":-80.42958},{"id":31543,"name":"Pedernales","latitude":0.07167,"longitude":-80.0525},{"id":31550,"name":"Portoviejo","latitude":-1.05458,"longitude":-80.45445},{"id":31563,"name":"Rocafuerte","latitude":-0.9236,"longitude":-80.44946},{"id":31571,"name":"San Vicente","latitude":-0.60435,"longitude":-80.40267},{"id":31573,"name":"Santa Ana","latitude":-1.20726,"longitude":-80.37132},{"id":31579,"name":"Sucre","latitude":-1.27974,"longitude":-80.41885},{"id":31582,"name":"Tosagua","latitude":-0.78679,"longitude":-80.23473}]