[{"id":130355,"name":"Huyện Lục Yên","latitude":22.10235,"longitude":104.72538},{"id":130360,"name":"Huyện Mù Cang Chải","latitude":21.78815,"longitude":104.11998},{"id":130470,"name":"Huyện Trạm Tấu","latitude":21.48553,"longitude":104.42756},{"id":130473,"name":"Huyện Trấn Yên","latitude":21.66586,"longitude":104.79702},{"id":130496,"name":"Huyện Văn Chấn","latitude":21.55722,"longitude":104.64038},{"id":130497,"name":"Huyện Văn Yên","latitude":21.90022,"longitude":104.56669},{"id":130628,"name":"Yên Bái","latitude":21.72288,"longitude":104.9113}]