[{"id":105212,"name":"Amphoe Ban Pho","latitude":13.61,"longitude":101.07838},{"id":105226,"name":"Amphoe Bang Khla","latitude":13.74186,"longitude":101.20754},{"id":105233,"name":"Amphoe Bang Nam Priao","latitude":13.88034,"longitude":101.03232},{"id":105236,"name":"Amphoe Bang Pakong","latitude":13.53241,"longitude":100.96045},{"id":105408,"name":"Amphoe Khlong Khuean","latitude":13.77961,"longitude":101.15633},{"id":105535,"name":"Amphoe Mueang Chachoengsao","latitude":13.71758,"longitude":101.02152},{"id":105729,"name":"Amphoe Phanom Sarakham","latitude":13.73806,"longitude":101.41202},{"id":105788,"name":"Amphoe Plaeng Yao","latitude":13.56381,"longitude":101.33972},{"id":105806,"name":"Amphoe Ratchasan","latitude":13.7866,"longitude":101.28136},{"id":106185,"name":"Amphoe Sanam Chai Khet","latitude":13.62612,"longitude":101.65475},{"id":106286,"name":"Amphoe Tha Takiap","latitude":13.3951,"longitude":101.73457},{"id":106427,"name":"Bang Khla","latitude":13.72144,"longitude":101.20814},{"id":106437,"name":"Bang Nam Priao","latitude":13.84739,"longitude":101.05306},{"id":106439,"name":"Bang Pakong","latitude":13.54297,"longitude":100.99333},{"id":106460,"name":"Chachoengsao","latitude":13.6882,"longitude":101.07156},{"id":106523,"name":"Khlong Khuean","latitude":13.79131,"longitude":101.16353},{"id":106623,"name":"Phanom Sarakham","latitude":13.74872,"longitude":101.34888}]