[{"id":79773,"name":"Auckland","latitude":-36.84853,"longitude":174.76349},{"id":79823,"name":"Mangere","latitude":-36.96807,"longitude":174.79875},{"id":79824,"name":"Manukau City","latitude":-36.99282,"longitude":174.87986},{"id":79833,"name":"Muriwai Beach","latitude":-36.81667,"longitude":174.45},{"id":79834,"name":"Murrays Bay","latitude":-36.72819,"longitude":174.75019},{"id":79843,"name":"North Shore","latitude":-36.8,"longitude":174.75},{"id":79852,"name":"Pakuranga","latitude":-36.88333,"longitude":174.91667},{"id":79854,"name":"Papakura","latitude":-37.06573,"longitude":174.94393},{"id":79856,"name":"Parakai","latitude":-36.65,"longitude":174.43333},{"id":79865,"name":"Pukekohe East","latitude":-37.2,"longitude":174.95},{"id":79869,"name":"Red Hill","latitude":-37.0582,"longitude":174.97019},{"id":79873,"name":"Rosebank","latitude":-36.87495,"longitude":174.66991},{"id":79874,"name":"Rothesay Bay","latitude":-36.72602,"longitude":174.74064},{"id":79885,"name":"Takanini","latitude":-37.0482,"longitude":174.90019},{"id":79886,"name":"Tamaki","latitude":-36.8882,"longitude":174.86019},{"id":79896,"name":"Titirangi","latitude":-36.93754,"longitude":174.65584},{"id":79907,"name":"Waitakere","latitude":-36.91754,"longitude":174.65773},{"id":79910,"name":"Waiuku","latitude":-37.24806,"longitude":174.73489},{"id":79914,"name":"Warkworth","latitude":-36.4,"longitude":174.66667},{"id":79917,"name":"Wellsford","latitude":-36.28333,"longitude":174.51667},{"id":79924,"name":"Wiri","latitude":-36.9982,"longitude":174.86019}]