[{"id":3904,"name":"Abbotsford","latitude":-37.8,"longitude":145.0},{"id":3909,"name":"Aberfeldie","latitude":-37.75959,"longitude":144.8974},{"id":3926,"name":"Airport West","latitude":-37.7247,"longitude":144.88126},{"id":3929,"name":"Albanvale","latitude":-37.74609,"longitude":144.76856},{"id":3934,"name":"Albert Park","latitude":-37.84107,"longitude":144.95198},{"id":3936,"name":"Albion","latitude":-37.78017,"longitude":144.81724},{"id":3947,"name":"Alexandra","latitude":-37.19132,"longitude":145.7112},{"id":3954,"name":"Alfredton","latitude":-37.56667,"longitude":143.81667},{"id":3960,"name":"Allansford","latitude":-38.38639,"longitude":142.59431},{"id":3966,"name":"Alphington","latitude":-37.78333,"longitude":145.03333},{"id":3967,"name":"Alpine","latitude":-36.83412,"longitude":146.97936},{"id":3970,"name":"Altona","latitude":-37.86964,"longitude":144.83036},{"id":3971,"name":"Altona Meadows","latitude":-37.88413,"longitude":144.78367},{"id":3972,"name":"Altona North","latitude":-37.83487,"longitude":144.84735},{"id":3982,"name":"Anglesea","latitude":-38.4073,"longitude":144.18587},{"id":3990,"name":"Apollo Bay","latitude":-38.7594,"longitude":143.67219},{"id":3996,"name":"Ararat","latitude":-37.48925,"longitude":142.82239},{"id":3999,"name":"Ardeer","latitude":-37.77586,"longitude":144.80144},{"id":4004,"name":"Armadale","latitude":-37.85544,"longitude":145.02052},{"id":4006,"name":"Armstrong Creek","latitude":-38.23121,"longitude":144.37374},{"id":4012,"name":"Ascot","latitude":-36.7,"longitude":144.33333},{"id":4015,"name":"Ascot Vale","latitude":-37.77988,"longitude":144.92276},{"id":4016,"name":"Ashburton","latitude":-37.86667,"longitude":145.08333},{"id":4028,"name":"Ashwood","latitude":-37.86659,"longitude":145.10553},{"id":4029,"name":"Aspendale","latitude":-38.02913,"longitude":145.10266},{"id":4030,"name":"Aspendale Gardens","latitude":-38.02277,"longitude":145.11798},{"id":4037,"name":"Attwood","latitude":-37.66955,"longitude":144.88675},{"id":4051,"name":"Avenel","latitude":-36.90088,"longitude":145.23367},{"id":4053,"name":"Avoca","latitude":-37.09044,"longitude":143.47365},{"id":4057,"name":"Avondale Heights","latitude":-37.76155,"longitude":144.86261},{"id":4060,"name":"Bacchus Marsh","latitude":-37.67268,"longitude":144.43829},{"id":4061,"name":"Badger Creek","latitude":-37.7,"longitude":145.51667},{"id":4064,"name":"Bairnsdale","latitude":-37.82289,"longitude":147.61041},{"id":4068,"name":"Balaclava","latitude":-37.86667,"longitude":145.0},{"id":4079,"name":"Ballan","latitude":-37.59987,"longitude":144.2289},{"id":4080,"name":"Ballarat","latitude":-37.56622,"longitude":143.84957},{"id":4081,"name":"Ballarat Central","latitude":-37.56206,"longitude":143.85082},{"id":4082,"name":"Ballarat East","latitude":-37.56667,"longitude":143.86667},{"id":4083,"name":"Ballarat North","latitude":-37.51884,"longitude":143.77284},{"id":4088,"name":"Balnarring","latitude":-38.36667,"longitude":145.13333},{"id":4091,"name":"Balwyn","latitude":-37.80914,"longitude":145.0789},{"id":4092,"name":"Balwyn North","latitude":-37.79086,"longitude":145.09386},{"id":4104,"name":"Bannockburn","latitude":-38.04894,"longitude":144.16882},{"id":4107,"name":"Banyule","latitude":-37.73386,"longitude":145.08576},{"id":4109,"name":"Baranduda","latitude":-36.19114,"longitude":146.9538},{"id":4131,"name":"Barwon Heads","latitude":-38.27448,"longitude":144.48853},{"id":4133,"name":"Bass Coast","latitude":-38.48507,"longitude":145.4639},{"id":4147,"name":"Baw Baw","latitude":-37.96998,"longitude":146.14404},{"id":4148,"name":"Baxter","latitude":-38.2,"longitude":145.15},{"id":4152,"name":"Bayside","latitude":-37.93986,"longitude":145.01932},{"id":4153,"name":"Bayswater","latitude":-37.85,"longitude":145.26667},{"id":4155,"name":"Bayswater North","latitude":-37.82612,"longitude":145.29831},{"id":4161,"name":"Beaconsfield","latitude":-38.05,"longitude":145.36667},{"id":4164,"name":"Beaconsfield Upper","latitude":-37.99415,"longitude":145.4142},{"id":4166,"name":"Beaufort","latitude":-37.42996,"longitude":143.38347},{"id":4167,"name":"Beaumaris","latitude":-37.98534,"longitude":145.03361},{"id":4176,"name":"Beechworth","latitude":-36.35828,"longitude":146.68584},{"id":4188,"name":"Belgrave","latitude":-37.91093,"longitude":145.35359},{"id":4189,"name":"Belgrave Heights","latitude":-37.92624,"longitude":145.34367},{"id":4190,"name":"Belgrave South","latitude":-37.93333,"longitude":145.33333},{"id":4191,"name":"Bell Park","latitude":-38.10793,"longitude":144.33839},{"id":4192,"name":"Bell Post Hill","latitude":-38.09564,"longitude":144.31968},{"id":4204,"name":"Bellfield","latitude":-37.75309,"longitude":145.03848},{"id":4210,"name":"Belmont","latitude":-38.17485,"longitude":144.34276},{"id":4216,"name":"Benalla","latitude":-36.59041,"longitude":146.02812},{"id":4218,"name":"Bendigo","latitude":-36.75818,"longitude":144.28024},{"id":4219,"name":"Bendigo city centre","latitude":-36.75698,"longitude":144.27957},{"id":4223,"name":"Bentleigh","latitude":-37.91806,"longitude":145.03544},{"id":4224,"name":"Bentleigh East","latitude":-37.91928,"longitude":145.05301},{"id":4246,"name":"Berwick","latitude":-38.03333,"longitude":145.35},{"id":4248,"name":"Beveridge","latitude":-37.48333,"longitude":144.98333},{"id":4274,"name":"Bittern","latitude":-38.33333,"longitude":145.16667},{"id":4276,"name":"Black Hill","latitude":-37.55,"longitude":143.86667},{"id":4279,"name":"Black Rock","latitude":-37.97357,"longitude":145.01636},{"id":4283,"name":"Blackburn","latitude":-37.81901,"longitude":145.15326},{"id":4284,"name":"Blackburn North","latitude":-37.80931,"longitude":145.1518},{"id":4285,"name":"Blackburn South","latitude":-37.83975,"longitude":145.15549},{"id":4299,"name":"Blairgowrie","latitude":-38.36131,"longitude":144.77955},{"id":4307,"name":"Blind Bight","latitude":-38.21427,"longitude":145.3377},{"id":4325,"name":"Bonbeach","latitude":-38.06528,"longitude":145.12278},{"id":4349,"name":"Boronia","latitude":-37.86667,"longitude":145.28333},{"id":4351,"name":"Boroondara","latitude":-37.8264,"longitude":145.05299},{"id":4353,"name":"Botanic Ridge","latitude":-38.13922,"longitude":145.26841},{"id":4368,"name":"Box Hill","latitude":-37.81887,"longitude":145.12545},{"id":4369,"name":"Box Hill North","latitude":-37.80266,"longitude":145.12656},{"id":4370,"name":"Box Hill South","latitude":-37.83236,"longitude":145.12098},{"id":4386,"name":"Braybrook","latitude":-37.78671,"longitude":144.85484},{"id":4392,"name":"Briagolong","latitude":-37.84356,"longitude":147.07268},{"id":4393,"name":"Briar Hill","latitude":-37.70631,"longitude":145.121},{"id":4400,"name":"Bright","latitude":-36.72998,"longitude":146.95978},{"id":4403,"name":"Brighton","latitude":-37.90561,"longitude":145.00279},{"id":4405,"name":"Brighton East","latitude":-37.90232,"longitude":145.01734},{"id":4407,"name":"Brimbank","latitude":-37.74287,"longitude":144.81644},{"id":4414,"name":"Broadford","latitude":-37.20276,"longitude":145.04837},{"id":4416,"name":"Broadmeadows","latitude":-37.68015,"longitude":144.91877},{"id":4425,"name":"Brookfield","latitude":-37.7008,"longitude":144.56025},{"id":4427,"name":"Brooklyn","latitude":-37.81609,"longitude":144.8415},{"id":4435,"name":"Brown Hill","latitude":-37.54654,"longitude":143.91553},{"id":4438,"name":"Brunswick","latitude":-37.76667,"longitude":144.96667},{"id":4440,"name":"Brunswick East","latitude":-37.77255,"longitude":144.97241},{"id":4442,"name":"Brunswick West","latitude":-37.76461,"longitude":144.94383},{"id":4455,"name":"Bulleen","latitude":-37.76667,"longitude":145.08333},{"id":4459,"name":"Buloke","latitude":-35.84638,"longitude":143.05201},{"id":4470,"name":"Bundoora","latitude":-37.69825,"longitude":145.05967},{"id":4474,"name":"Buninyong","latitude":-37.65019,"longitude":143.88388},{"id":4476,"name":"Bunyip","latitude":-38.09789,"longitude":145.71606},{"id":4487,"name":"Burnside","latitude":-37.74937,"longitude":144.75301},{"id":4489,"name":"Burnside Heights","latitude":-37.72691,"longitude":144.75225},{"id":4500,"name":"Burwood","latitude":-37.84978,"longitude":145.11901},{"id":4502,"name":"Burwood East","latitude":-37.85,"longitude":145.15},{"id":4523,"name":"Cairnlea","latitude":-37.75931,"longitude":144.78781},{"id":4529,"name":"California Gully","latitude":-36.72887,"longitude":144.26089},{"id":4537,"name":"Camberwell","latitude":-37.84205,"longitude":145.0694},{"id":4554,"name":"Campaspe","latitude":-36.32338,"longitude":144.70844},{"id":4556,"name":"Campbellfield","latitude":-37.66386,"longitude":144.95953},{"id":4557,"name":"Campbells Creek","latitude":-37.08665,"longitude":144.20203},{"id":4562,"name":"Camperdown","latitude":-38.23392,"longitude":143.14983},{"id":4565,"name":"Canadian","latitude":-37.57606,"longitude":143.87742},{"id":4575,"name":"Canterbury","latitude":-37.8247,"longitude":145.08476},{"id":4580,"name":"Cape Woolamai","latitude":-38.54285,"longitude":145.34407},{"id":4588,"name":"Cardinia","latitude":-38.09508,"longitude":145.56455},{"id":4597,"name":"Carisbrook","latitude":-37.04808,"longitude":143.81665},{"id":4600,"name":"Carlton","latitude":-37.8,"longitude":144.96667},{"id":4602,"name":"Carlton North","latitude":-37.78818,"longitude":144.97014},{"id":4605,"name":"Carnegie","latitude":-37.89359,"longitude":145.05534},{"id":4607,"name":"Caroline Springs","latitude":-37.74124,"longitude":144.73631},{"id":4614,"name":"Carrum","latitude":-38.08333,"longitude":145.13333},{"id":4615,"name":"Carrum Downs","latitude":-38.09968,"longitude":145.17248},{"id":4620,"name":"Casey","latitude":-38.09519,"longitude":145.32279},{"id":4625,"name":"Casterton","latitude":-37.58489,"longitude":141.40297},{"id":4629,"name":"Castlemaine","latitude":-37.06709,"longitude":144.21684},{"id":4637,"name":"Caulfield","latitude":-37.88251,"longitude":145.02288},{"id":4638,"name":"Caulfield East","latitude":-37.88121,"longitude":145.04208},{"id":4639,"name":"Caulfield North","latitude":-37.8739,"longitude":145.02485},{"id":4640,"name":"Caulfield South","latitude":-37.89562,"longitude":145.02597},{"id":4652,"name":"Central Goldfields","latitude":-36.97889,"longitude":143.73857},{"id":4656,"name":"Chadstone","latitude":-37.88766,"longitude":145.09519},{"id":4667,"name":"Charlton","latitude":-36.26437,"longitude":143.34901},{"id":4676,"name":"Chelsea","latitude":-38.05,"longitude":145.11667},{"id":4677,"name":"Chelsea Heights","latitude":-38.03333,"longitude":145.13333},{"id":4679,"name":"Cheltenham","latitude":-37.96944,"longitude":145.04806},{"id":4685,"name":"Chewton","latitude":-37.08137,"longitude":144.25682},{"id":4691,"name":"Chiltern","latitude":-36.15044,"longitude":146.60843},{"id":4696,"name":"Chirnside Park","latitude":-37.7386,"longitude":145.31431},{"id":4704,"name":"Churchill","latitude":-38.30776,"longitude":146.41367},{"id":4726,"name":"Clarinda","latitude":-37.94066,"longitude":145.10238},{"id":4730,"name":"Clayton","latitude":-37.91667,"longitude":145.11667},{"id":4731,"name":"Clayton South","latitude":-37.93333,"longitude":145.11667},{"id":4740,"name":"Clifton Hill","latitude":-37.79798,"longitude":144.99533},{"id":4741,"name":"Clifton Springs","latitude":-38.1567,"longitude":144.5551},{"id":4749,"name":"Clunes","latitude":-37.29473,"longitude":143.78636},{"id":4750,"name":"Clyde","latitude":-38.13333,"longitude":145.33333},{"id":4751,"name":"Clyde North","latitude":-38.11667,"longitude":145.33333},{"id":4755,"name":"Cobden","latitude":-38.3286,"longitude":143.07484},{"id":4756,"name":"Cobram","latitude":-35.92069,"longitude":145.64066},{"id":4757,"name":"Coburg","latitude":-37.75,"longitude":144.96667},{"id":4758,"name":"Coburg North","latitude":-37.72867,"longitude":144.96134},{"id":4759,"name":"Cockatoo","latitude":-37.93677,"longitude":145.49376},{"id":4764,"name":"Cohuna","latitude":-35.80697,"longitude":144.21886},{"id":4765,"name":"Colac","latitude":-38.339,"longitude":143.58489},{"id":4766,"name":"Colac-Otway","latitude":-38.43873,"longitude":143.59669},{"id":4767,"name":"Coldstream","latitude":-37.7249,"longitude":145.37804},{"id":4775,"name":"Collingwood","latitude":-37.80253,"longitude":144.98872},{"id":4806,"name":"Coolaroo","latitude":-37.65675,"longitude":144.9346},{"id":4834,"name":"Corangamite","latitude":-38.21596,"longitude":143.23542},{"id":4838,"name":"Corio","latitude":-38.08333,"longitude":144.38333},{"id":4845,"name":"Corryong","latitude":-36.19705,"longitude":147.90256},{"id":4853,"name":"Cowes","latitude":-38.45231,"longitude":145.23865},{"id":4860,"name":"Craigieburn","latitude":-37.6,"longitude":144.95},{"id":4864,"name":"Cranbourne","latitude":-38.11342,"longitude":145.28326},{"id":4865,"name":"Cranbourne East","latitude":-38.11531,"longitude":145.29814},{"id":4866,"name":"Cranbourne North","latitude":-38.07758,"longitude":145.29871},{"id":4867,"name":"Cranbourne South","latitude":-38.13502,"longitude":145.23958},{"id":4868,"name":"Cranbourne West","latitude":-38.0965,"longitude":145.26707},{"id":4874,"name":"Cremorne","latitude":-37.8318,"longitude":144.9938},{"id":4881,"name":"Creswick","latitude":-37.42404,"longitude":143.8947},{"id":4882,"name":"Crib Point","latitude":-38.35,"longitude":145.2},{"id":4890,"name":"Croydon","latitude":-37.8,"longitude":145.28333},{"id":4892,"name":"Croydon Hills","latitude":-37.77651,"longitude":145.26355},{"id":4893,"name":"Croydon North","latitude":-37.76741,"longitude":145.29073},{"id":4895,"name":"Croydon South","latitude":-37.81232,"longitude":145.2681},{"id":4924,"name":"Dallas","latitude":-37.67083,"longitude":144.93542},{"id":4931,"name":"Dandenong","latitude":-37.98333,"longitude":145.2},{"id":4932,"name":"Dandenong North","latitude":-37.96649,"longitude":145.2081},{"id":4936,"name":"Darebin","latitude":-37.75153,"longitude":145.02193},{"id":4937,"name":"Darley","latitude":-37.65807,"longitude":144.44344},{"id":4954,"name":"Daylesford","latitude":-37.34113,"longitude":144.14256},{"id":4962,"name":"Deer Park","latitude":-37.76722,"longitude":144.76657},{"id":4964,"name":"Delacombe","latitude":-37.58911,"longitude":143.81472},{"id":4965,"name":"Delahey","latitude":-37.7198,"longitude":144.77732},{"id":4975,"name":"Dennington","latitude":-38.35519,"longitude":142.43361},{"id":4980,"name":"Derrimut","latitude":-37.79238,"longitude":144.76994},{"id":4983,"name":"Devon Meadows","latitude":-38.16667,"longitude":145.3},{"id":4987,"name":"Diamond Creek","latitude":-37.66667,"longitude":145.15},{"id":4992,"name":"Diggers Rest","latitude":-37.62597,"longitude":144.71881},{"id":4993,"name":"Dimboola","latitude":-36.45616,"longitude":142.03287},{"id":4995,"name":"Dingley Village","latitude":-37.9827,"longitude":145.1342},{"id":4996,"name":"Dinner Plain","latitude":-37.0236,"longitude":147.24124},{"id":4998,"name":"Docklands","latitude":-37.8149,"longitude":144.95052},{"id":5001,"name":"Donald","latitude":-36.36864,"longitude":142.98106},{"id":5002,"name":"Doncaster","latitude":-37.78828,"longitude":145.12373},{"id":5003,"name":"Doncaster East","latitude":-37.78761,"longitude":145.14888},{"id":5007,"name":"Donvale","latitude":-37.7891,"longitude":145.17488},{"id":5013,"name":"Doreen","latitude":-37.6,"longitude":145.15},{"id":5022,"name":"Doveton","latitude":-37.99346,"longitude":145.23891},{"id":5028,"name":"Dromana","latitude":-38.33375,"longitude":144.96458},{"id":5029,"name":"Drouin","latitude":-38.13658,"longitude":145.85838},{"id":5032,"name":"Drysdale","latitude":-38.17237,"longitude":144.56988},{"id":5055,"name":"Eagle Point","latitude":-37.9,"longitude":147.68333},{"id":5058,"name":"Eaglehawk","latitude":-36.71611,"longitude":144.25049},{"id":5059,"name":"Eaglemont","latitude":-37.76379,"longitude":145.0638},{"id":5064,"name":"East Bairnsdale","latitude":-37.83426,"longitude":147.65548},{"id":5066,"name":"East Bendigo","latitude":-36.74157,"longitude":144.31894},{"id":5075,"name":"East Geelong","latitude":-38.15568,"longitude":144.37202},{"id":5076,"name":"East Gippsland","latitude":-37.34564,"longitude":148.58295},{"id":5090,"name":"East Melbourne","latitude":-37.81667,"longitude":144.9879},{"id":5103,"name":"Echuca","latitude":-36.14057,"longitude":144.75185},{"id":5108,"name":"Eden Park","latitude":-37.48333,"longitude":145.08333},{"id":5115,"name":"Edithvale","latitude":-38.03724,"longitude":145.10974},{"id":5142,"name":"Elliminyt","latitude":-38.3711,"longitude":143.58003},{"id":5145,"name":"Elsternwick","latitude":-37.88639,"longitude":145.0025},{"id":5146,"name":"Eltham","latitude":-37.73333,"longitude":145.15},{"id":5147,"name":"Eltham North","latitude":-37.7,"longitude":145.15},{"id":5148,"name":"Elwood","latitude":-37.88214,"longitude":144.98215},{"id":5150,"name":"Emerald","latitude":-37.93167,"longitude":145.44093},{"id":5159,"name":"Endeavour Hills","latitude":-37.97695,"longitude":145.25866},{"id":5164,"name":"Epping","latitude":-37.65,"longitude":145.03333},{"id":5166,"name":"Epsom","latitude":-36.71667,"longitude":144.31667},{"id":5177,"name":"Essendon","latitude":-37.74981,"longitude":144.9109},{"id":5178,"name":"Essendon North","latitude":-37.74225,"longitude":144.90546},{"id":5179,"name":"Essendon West","latitude":-37.75489,"longitude":144.88338},{"id":5187,"name":"Eumemmerring","latitude":-37.9978,"longitude":145.24821},{"id":5189,"name":"Euroa","latitude":-36.75555,"longitude":145.57075},{"id":5203,"name":"Eynesbury","latitude":-37.80043,"longitude":144.57458},{"id":5205,"name":"Fairfield","latitude":-37.77977,"longitude":145.01764},{"id":5215,"name":"Falls Creek","latitude":-36.86535,"longitude":147.27782},{"id":5221,"name":"Fawkner","latitude":-37.71667,"longitude":144.96667},{"id":5227,"name":"Ferntree Gully","latitude":-37.88461,"longitude":145.29539},{"id":5229,"name":"Ferny Creek","latitude":-37.88333,"longitude":145.33333},{"id":5241,"name":"Fitzroy","latitude":-37.79839,"longitude":144.97833},{"id":5243,"name":"Fitzroy North","latitude":-37.78862,"longitude":144.97885},{"id":5246,"name":"Flemington","latitude":-37.78825,"longitude":144.93001},{"id":5254,"name":"Flora Hill","latitude":-36.78123,"longitude":144.29562},{"id":5259,"name":"Footscray","latitude":-37.8,"longitude":144.9},{"id":5264,"name":"Forest Hill","latitude":-37.83333,"longitude":145.18333},{"id":5276,"name":"Foster","latitude":-38.65275,"longitude":146.20073},{"id":5280,"name":"Frankston","latitude":-38.13402,"longitude":145.16875},{"id":5281,"name":"Frankston East","latitude":-38.13333,"longitude":145.13333},{"id":5282,"name":"Frankston North","latitude":-38.12352,"longitude":145.14836},{"id":5283,"name":"Frankston South","latitude":-38.16604,"longitude":145.13643},{"id":5301,"name":"Gannawarra","latitude":-35.73211,"longitude":143.85316},{"id":5305,"name":"Garfield","latitude":-38.08985,"longitude":145.67502},{"id":5316,"name":"Geelong","latitude":-38.14711,"longitude":144.36069},{"id":5318,"name":"Geelong city centre","latitude":-38.14996,"longitude":144.36176},{"id":5317,"name":"Geelong West","latitude":-38.13888,"longitude":144.34842},{"id":5322,"name":"Gembrook","latitude":-37.95321,"longitude":145.55536},{"id":5345,"name":"Gisborne","latitude":-37.48858,"longitude":144.59421},{"id":5349,"name":"Gladstone Park","latitude":-37.68742,"longitude":144.88675},{"id":5356,"name":"Glen Eira","latitude":-37.89949,"longitude":145.04099},{"id":5358,"name":"Glen Huntly","latitude":-37.89237,"longitude":145.04135},{"id":5362,"name":"Glen Iris","latitude":-37.86667,"longitude":145.06667},{"id":5364,"name":"Glen Waverley","latitude":-37.87811,"longitude":145.16476},{"id":5372,"name":"Glenelg","latitude":-37.89083,"longitude":141.44238},{"id":5377,"name":"Glenferrie","latitude":-37.83333,"longitude":145.05},{"id":5380,"name":"Glengarry","latitude":-38.11667,"longitude":146.56667},{"id":5387,"name":"Glenroy","latitude":-37.7,"longitude":144.93333},{"id":5404,"name":"Golden Plains","latitude":-37.85231,"longitude":143.86352},{"id":5405,"name":"Golden Point","latitude":-37.57493,"longitude":143.8687},{"id":5406,"name":"Golden Square","latitude":-36.77265,"longitude":144.25271},{"id":5419,"name":"Gordon","latitude":-37.5823,"longitude":144.10925},{"id":5428,"name":"Gowanbrae","latitude":-37.70823,"longitude":144.89079},{"id":5445,"name":"Greater Bendigo","latitude":-36.72278,"longitude":144.43974},{"id":5446,"name":"Greater Dandenong","latitude":-38.00112,"longitude":145.19073},{"id":5447,"name":"Greater Geelong","latitude":-38.05182,"longitude":144.46137},{"id":5449,"name":"Greater Shepparton","latitude":-36.42742,"longitude":145.41519},{"id":5458,"name":"Greensborough","latitude":-37.70462,"longitude":145.10302},{"id":5460,"name":"Greenvale","latitude":-37.63333,"longitude":144.86667},{"id":5474,"name":"Grovedale","latitude":-38.2,"longitude":144.35},{"id":5501,"name":"Haddon","latitude":-37.6,"longitude":143.71667},{"id":5502,"name":"Hadfield","latitude":-37.70728,"longitude":144.9416},{"id":5506,"name":"Hallam","latitude":-38.01667,"longitude":145.26667},{"id":5511,"name":"Hamilton","latitude":-37.74425,"longitude":142.02202},{"id":5515,"name":"Hamlyn Heights","latitude":-38.12108,"longitude":144.32799},{"id":5520,"name":"Hampton","latitude":-37.95,"longitude":145.0},{"id":5521,"name":"Hampton East","latitude":-37.93695,"longitude":145.02863},{"id":5522,"name":"Hampton Park","latitude":-38.03333,"longitude":145.25},{"id":5535,"name":"Hastings","latitude":-38.3,"longitude":145.18333},{"id":5537,"name":"Haven","latitude":-36.76072,"longitude":142.19426},{"id":5541,"name":"Hawthorn","latitude":-37.81992,"longitude":145.0358},{"id":5543,"name":"Hawthorn East","latitude":-37.82484,"longitude":145.0464},{"id":5544,"name":"Hawthorn South","latitude":-37.8329,"longitude":145.0367},{"id":5552,"name":"Hazelwood North","latitude":-38.26763,"longitude":146.48286},{"id":5554,"name":"Healesville","latitude":-37.65395,"longitude":145.51718},{"id":5557,"name":"Heathcote","latitude":-36.92214,"longitude":144.70837},{"id":5558,"name":"Heatherton","latitude":-37.96667,"longitude":145.1},{"id":5559,"name":"Heathmont","latitude":-37.83333,"longitude":145.25},{"id":5567,"name":"Heidelberg","latitude":-37.75,"longitude":145.06667},{"id":5568,"name":"Heidelberg Heights","latitude":-37.74313,"longitude":145.05695},{"id":5569,"name":"Heidelberg West","latitude":-37.73922,"longitude":145.04034},{"id":5580,"name":"Hepburn","latitude":-37.31707,"longitude":144.03355},{"id":5586,"name":"Herne Hill","latitude":-38.13427,"longitude":144.32406},{"id":5590,"name":"Heyfield","latitude":-37.9813,"longitude":146.78559},{"id":5591,"name":"Heywood","latitude":-38.13294,"longitude":141.62949},{"id":5595,"name":"Highett","latitude":-37.95,"longitude":145.05},{"id":5601,"name":"Highton","latitude":-38.17058,"longitude":144.3114},{"id":5612,"name":"Hillside","latitude":-37.69047,"longitude":144.74172},{"id":5618,"name":"Hindmarsh","latitude":-36.03293,"longitude":141.73282},{"id":5620,"name":"Hmas Cerberus","latitude":-38.36491,"longitude":145.20038},{"id":5624,"name":"Hobsons Bay","latitude":-37.85694,"longitude":144.83347},{"id":5647,"name":"Hoppers Crossing","latitude":-37.88264,"longitude":144.7003},{"id":5652,"name":"Horsham","latitude":-36.82857,"longitude":142.11448},{"id":5655,"name":"Hotham Heights","latitude":-36.99298,"longitude":147.15225},{"id":5664,"name":"Hughesdale","latitude":-37.9,"longitude":145.08333},{"id":5665,"name":"Hume","latitude":-37.59717,"longitude":144.80511},{"id":5670,"name":"Huntingdale","latitude":-37.90766,"longitude":145.10847},{"id":5672,"name":"Huntly","latitude":-36.66451,"longitude":144.33382},{"id":5676,"name":"Hurstbridge","latitude":-37.64157,"longitude":145.19408},{"id":5686,"name":"Indented Head","latitude":-38.14305,"longitude":144.71343},{"id":5687,"name":"Indigo","latitude":-36.20854,"longitude":146.68628},{"id":5698,"name":"Inverleigh","latitude":-38.10177,"longitude":144.05132},{"id":5699,"name":"Inverloch","latitude":-38.62659,"longitude":145.7226},{"id":5701,"name":"Invermay Park","latitude":-37.53063,"longitude":143.85798},{"id":5703,"name":"Ironbark","latitude":-36.75478,"longitude":144.26378},{"id":5705,"name":"Irymple","latitude":-34.23537,"longitude":142.17101},{"id":5710,"name":"Ivanhoe","latitude":-37.76903,"longitude":145.04308},{"id":5711,"name":"Ivanhoe East","latitude":-37.7734,"longitude":145.06195},{"id":5713,"name":"Jacana","latitude":-37.68778,"longitude":144.91111},{"id":5714,"name":"Jackass Flat","latitude":-36.71589,"longitude":144.28597},{"id":5720,"name":"Jan Juc","latitude":-38.34455,"longitude":144.29518},{"id":5749,"name":"Junction Village","latitude":-38.13636,"longitude":145.29684},{"id":5751,"name":"Junortoun","latitude":-36.77106,"longitude":144.36311},{"id":5761,"name":"Kalimna","latitude":-37.87011,"longitude":147.96664},{"id":5766,"name":"Kallista","latitude":-37.89815,"longitude":145.38226},{"id":5767,"name":"Kalorama","latitude":-37.81667,"longitude":145.36667},{"id":5774,"name":"Kangaroo Flat","latitude":-36.8,"longitude":144.25},{"id":5775,"name":"Kangaroo Ground","latitude":-37.68919,"longitude":145.2317},{"id":5803,"name":"Kealba","latitude":-37.7371,"longitude":144.8283},{"id":5807,"name":"Keilor","latitude":-37.71667,"longitude":144.83333},{"id":5808,"name":"Keilor Downs","latitude":-37.72337,"longitude":144.80839},{"id":5809,"name":"Keilor East","latitude":-37.73261,"longitude":144.86504},{"id":5810,"name":"Keilor Lodge","latitude":-37.69997,"longitude":144.80332},{"id":5811,"name":"Keilor Park","latitude":-37.72025,"longitude":144.85422},{"id":5826,"name":"Kennington","latitude":-36.77128,"longitude":144.30298},{"id":5827,"name":"Kensington","latitude":-37.79188,"longitude":144.93114},{"id":5839,"name":"Kerang","latitude":-35.73489,"longitude":143.92027},{"id":5841,"name":"Kew","latitude":-37.80639,"longitude":145.03086},{"id":5843,"name":"Kew East","latitude":-37.79758,"longitude":145.05378},{"id":5846,"name":"Keysborough","latitude":-37.99116,"longitude":145.17385},{"id":5847,"name":"Kialla","latitude":-36.44729,"longitude":145.41422},{"id":5859,"name":"Kilmore","latitude":-37.29577,"longitude":144.95252},{"id":5860,"name":"Kilsyth","latitude":-37.8,"longitude":145.31667},{"id":5861,"name":"Kilsyth South","latitude":-37.82033,"longitude":145.31599},{"id":5868,"name":"Kinglake","latitude":-37.53291,"longitude":145.33964},{"id":5869,"name":"Kinglake West","latitude":-37.46667,"longitude":145.23333},{"id":5874,"name":"Kings Park","latitude":-37.73397,"longitude":144.77766},{"id":5875,"name":"Kingsbury","latitude":-37.71406,"longitude":145.03509},{"id":5884,"name":"Kingston","latitude":-38.0045,"longitude":145.09531},{"id":5889,"name":"Kingsville","latitude":-37.80819,"longitude":144.87911},{"id":5899,"name":"Knox","latitude":-37.89895,"longitude":145.26923},{"id":5900,"name":"Knoxfield","latitude":-37.88978,"longitude":145.24962},{"id":5905,"name":"Koo-Wee-Rup","latitude":-38.19941,"longitude":145.49081},{"id":5913,"name":"Koroit","latitude":-38.2918,"longitude":142.36729},{"id":5915,"name":"Korumburra","latitude":-38.43194,"longitude":145.82355},{"id":5931,"name":"Kurunjang","latitude":-37.67587,"longitude":144.5969},{"id":5934,"name":"Kyabram","latitude":-36.31335,"longitude":145.05035},{"id":5936,"name":"Kyneton","latitude":-37.24444,"longitude":144.45148},{"id":5944,"name":"Lake Gardens","latitude":-37.54632,"longitude":143.81653},{"id":5952,"name":"Lake Wendouree","latitude":-37.54993,"longitude":143.8473},{"id":5956,"name":"Lakes Entrance","latitude":-37.86679,"longitude":148.00159},{"id":5958,"name":"Lalor","latitude":-37.66667,"longitude":145.01667},{"id":5963,"name":"Lancefield","latitude":-37.27733,"longitude":144.73596},{"id":5969,"name":"Lang Lang","latitude":-38.26605,"longitude":145.5621},{"id":5971,"name":"Langwarrin","latitude":-38.16667,"longitude":145.16667},{"id":5972,"name":"Langwarrin South","latitude":-38.18947,"longitude":145.1935},{"id":5974,"name":"Lara","latitude":-38.02388,"longitude":144.40617},{"id":5983,"name":"Latrobe","latitude":-38.25379,"longitude":146.46124},{"id":5987,"name":"Launching Place","latitude":-37.78058,"longitude":145.56834},{"id":5988,"name":"Laverton","latitude":-37.86201,"longitude":144.76979},{"id":6008,"name":"Leongatha","latitude":-38.47607,"longitude":145.94685},{"id":6010,"name":"Leopold","latitude":-38.19001,"longitude":144.46825},{"id":6024,"name":"Lilydale","latitude":-37.75,"longitude":145.35},{"id":6039,"name":"Little River","latitude":-37.96667,"longitude":144.5},{"id":6051,"name":"Loddon","latitude":-36.40406,"longitude":143.82964},{"id":6062,"name":"Long Gully","latitude":-36.74305,"longitude":144.25788},{"id":6065,"name":"Longford","latitude":-38.16237,"longitude":147.08591},{"id":6068,"name":"Longwarry","latitude":-38.11279,"longitude":145.76849},{"id":6070,"name":"Lorne","latitude":-38.54043,"longitude":143.97636},{"id":6072,"name":"Lovely Banks","latitude":-38.06667,"longitude":144.33333},{"id":6078,"name":"Lower Plenty","latitude":-37.73333,"longitude":145.11667},{"id":6082,"name":"Lucknow","latitude":-37.81667,"longitude":147.65},{"id":6089,"name":"Lynbrook","latitude":-38.05588,"longitude":145.25615},{"id":6095,"name":"Lysterfield","latitude":-37.93333,"longitude":145.3},{"id":6099,"name":"Macedon","latitude":-37.41963,"longitude":144.56242},{"id":6100,"name":"Macedon Ranges","latitude":-37.33343,"longitude":144.61581},{"id":6110,"name":"Macleod","latitude":-37.73333,"longitude":145.06667},{"id":6117,"name":"Maddingley","latitude":-37.68518,"longitude":144.43245},{"id":6121,"name":"Maffra","latitude":-37.97132,"longitude":146.98366},{"id":6125,"name":"Maiden Gully","latitude":-36.75389,"longitude":144.20789},{"id":6126,"name":"Maidstone","latitude":-37.78035,"longitude":144.87353},{"id":6135,"name":"Maldon","latitude":-36.9957,"longitude":144.06834},{"id":6137,"name":"Mallacoota","latitude":-37.55896,"longitude":149.75407},{"id":6140,"name":"Malvern","latitude":-37.86259,"longitude":145.02811},{"id":6142,"name":"Malvern East","latitude":-37.87397,"longitude":145.04253},{"id":6147,"name":"Manifold Heights","latitude":-38.13762,"longitude":144.33369},{"id":6156,"name":"Manningham","latitude":-37.7571,"longitude":145.18053},{"id":6161,"name":"Mansfield","latitude":-37.2413,"longitude":146.14803},{"id":6180,"name":"Maribyrnong","latitude":-37.79141,"longitude":144.87786},{"id":6186,"name":"Marong","latitude":-36.73333,"longitude":144.13333},{"id":6189,"name":"Maroondah","latitude":-37.80288,"longitude":145.26603},{"id":6197,"name":"Maryborough","latitude":-37.04562,"longitude":143.73923},{"id":6214,"name":"McCrae","latitude":-38.34972,"longitude":144.92806},{"id":6220,"name":"McKinnon","latitude":-37.91667,"longitude":145.05},{"id":6224,"name":"Meadow Heights","latitude":-37.65117,"longitude":144.91855},{"id":6235,"name":"Melbourne","latitude":-37.814,"longitude":144.96332},{"id":6236,"name":"Melbourne City Centre","latitude":-37.81501,"longitude":144.96657},{"id":6239,"name":"Melton","latitude":-37.68144,"longitude":144.62292},{"id":6240,"name":"Melton South","latitude":-37.70773,"longitude":144.57493},{"id":6241,"name":"Melton West","latitude":-37.67852,"longitude":144.56883},{"id":6247,"name":"Mentone","latitude":-37.98333,"longitude":145.06667},{"id":6250,"name":"Merbein","latitude":-34.16802,"longitude":142.06599},{"id":6258,"name":"Mernda","latitude":-37.60075,"longitude":145.09555},{"id":6266,"name":"Metung","latitude":-37.89154,"longitude":147.853},{"id":6269,"name":"Mickleham","latitude":-37.53664,"longitude":144.90204},{"id":6273,"name":"Middle Park","latitude":-37.85116,"longitude":144.96201},{"id":6283,"name":"Mildura","latitude":-34.18551,"longitude":142.16251},{"id":6284,"name":"Mildura Shire","latitude":-34.8645,"longitude":141.85232},{"id":6288,"name":"Mill Park","latitude":-37.66667,"longitude":145.06667},{"id":6294,"name":"Millgrove","latitude":-37.75527,"longitude":145.65347},{"id":6308,"name":"Miners Rest","latitude":-37.4808,"longitude":143.80107},{"id":6316,"name":"Mirboo North","latitude":-38.40101,"longitude":146.16135},{"id":6320,"name":"Mitcham","latitude":-37.81667,"longitude":145.2},{"id":6322,"name":"Mitchell","latitude":-37.17535,"longitude":144.97999},{"id":6333,"name":"Moe","latitude":-38.17828,"longitude":146.26099},{"id":6337,"name":"Moira","latitude":-36.0506,"longitude":145.53815},{"id":6344,"name":"Monash","latitude":-37.89675,"longitude":145.14714},{"id":6346,"name":"Monbulk","latitude":-37.87427,"longitude":145.42592},{"id":6348,"name":"Mont Albert","latitude":-37.81788,"longitude":145.10799},{"id":6349,"name":"Mont Albert North","latitude":-37.80043,"longitude":145.10828},{"id":6352,"name":"Montmorency","latitude":-37.71667,"longitude":145.11667},{"id":6354,"name":"Montrose","latitude":-37.81667,"longitude":145.35},{"id":6357,"name":"Moolap","latitude":-38.18333,"longitude":144.43333},{"id":6362,"name":"Moonee Ponds","latitude":-37.76667,"longitude":144.91667},{"id":6363,"name":"Moonee Valley","latitude":-37.74941,"longitude":144.89325},{"id":6366,"name":"Moorabbin","latitude":-37.94146,"longitude":145.05779},{"id":6367,"name":"Moorabool","latitude":-37.63338,"longitude":144.21946},{"id":6372,"name":"Moorooduc","latitude":-38.21667,"longitude":145.11667},{"id":6374,"name":"Mooroolbark","latitude":-37.78247,"longitude":145.31682},{"id":6375,"name":"Mooroopna","latitude":-36.4,"longitude":145.35},{"id":6379,"name":"Mordialloc","latitude":-38.0,"longitude":145.08333},{"id":6382,"name":"Moreland","latitude":-37.73557,"longitude":144.93745},{"id":6387,"name":"Mornington","latitude":-38.21792,"longitude":145.03876},{"id":6390,"name":"Mornington Peninsula","latitude":-38.34004,"longitude":145.05455},{"id":6395,"name":"Mortlake","latitude":-38.08102,"longitude":142.80827},{"id":6398,"name":"Morwell","latitude":-38.23476,"longitude":146.39499},{"id":6404,"name":"Mount Alexander","latitude":-37.07607,"longitude":144.18825},{"id":6409,"name":"Mount Buller","latitude":-37.14595,"longitude":146.43694},{"id":6411,"name":"Mount Clear","latitude":-37.6,"longitude":143.88333},{"id":6417,"name":"Mount Dandenong","latitude":-37.83333,"longitude":145.36667},{"id":6419,"name":"Mount Duneed","latitude":-38.24089,"longitude":144.33748},{"id":6420,"name":"Mount Eliza","latitude":-38.18333,"longitude":145.08333},{"id":6421,"name":"Mount Evelyn","latitude":-37.78333,"longitude":145.38333},{"id":6426,"name":"Mount Helen","latitude":-37.62463,"longitude":143.8789},{"id":6438,"name":"Mount Macedon","latitude":-37.40048,"longitude":144.58412},{"id":6441,"name":"Mount Martha","latitude":-38.26667,"longitude":145.01667},{"id":6449,"name":"Mount Pleasant","latitude":-37.58333,"longitude":143.86667},{"id":6464,"name":"Mount Waverley","latitude":-37.87709,"longitude":145.12939},{"id":6468,"name":"Moyne","latitude":-38.18785,"longitude":142.46217},{"id":6476,"name":"Mulgrave","latitude":-37.92845,"longitude":145.17708},{"id":6496,"name":"Murrindindi","latitude":-37.28104,"longitude":145.67437},{"id":6499,"name":"Murrumbeena","latitude":-37.9,"longitude":145.06667},{"id":6507,"name":"Myrtleford","latitude":-36.56104,"longitude":146.72371},{"id":6509,"name":"Nagambie","latitude":-36.78515,"longitude":145.15375},{"id":6537,"name":"Narre Warren","latitude":-38.03333,"longitude":145.3},{"id":6538,"name":"Narre Warren North","latitude":-37.98333,"longitude":145.31667},{"id":6539,"name":"Narre Warren South","latitude":-38.04369,"longitude":145.2923},{"id":6543,"name":"Nathalia","latitude":-36.05772,"longitude":145.20406},{"id":6547,"name":"Neerim South","latitude":-38.01683,"longitude":145.95447},{"id":6557,"name":"New Gisborne","latitude":-37.46065,"longitude":144.5993},{"id":6562,"name":"Newborough","latitude":-38.17171,"longitude":146.29264},{"id":6566,"name":"Newcomb","latitude":-38.16623,"longitude":144.39429},{"id":6567,"name":"Newington","latitude":-37.55846,"longitude":143.82485},{"id":6573,"name":"Newport","latitude":-37.84427,"longitude":144.88483},{"id":6580,"name":"Newtown","latitude":-38.15391,"longitude":144.33507},{"id":6584,"name":"Nhill","latitude":-36.33333,"longitude":141.65006},{"id":6588,"name":"Nichols Point","latitude":-34.2121,"longitude":142.21443},{"id":6589,"name":"Nicholson","latitude":-37.81667,"longitude":147.73333},{"id":6591,"name":"Niddrie","latitude":-37.7375,"longitude":144.89212},{"id":6593,"name":"Nillumbik","latitude":-37.61474,"longitude":145.21706},{"id":6598,"name":"Noble Park","latitude":-37.96667,"longitude":145.16667},{"id":6599,"name":"Noble Park North","latitude":-37.94978,"longitude":145.19257},{"id":6606,"name":"Norlane","latitude":-38.10139,"longitude":144.35417},{"id":6617,"name":"North Bendigo","latitude":-36.74363,"longitude":144.28791},{"id":6621,"name":"North Brighton","latitude":-37.90694,"longitude":145.00528},{"id":6628,"name":"North Geelong","latitude":-38.10953,"longitude":144.35134},{"id":6640,"name":"North Melbourne","latitude":-37.79798,"longitude":144.94512},{"id":6657,"name":"North Warrandyte","latitude":-37.72924,"longitude":145.21574},{"id":6660,"name":"North Wonthaggi","latitude":-38.57769,"longitude":145.59302},{"id":6665,"name":"Northcote","latitude":-37.76667,"longitude":145.0},{"id":6667,"name":"Northern Grampians","latitude":-36.84962,"longitude":142.87303},{"id":6677,"name":"Notting Hill","latitude":-37.905,"longitude":145.1427},{"id":6684,"name":"Numurkah","latitude":-36.08846,"longitude":145.44215},{"id":6685,"name":"Nunawading","latitude":-37.82043,"longitude":145.17308},{"id":6690,"name":"Nyora","latitude":-38.33364,"longitude":145.67248},{"id":6694,"name":"Oak Park","latitude":-37.71842,"longitude":144.91945},{"id":6703,"name":"Oakleigh","latitude":-37.89809,"longitude":145.08837},{"id":6704,"name":"Oakleigh East","latitude":-37.9,"longitude":145.11667},{"id":6705,"name":"Oakleigh South","latitude":-37.92416,"longitude":145.09146},{"id":6710,"name":"Ocean Grove","latitude":-38.25772,"longitude":144.51919},{"id":6713,"name":"Officer","latitude":-38.05916,"longitude":145.40947},{"id":6721,"name":"Olinda","latitude":-37.85,"longitude":145.36667},{"id":6734,"name":"Orbost","latitude":-37.69644,"longitude":148.457},{"id":6740,"name":"Ormond","latitude":-37.9,"longitude":145.03333},{"id":6746,"name":"Ouyen","latitude":-35.07087,"longitude":142.32034},{"id":6763,"name":"Pakenham","latitude":-38.07018,"longitude":145.47411},{"id":6764,"name":"Pakenham Upper","latitude":-38.01667,"longitude":145.51667},{"id":6775,"name":"Panton Hill","latitude":-37.64082,"longitude":145.23991},{"id":6789,"name":"Park Orchards","latitude":-37.77688,"longitude":145.21463},{"id":6792,"name":"Parkdale","latitude":-37.99187,"longitude":145.08128},{"id":6800,"name":"Parkville","latitude":-37.78333,"longitude":144.95},{"id":6809,"name":"Pascoe Vale","latitude":-37.73333,"longitude":144.93333},{"id":6810,"name":"Pascoe Vale South","latitude":-37.73973,"longitude":144.94615},{"id":6811,"name":"Patterson Lakes","latitude":-38.06934,"longitude":145.14327},{"id":6814,"name":"Paynesville","latitude":-37.91886,"longitude":147.71944},{"id":6821,"name":"Pearcedale","latitude":-38.203,"longitude":145.23488},{"id":6849,"name":"Phillip Island","latitude":-38.48349,"longitude":145.23102},{"id":6867,"name":"Plenty","latitude":-37.66667,"longitude":145.11667},{"id":6868,"name":"Plumpton","latitude":-37.68701,"longitude":144.69082},{"id":6873,"name":"Point Cook","latitude":-37.91482,"longitude":144.75088},{"id":6875,"name":"Point Lonsdale","latitude":-38.28173,"longitude":144.61055},{"id":6890,"name":"Port Fairy","latitude":-38.38535,"longitude":142.2371},{"id":6898,"name":"Port Melbourne","latitude":-37.83961,"longitude":144.94228},{"id":6901,"name":"Port Phillip","latitude":-37.85159,"longitude":144.96992},{"id":6909,"name":"Portarlington","latitude":-38.11542,"longitude":144.65559},{"id":6911,"name":"Portland","latitude":-38.3462,"longitude":141.60257},{"id":6915,"name":"Prahran","latitude":-37.85114,"longitude":144.99318},{"id":6917,"name":"Preston","latitude":-37.75,"longitude":145.01667},{"id":6920,"name":"Princes Hill","latitude":-37.78185,"longitude":144.96656},{"id":6925,"name":"Puckapunyal","latitude":-36.99493,"longitude":145.04005},{"id":6930,"name":"Pyrenees","latitude":-37.32756,"longitude":143.36472},{"id":6934,"name":"Quarry Hill","latitude":-36.77646,"longitude":144.28024},{"id":6940,"name":"Queenscliff","latitude":-38.26789,"longitude":144.66193},{"id":6942,"name":"Queenscliffe","latitude":-38.26896,"longitude":144.66248},{"id":6967,"name":"Ravenhall","latitude":-37.76552,"longitude":144.75105},{"id":6975,"name":"Red Cliffs","latitude":-34.30942,"longitude":142.18971},{"id":6978,"name":"Redan","latitude":-37.57649,"longitude":143.83862},{"id":6997,"name":"Research","latitude":-37.7,"longitude":145.18333},{"id":6998,"name":"Reservoir","latitude":-37.71667,"longitude":145.0},{"id":7007,"name":"Richmond","latitude":-37.81819,"longitude":145.00176},{"id":7015,"name":"Ringwood","latitude":-37.81667,"longitude":145.23333},{"id":7016,"name":"Ringwood East","latitude":-37.81667,"longitude":145.25},{"id":7017,"name":"Ringwood North","latitude":-37.8,"longitude":145.23333},{"id":7018,"name":"Ripponlea","latitude":-37.88333,"longitude":145.0},{"id":7036,"name":"Robinvale","latitude":-34.58356,"longitude":142.77228},{"id":7040,"name":"Rochester","latitude":-36.36352,"longitude":144.70077},{"id":7041,"name":"Rockbank","latitude":-37.73353,"longitude":144.67003},{"id":7054,"name":"Romsey","latitude":-37.35075,"longitude":144.743},{"id":7058,"name":"Rosanna","latitude":-37.73895,"longitude":145.06735},{"id":7062,"name":"Rosebud","latitude":-38.35542,"longitude":144.9068},{"id":7063,"name":"Rosebud West","latitude":-38.36444,"longitude":144.87748},{"id":7064,"name":"Rosedale","latitude":-38.15452,"longitude":146.7886},{"id":7076,"name":"Ross Creek","latitude":-37.65,"longitude":143.75},{"id":7083,"name":"Rowville","latitude":-37.93333,"longitude":145.23333},{"id":7084,"name":"Roxburgh Park","latitude":-37.62581,"longitude":144.92555},{"id":7094,"name":"Rushworth","latitude":-36.58669,"longitude":145.0175},{"id":7099,"name":"Rutherglen","latitude":-36.0543,"longitude":146.46212},{"id":7102,"name":"Rye","latitude":-38.38528,"longitude":144.81221},{"id":7107,"name":"Safety Beach","latitude":-38.31535,"longitude":145.00027},{"id":7108,"name":"Saint Albans","latitude":-37.73333,"longitude":144.8},{"id":7109,"name":"Saint Andrews","latitude":-37.60151,"longitude":145.27235},{"id":7110,"name":"Saint Andrews Beach","latitude":-38.4141,"longitude":144.82436},{"id":7111,"name":"Saint Helena","latitude":-37.7,"longitude":145.13333},{"id":7113,"name":"Saint Kilda","latitude":-37.8676,"longitude":144.98099},{"id":7114,"name":"Saint Leonards","latitude":-38.17051,"longitude":144.71803},{"id":7118,"name":"Sale","latitude":-38.11095,"longitude":147.06802},{"id":7131,"name":"San Remo","latitude":-38.52547,"longitude":145.37616},{"id":7136,"name":"Sandhurst","latitude":-38.081,"longitude":145.20767},{"id":7137,"name":"Sandringham","latitude":-37.95218,"longitude":145.01129},{"id":7147,"name":"Sassafras","latitude":-37.86667,"longitude":145.35},{"id":7155,"name":"Scoresby","latitude":-37.9,"longitude":145.23333},{"id":7158,"name":"Seabrook","latitude":-37.88092,"longitude":144.75866},{"id":7163,"name":"Seaford","latitude":-38.1,"longitude":145.13333},{"id":7168,"name":"Seaholme","latitude":-37.864,"longitude":144.84504},{"id":7171,"name":"Sebastopol","latitude":-37.58532,"longitude":143.83953},{"id":7173,"name":"Seddon","latitude":-37.80607,"longitude":144.8907},{"id":7176,"name":"Selby","latitude":-37.91667,"longitude":145.38333},{"id":7187,"name":"Seville","latitude":-37.79802,"longitude":145.48763},{"id":7189,"name":"Seymour","latitude":-37.02655,"longitude":145.13924},{"id":7203,"name":"Shepparton","latitude":-36.38047,"longitude":145.39867},{"id":7204,"name":"Shepparton East","latitude":-36.40156,"longitude":145.47765},{"id":7213,"name":"Silvan","latitude":-37.81667,"longitude":145.41667},{"id":7224,"name":"Skye","latitude":-38.10505,"longitude":145.2163},{"id":7232,"name":"Smythes Creek","latitude":-37.6,"longitude":143.78333},{"id":7233,"name":"Smythesdale","latitude":-37.64308,"longitude":143.68617},{"id":7235,"name":"Soldiers Hill","latitude":-37.54962,"longitude":143.85872},{"id":7239,"name":"Somers","latitude":-38.38134,"longitude":145.15898},{"id":7244,"name":"Somerville","latitude":-38.21667,"longitude":145.16667},{"id":7247,"name":"Sorrento","latitude":-38.33958,"longitude":144.74126},{"id":7259,"name":"South Gippsland","latitude":-38.69897,"longitude":146.06702},{"id":7269,"name":"South Kingsville","latitude":-37.83018,"longitude":144.8709},{"id":7276,"name":"South Melbourne","latitude":-37.83333,"longitude":144.96667},{"id":7277,"name":"South Morang","latitude":-37.65,"longitude":145.1},{"id":7290,"name":"South Yarra","latitude":-37.83834,"longitude":144.99149},{"id":7292,"name":"Southbank","latitude":-37.8228,"longitude":144.96434},{"id":7294,"name":"Southern Grampians","latitude":-37.52989,"longitude":142.02533},{"id":7305,"name":"Spotswood","latitude":-37.82975,"longitude":144.88516},{"id":7313,"name":"Springvale","latitude":-37.94853,"longitude":145.15274},{"id":7315,"name":"Springvale South","latitude":-37.96667,"longitude":145.15},{"id":7319,"name":"St Albans Park","latitude":-38.18802,"longitude":144.39207},{"id":7325,"name":"St Helena","latitude":-37.68988,"longitude":145.12315},{"id":7332,"name":"St Kilda East","latitude":-37.86594,"longitude":145.00018},{"id":7333,"name":"St Kilda West","latitude":-37.85988,"longitude":144.97108},{"id":7345,"name":"Stawell","latitude":-37.05632,"longitude":142.78088},{"id":7352,"name":"Stonnington","latitude":-37.8613,"longitude":145.03776},{"id":7354,"name":"Stratford","latitude":-37.9634,"longitude":147.0826},{"id":7357,"name":"Strathbogie","latitude":-36.72402,"longitude":145.32938},{"id":7358,"name":"Strathdale","latitude":-36.76572,"longitude":144.31548},{"id":7361,"name":"Strathfieldsaye","latitude":-36.80667,"longitude":144.35487},{"id":7362,"name":"Strathmerton","latitude":-35.92533,"longitude":145.47865},{"id":7363,"name":"Strathmore","latitude":-37.73563,"longitude":144.92065},{"id":7378,"name":"Sunbury","latitude":-37.57742,"longitude":144.72607},{"id":7384,"name":"Sunshine","latitude":-37.78333,"longitude":144.83333},{"id":7388,"name":"Sunshine North","latitude":-37.76987,"longitude":144.82787},{"id":7389,"name":"Sunshine West","latitude":-37.79117,"longitude":144.81637},{"id":7390,"name":"Surf Coast","latitude":-38.33997,"longitude":144.1153},{"id":7394,"name":"Surrey Hills","latitude":-37.81667,"longitude":145.1},{"id":7402,"name":"Swan Hill","latitude":-35.10061,"longitude":143.1681},{"id":7406,"name":"Sydenham","latitude":-37.7,"longitude":144.76667},{"id":7418,"name":"Tallangatta","latitude":-36.21791,"longitude":147.17699},{"id":7440,"name":"Tarneit","latitude":-37.83634,"longitude":144.65952},{"id":7450,"name":"Tatura","latitude":-36.43962,"longitude":145.22994},{"id":7451,"name":"Taylors Hill","latitude":-37.70988,"longitude":144.75483},{"id":7452,"name":"Taylors Lakes","latitude":-37.69863,"longitude":144.78631},{"id":7455,"name":"Tecoma","latitude":-37.90303,"longitude":145.34468},{"id":7456,"name":"Teesdale","latitude":-38.03333,"longitude":144.05},{"id":7464,"name":"Templestowe","latitude":-37.75405,"longitude":145.14864},{"id":7465,"name":"Templestowe Lower","latitude":-37.76667,"longitude":145.11667},{"id":7474,"name":"Terang","latitude":-38.24084,"longitude":142.92123},{"id":7480,"name":"The Basin","latitude":-37.85,"longitude":145.31667},{"id":7491,"name":"The Patch","latitude":-37.89187,"longitude":145.40216},{"id":7501,"name":"Thomastown","latitude":-37.68333,"longitude":145.01667},{"id":7502,"name":"Thomson","latitude":-38.16984,"longitude":144.3789},{"id":7503,"name":"Thornbury","latitude":-37.75819,"longitude":145.00583},{"id":7514,"name":"Timboon","latitude":-38.48434,"longitude":142.98033},{"id":7529,"name":"Tongala","latitude":-36.25466,"longitude":144.95622},{"id":7534,"name":"Tooradin","latitude":-38.21475,"longitude":145.38325},{"id":7535,"name":"Toorak","latitude":-37.84165,"longitude":145.01438},{"id":7538,"name":"Tootgarook","latitude":-38.3777,"longitude":144.85015},{"id":7543,"name":"Torquay","latitude":-38.33085,"longitude":144.32638},{"id":7552,"name":"Towong","latitude":-36.36587,"longitude":147.62717},{"id":7554,"name":"Trafalgar","latitude":-38.20906,"longitude":146.15347},{"id":7558,"name":"Traralgon","latitude":-38.19528,"longitude":146.5415},{"id":7559,"name":"Travancore","latitude":-37.78076,"longitude":144.93545},{"id":7562,"name":"Trentham","latitude":-37.38876,"longitude":144.32164},{"id":7569,"name":"Truganina","latitude":-37.81667,"longitude":144.75},{"id":7574,"name":"Tullamarine","latitude":-37.70128,"longitude":144.881},{"id":7596,"name":"Tyabb","latitude":-38.25,"longitude":145.18333},{"id":7614,"name":"Upwey","latitude":-37.9,"longitude":145.33333},{"id":7629,"name":"Vermont","latitude":-37.83616,"longitude":145.19428},{"id":7630,"name":"Vermont South","latitude":-37.85747,"longitude":145.1827},{"id":7636,"name":"Viewbank","latitude":-37.73991,"longitude":145.09323},{"id":7655,"name":"Wahgunyah","latitude":-36.01178,"longitude":146.39714},{"id":7671,"name":"Wallan","latitude":-37.41625,"longitude":144.97859},{"id":7674,"name":"Wallington","latitude":-38.22641,"longitude":144.51199},{"id":7681,"name":"Wandana Heights","latitude":-38.17577,"longitude":144.30387},{"id":7684,"name":"Wandin North","latitude":-37.78333,"longitude":145.43333},{"id":7687,"name":"Wandong","latitude":-37.3719,"longitude":145.03207},{"id":7688,"name":"Wangaratta","latitude":-36.61599,"longitude":146.42839},{"id":7694,"name":"Wantirna","latitude":-37.85,"longitude":145.21667},{"id":7695,"name":"Wantirna South","latitude":-37.88333,"longitude":145.21667},{"id":7702,"name":"Warburton","latitude":-37.75375,"longitude":145.69037},{"id":7710,"name":"Warracknabeal","latitude":-36.25326,"longitude":142.39281},{"id":7713,"name":"Warragul","latitude":-38.15912,"longitude":145.93118},{"id":7714,"name":"Warrandyte","latitude":-37.75,"longitude":145.23333},{"id":7716,"name":"Warranwood","latitude":-37.77555,"longitude":145.24728},{"id":7723,"name":"Warrnambool","latitude":-38.38176,"longitude":142.48799},{"id":7734,"name":"Waterways","latitude":-38.01478,"longitude":145.1305},{"id":7736,"name":"Watsonia","latitude":-37.71667,"longitude":145.08333},{"id":7737,"name":"Watsonia North","latitude":-37.69981,"longitude":145.08468},{"id":7743,"name":"Wattleglen","latitude":-37.66667,"longitude":145.18333},{"id":7745,"name":"Waurn Ponds","latitude":-38.21667,"longitude":144.28333},{"id":7757,"name":"Wellington","latitude":-38.03765,"longitude":147.01697},{"id":7762,"name":"Wendouree","latitude":-37.53078,"longitude":143.82838},{"id":7767,"name":"Werribee","latitude":-37.9,"longitude":144.66667},{"id":7768,"name":"Werribee South","latitude":-37.9475,"longitude":144.71667},{"id":7773,"name":"Wesburn","latitude":-37.76667,"longitude":145.63333},{"id":7785,"name":"West Footscray","latitude":-37.79746,"longitude":144.87727},{"id":7799,"name":"West Melbourne","latitude":-37.81014,"longitude":144.95},{"id":7811,"name":"West Wimmera","latitude":-36.59921,"longitude":141.40038},{"id":7812,"name":"West Wodonga","latitude":-36.12346,"longitude":146.85193},{"id":7825,"name":"Westmeadows","latitude":-37.67604,"longitude":144.88701},{"id":7832,"name":"Wheelers Hill","latitude":-37.9,"longitude":145.18333},{"id":7834,"name":"White Hills","latitude":-36.72875,"longitude":144.30525},{"id":7837,"name":"Whitehorse","latitude":-37.82868,"longitude":145.15432},{"id":7841,"name":"Whittington","latitude":-38.1808,"longitude":144.39322},{"id":7842,"name":"Whittlesea","latitude":-37.55087,"longitude":145.09375},{"id":7857,"name":"Williams Landing","latitude":-37.8619,"longitude":144.74371},{"id":7858,"name":"Williamstown","latitude":-37.86349,"longitude":144.899},{"id":7860,"name":"Williamstown North","latitude":-37.85515,"longitude":144.88259},{"id":7874,"name":"Winchelsea","latitude":-38.24485,"longitude":143.98322},{"id":7879,"name":"Windsor","latitude":-37.85344,"longitude":144.99241},{"id":7895,"name":"Wodonga","latitude":-36.14469,"longitude":146.88818},{"id":7896,"name":"Wollert","latitude":-37.58333,"longitude":145.03333},{"id":7905,"name":"Wonga Park","latitude":-37.73333,"longitude":145.26667},{"id":7909,"name":"Wonthaggi","latitude":-38.60586,"longitude":145.59355},{"id":7917,"name":"Woodend","latitude":-37.35469,"longitude":144.52902},{"id":7945,"name":"Woori Yallock","latitude":-37.78062,"longitude":145.53819},{"id":7962,"name":"Wurruk","latitude":-38.11667,"longitude":147.03333},{"id":7965,"name":"Wy Yung","latitude":-37.8,"longitude":147.58333},{"id":7969,"name":"Wyndham","latitude":-37.8928,"longitude":144.63573},{"id":7970,"name":"Wyndham Vale","latitude":-37.89138,"longitude":144.62368},{"id":7980,"name":"Yackandandah","latitude":-36.31371,"longitude":146.83958},{"id":7984,"name":"Yallambie","latitude":-37.72515,"longitude":145.09352},{"id":7986,"name":"Yallourn North","latitude":-38.16053,"longitude":146.36449},{"id":7995,"name":"Yarra","latitude":-37.80178,"longitude":144.99593},{"id":7996,"name":"Yarra Glen","latitude":-37.65794,"longitude":145.37416},{"id":7997,"name":"Yarra Junction","latitude":-37.78192,"longitude":145.6143},{"id":7998,"name":"Yarra Ranges","latitude":-37.75006,"longitude":145.73708},{"id":8001,"name":"Yarragon","latitude":-38.20525,"longitude":146.06079},{"id":8003,"name":"Yarram","latitude":-38.56479,"longitude":146.67557},{"id":8005,"name":"Yarrambat","latitude":-37.63751,"longitude":145.13486},{"id":8007,"name":"Yarraville","latitude":-37.81667,"longitude":144.9},{"id":8009,"name":"Yarrawonga","latitude":-36.01923,"longitude":145.99973},{"id":8010,"name":"Yarriambiack","latitude":-36.02618,"longitude":142.40452},{"id":8014,"name":"Yea","latitude":-37.21067,"longitude":145.42755}]