[{"id":57643,"name":"Almora","latitude":29.69223,"longitude":79.49789},{"id":57800,"name":"Bageshwar","latitude":29.97315,"longitude":79.83224},{"id":57879,"name":"Barkot","latitude":30.80861,"longitude":78.20596},{"id":58153,"name":"Bazpur","latitude":29.15299,"longitude":79.10814},{"id":58020,"name":"Bhim Tal","latitude":29.34447,"longitude":79.56336},{"id":57998,"name":"Bhowali","latitude":29.38985,"longitude":79.50481},{"id":58059,"name":"Birbhaddar","latitude":30.0712,"longitude":78.28189},{"id":58176,"name":"Chakrata","latitude":30.70369,"longitude":77.86386},{"id":58182,"name":"Chamoli","latitude":30.5,"longitude":79.5},{"id":58183,"name":"Champawat","latitude":29.28756,"longitude":80.03737},{"id":131615,"name":"Clement Town","latitude":30.26361,"longitude":78.00862},{"id":131676,"name":"Dehradun","latitude":30.33,"longitude":78.06},{"id":131702,"name":"Devaprayag","latitude":30.14603,"longitude":78.60272},{"id":131754,"name":"Dharchula","latitude":29.84707,"longitude":80.51951},{"id":131784,"name":"Doiwala","latitude":30.17667,"longitude":78.11659},{"id":131793,"name":"Dugadda","latitude":29.80673,"longitude":78.61109},{"id":131804,"name":"Dwarahat","latitude":29.77785,"longitude":79.42731},{"id":131923,"name":"Garhwal","latitude":29.96366,"longitude":78.92853},{"id":132058,"name":"Haldwani","latitude":29.22254,"longitude":79.5286},{"id":132069,"name":"Harbatpur","latitude":30.43863,"longitude":77.74058},{"id":132075,"name":"Haridwar","latitude":29.94791,"longitude":78.16025},{"id":132247,"name":"Jaspur","latitude":29.27919,"longitude":78.82798},{"id":132296,"name":"Joshimath","latitude":30.55543,"longitude":79.56436},{"id":132685,"name":"Kaladhungi","latitude":29.28351,"longitude":79.351},{"id":132686,"name":"Kalagarh Project Colony","latitude":29.4778,"longitude":78.78449},{"id":132418,"name":"Kashipur","latitude":29.21399,"longitude":78.95693},{"id":132484,"name":"Khatima","latitude":28.92134,"longitude":79.97075},{"id":132521,"name":"Kichha","latitude":28.91154,"longitude":79.52009},{"id":132597,"name":"Kotdwara","latitude":29.74612,"longitude":78.52219},{"id":132749,"name":"Laksar","latitude":29.7587,"longitude":78.04148},{"id":132756,"name":"Lansdowne","latitude":29.84183,"longitude":78.68014},{"id":132767,"name":"Lohaghat","latitude":29.40356,"longitude":80.08965},{"id":132908,"name":"Manglaur","latitude":29.79094,"longitude":77.87836},{"id":133046,"name":"Mussoorie","latitude":30.45498,"longitude":78.07068},{"id":133123,"name":"Naini Tal","latitude":29.39743,"longitude":79.44686},{"id":133166,"name":"Narendranagar","latitude":30.16173,"longitude":78.28712},{"id":133394,"name":"Pauri","latitude":30.15286,"longitude":78.7771},{"id":133563,"name":"Pipalkoti","latitude":30.42553,"longitude":79.43066},{"id":133464,"name":"Pithoragarh","latitude":30.0,"longitude":80.25},{"id":133666,"name":"Raipur","latitude":30.31097,"longitude":78.08979},{"id":133735,"name":"Raiwala Bara","latitude":30.01864,"longitude":78.2293},{"id":133703,"name":"Ramnagar","latitude":29.3925,"longitude":79.1283},{"id":133716,"name":"Ranikhet","latitude":29.64082,"longitude":79.43229},{"id":133638,"name":"Rishikesh","latitude":30.10778,"longitude":78.29255},{"id":133650,"name":"Roorkee","latitude":29.86632,"longitude":77.89118},{"id":133652,"name":"Rudraprayag","latitude":30.60872,"longitude":79.06517},{"id":133973,"name":"Sitarganj","latitude":28.9293,"longitude":79.70436},{"id":134027,"name":"Srinagar","latitude":30.22243,"longitude":78.78341},{"id":134038,"name":"Sultanpur","latitude":29.75534,"longitude":78.11034},{"id":134110,"name":"Tanakpur","latitude":29.074,"longitude":80.11139},{"id":134122,"name":"Tehri","latitude":30.39086,"longitude":78.4803},{"id":134123,"name":"Tehri-Garhwal","latitude":30.5,"longitude":78.66667},{"id":134256,"name":"Udham Singh Nagar","latitude":29.02746,"longitude":79.52347},{"id":134301,"name":"Uttarkashi","latitude":30.72986,"longitude":78.44342},{"id":134360,"name":"Vikasnagar","latitude":30.46944,"longitude":77.77275}]