[{"id":15654,"name":"Água Clara","latitude":-19.89787,"longitude":-52.95089},{"id":10117,"name":"Alcinópolis","latitude":-18.19955,"longitude":-53.75814},{"id":10202,"name":"Amambai","latitude":-23.1271,"longitude":-54.9579},{"id":10238,"name":"Anastácio","latitude":-20.76269,"longitude":-55.73052},{"id":10239,"name":"Anaurilândia","latitude":-22.14199,"longitude":-52.72011},{"id":10259,"name":"Angélica","latitude":-22.0278,"longitude":-53.86668},{"id":10277,"name":"Antônio João","latitude":-22.20114,"longitude":-55.93897},{"id":10290,"name":"Aparecida do Taboado","latitude":-20.00909,"longitude":-51.34632},{"id":10305,"name":"Aquidauana","latitude":-20.4579,"longitude":-55.83801},{"id":10329,"name":"Aral Moreira","latitude":-22.90946,"longitude":-55.37007},{"id":10501,"name":"Bandeirantes","latitude":-19.80863,"longitude":-54.33095},{"id":10579,"name":"Bataguassu","latitude":-21.7855,"longitude":-52.56542},{"id":10580,"name":"Bataiporã","latitude":-22.29528,"longitude":-53.27111},{"id":10584,"name":"Batayporã","latitude":-22.46496,"longitude":-53.17683},{"id":10594,"name":"Bela Vista","latitude":-22.10889,"longitude":-56.52111},{"id":10686,"name":"Bodoquena","latitude":-20.48226,"longitude":-56.65893},{"id":10737,"name":"Bonito","latitude":-21.12111,"longitude":-56.48194},{"id":10770,"name":"Brasilândia","latitude":-21.11993,"longitude":-52.43829},{"id":10843,"name":"Caarapó","latitude":-22.63417,"longitude":-54.82222},{"id":10939,"name":"Camapuã","latitude":-19.05769,"longitude":-53.85781},{"id":10989,"name":"Campo Grande","latitude":-20.44278,"longitude":-54.64639},{"id":11003,"name":"Campo Verde","latitude":-20.41667,"longitude":-54.06667},{"id":11102,"name":"Caracol","latitude":-21.96712,"longitude":-57.12672},{"id":11183,"name":"Cassilândia","latitude":-19.11333,"longitude":-51.73417},{"id":11268,"name":"Chapadão do Sul","latitude":-19.06696,"longitude":-52.74056},{"id":11407,"name":"Corguinho","latitude":-19.81861,"longitude":-55.00199},{"id":11429,"name":"Coronel Sapucaia","latitude":-23.33759,"longitude":-55.38899},{"id":11442,"name":"Corumbá","latitude":-19.00917,"longitude":-57.65333},{"id":11449,"name":"Costa Rica","latitude":-18.63739,"longitude":-53.27361},{"id":11458,"name":"Coxim","latitude":-18.50667,"longitude":-54.76},{"id":11573,"name":"Deodápolis","latitude":-22.0804,"longitude":-54.20322},{"id":11616,"name":"Dois Irmãos do Buriti","latitude":-20.57189,"longitude":-55.36839},{"id":11651,"name":"Douradina","latitude":-21.98525,"longitude":-54.58145},{"id":11654,"name":"Dourados","latitude":-22.22111,"longitude":-54.80556},{"id":11677,"name":"Eldorado","latitude":-23.78694,"longitude":-54.28361},{"id":11908,"name":"Fátima do Sul","latitude":-22.34424,"longitude":-54.37064},{"id":11817,"name":"Figueirão","latitude":-18.675,"longitude":-53.6425},{"id":11952,"name":"Glória de Dourados","latitude":-22.48388,"longitude":-54.09006},{"id":12079,"name":"Guia Lopes da Laguna","latitude":-21.61081,"longitude":-55.93458},{"id":12200,"name":"Iguatemi","latitude":-23.42596,"longitude":-54.55844},{"id":12255,"name":"Inocência","latitude":-19.6715,"longitude":-52.04393},{"id":12433,"name":"Itaporã","latitude":-21.92184,"longitude":-54.81409},{"id":12445,"name":"Itaquiraí","latitude":-23.4708,"longitude":-54.19281},{"id":12502,"name":"Ivinhema","latitude":-22.38076,"longitude":-53.75565},{"id":12574,"name":"Japorã","latitude":-23.7941,"longitude":-54.54402},{"id":12579,"name":"Jaraguari","latitude":-20.27238,"longitude":-54.23743},{"id":12583,"name":"Jardim","latitude":-21.48028,"longitude":-56.13806},{"id":12600,"name":"Jateí","latitude":-22.73989,"longitude":-53.81496},{"id":12711,"name":"Juti","latitude":-22.85356,"longitude":-54.52155},{"id":12723,"name":"Ladário","latitude":-19.10505,"longitude":-57.58416},{"id":12772,"name":"Laguna Carapã","latitude":-22.71043,"longitude":-55.08248},{"id":12966,"name":"Maracaju","latitude":-21.61444,"longitude":-55.16833},{"id":13138,"name":"Miranda","latitude":-20.24056,"longitude":-56.37833},{"id":13270,"name":"Mundo Novo","latitude":-23.92628,"longitude":-54.25746},{"id":13307,"name":"Naviraí","latitude":-23.065,"longitude":-54.19056},{"id":13328,"name":"Nioaque","latitude":-21.18151,"longitude":-55.75856},{"id":13348,"name":"Nova Alvorada do Sul","latitude":-21.48079,"longitude":-54.1526},{"id":13351,"name":"Nova Andradina","latitude":-21.88205,"longitude":-53.46637},{"id":13465,"name":"Novo Horizonte do Sul","latitude":-22.63068,"longitude":-53.73643},{"id":13661,"name":"Paraíso das Águas","latitude":-19.0175,"longitude":-53.01222},{"id":13645,"name":"Paranaíba","latitude":-19.67722,"longitude":-51.19083},{"id":13647,"name":"Paranhos","latitude":-23.89278,"longitude":-55.43111},{"id":13776,"name":"Pedro Gomes","latitude":-17.83882,"longitude":-54.12943},{"id":13958,"name":"Ponta Porã","latitude":-22.53611,"longitude":-55.72556},{"id":14123,"name":"Pôrto Barra do Ivinheima","latitude":-22.96667,"longitude":-53.66667},{"id":14011,"name":"Porto Murtinho","latitude":-21.69889,"longitude":-57.8825},{"id":14230,"name":"Ribas do Rio Pardo","latitude":-20.44306,"longitude":-53.75917},{"id":14267,"name":"Rio Brilhante","latitude":-21.80194,"longitude":-54.54639},{"id":14284,"name":"Rio Negro","latitude":-19.4462,"longitude":-54.97947},{"id":14301,"name":"Rio Verde de Mato Grosso","latitude":-18.91806,"longitude":-54.84417},{"id":14326,"name":"Rochedo","latitude":-19.98799,"longitude":-54.78184},{"id":14535,"name":"Santa Rita do Pardo","latitude":-21.35479,"longitude":-52.69315},{"id":14911,"name":"São Gabriel do Oeste","latitude":-19.1317,"longitude":-54.44865},{"id":14690,"name":"Selvíria","latitude":-20.24958,"longitude":-51.83228},{"id":14766,"name":"Sete Quedas","latitude":-23.88066,"longitude":-55.02727},{"id":14773,"name":"Sidrolândia","latitude":-20.93194,"longitude":-54.96139},{"id":14809,"name":"Sonora","latitude":-17.67403,"longitude":-54.45326},{"id":15197,"name":"Tacuru","latitude":-23.68722,"longitude":-54.91099},{"id":15250,"name":"Taquarussu","latitude":-22.73419,"longitude":-53.48002},{"id":15283,"name":"Terenos","latitude":-20.42068,"longitude":-55.10602},{"id":15377,"name":"Três Lagoas","latitude":-20.37964,"longitude":-52.25961},{"id":15556,"name":"Vicentina","latitude":-22.49155,"longitude":-54.46183}]