[{"id":77168,"name":"Ciudad Darío","latitude":12.73143,"longitude":-86.12402},{"id":77217,"name":"Matagalpa","latitude":12.92559,"longitude":-85.91747},{"id":77218,"name":"Matiguás","latitude":12.83734,"longitude":-85.46218},{"id":77238,"name":"Muy Muy","latitude":12.76224,"longitude":-85.62915},{"id":77254,"name":"Río Blanco","latitude":12.93435,"longitude":-85.22354},{"id":77256,"name":"San Dionisio","latitude":12.76023,"longitude":-85.85018},{"id":77271,"name":"San Ramón","latitude":12.92344,"longitude":-85.83898},{"id":77284,"name":"Terrabona","latitude":12.73028,"longitude":-85.96474}]