[{"id":90438,"name":"Bâcleș","latitude":44.48333,"longitude":23.13333},{"id":90031,"name":"Baia de Aramă","latitude":44.99929,"longitude":22.80784},{"id":90036,"name":"Bala","latitude":44.88389,"longitude":22.83333},{"id":90523,"name":"Bălăciţa","latitude":44.38333,"longitude":23.13333},{"id":90046,"name":"Balta","latitude":44.88694,"longitude":22.63694},{"id":90049,"name":"Balta Verde","latitude":44.34411,"longitude":22.59878},{"id":90444,"name":"Bâlvăneşti","latitude":44.7975,"longitude":22.68028},{"id":90149,"name":"Bistrița","latitude":44.58511,"longitude":22.78762},{"id":90272,"name":"Braniștea","latitude":44.24201,"longitude":22.97354},{"id":90299,"name":"Brezniţa Ocol","latitude":44.66667,"longitude":22.61833},{"id":90300,"name":"Brezniţa-Motru","latitude":44.56667,"longitude":23.21667},{"id":90310,"name":"Broşteni","latitude":44.76083,"longitude":22.97944},{"id":90417,"name":"Burila Mare","latitude":44.45278,"longitude":22.57361},{"id":90428,"name":"Butoieşti","latitude":44.58333,"longitude":23.36667},{"id":93883,"name":"Căzăneşti","latitude":44.72333,"longitude":22.89056},{"id":90634,"name":"Cerneți","latitude":44.63476,"longitude":22.70931},{"id":90708,"name":"Ciochiuța","latitude":44.60306,"longitude":23.11698},{"id":90725,"name":"Cioroboreni","latitude":44.38877,"longitude":22.76326},{"id":90732,"name":"Cireşu","latitude":44.82333,"longitude":22.53806},{"id":90808,"name":"Comanda","latitude":44.64863,"longitude":23.16413},{"id":91181,"name":"Comuna Bâcleş","latitude":44.48031,"longitude":23.12207},{"id":90920,"name":"Comuna Bala","latitude":44.89479,"longitude":22.83235},{"id":91224,"name":"Comuna Bălăciţa","latitude":44.3904,"longitude":23.12095},{"id":90928,"name":"Comuna Balta","latitude":44.90652,"longitude":22.61789},{"id":91183,"name":"Comuna Bâlvăneşti","latitude":44.79756,"longitude":22.68313},{"id":91080,"name":"Comuna Braniştea","latitude":44.23768,"longitude":22.96793},{"id":91097,"name":"Comuna Brezniţa Ocol","latitude":44.69266,"longitude":22.60992},{"id":91098,"name":"Comuna Brezniţa-Motru","latitude":44.55668,"longitude":23.24187},{"id":91103,"name":"Comuna Broşteni","latitude":44.74698,"longitude":22.99083},{"id":91169,"name":"Comuna Burila Mare","latitude":44.47835,"longitude":22.54915},{"id":91176,"name":"Comuna Butoieşti","latitude":44.57037,"longitude":23.37587},{"id":91597,"name":"Comuna Căzăneşti","latitude":44.70475,"longitude":22.90575},{"id":91360,"name":"Comuna Cireşu","latitude":44.81995,"longitude":22.54058},{"id":91431,"name":"Comuna Corcova","latitude":44.67794,"longitude":23.07843},{"id":91434,"name":"Comuna Corlăţel","latitude":44.38101,"longitude":22.92847},{"id":91522,"name":"Comuna Cujmir","latitude":44.19723,"longitude":22.93125},{"id":91730,"name":"Comuna Dârvari","latitude":44.18184,"longitude":23.06648},{"id":91619,"name":"Comuna Devesel","latitude":44.48787,"longitude":22.67669},{"id":91704,"name":"Comuna Dubova","latitude":44.57284,"longitude":22.18226},{"id":91712,"name":"Comuna Dumbrava","latitude":44.52117,"longitude":23.13564},{"id":91752,"name":"Comuna Eşelniţa","latitude":44.69905,"longitude":22.36577},{"id":91772,"name":"Comuna Floreşti","latitude":44.79545,"longitude":22.90986},{"id":91973,"name":"Comuna Gârla Mare","latitude":44.21087,"longitude":22.77696},{"id":91887,"name":"Comuna Godeanu","latitude":44.80808,"longitude":22.6087},{"id":91892,"name":"Comuna Gogoşu","latitude":44.3793,"longitude":22.57357},{"id":91916,"name":"Comuna Greci","latitude":44.57162,"longitude":23.10745},{"id":91926,"name":"Comuna Grozeşti","latitude":44.63649,"longitude":23.33206},{"id":91930,"name":"Comuna Gruia","latitude":44.28593,"longitude":22.72949},{"id":92002,"name":"Comuna Hinova","latitude":44.54565,"longitude":22.77675},{"id":92031,"name":"Comuna Husnicioara","latitude":44.66283,"longitude":22.83939},{"id":92074,"name":"Comuna Ilovăt","latitude":44.81543,"longitude":22.73749},{"id":92073,"name":"Comuna Iloviţa","latitude":44.78026,"longitude":22.49234},{"id":92095,"name":"Comuna Isverna","latitude":44.96572,"longitude":22.67037},{"id":92111,"name":"Comuna Izvoru Bârzii","latitude":44.7083,"longitude":22.67003},{"id":92118,"name":"Comuna Jiana","latitude":44.39156,"longitude":22.71076},{"id":92179,"name":"Comuna Livezile","latitude":44.54482,"longitude":22.86644},{"id":92234,"name":"Comuna Malovãţ","latitude":44.72156,"longitude":22.74546},{"id":92474,"name":"Comuna Obârşia De Câmp","latitude":44.17507,"longitude":22.97076},{"id":92475,"name":"Comuna Obârşia-Cloşani","latitude":45.01667,"longitude":22.68333},{"id":92503,"name":"Comuna Oprişor","latitude":44.30105,"longitude":23.08646},{"id":92529,"name":"Comuna Padina","latitude":44.43776,"longitude":23.01426},{"id":92724,"name":"Comuna Pătulele","latitude":44.34984,"longitude":22.80368},{"id":92612,"name":"Comuna Podeni","latitude":44.89218,"longitude":22.55503},{"id":92650,"name":"Comuna Ponoarele","latitude":44.97347,"longitude":22.75676},{"id":92659,"name":"Comuna Poroina Mare","latitude":44.49516,"longitude":22.94161},{"id":92678,"name":"Comuna Pristol","latitude":44.2208,"longitude":22.712},{"id":92687,"name":"Comuna Prunişor","latitude":44.6003,"longitude":22.90476},{"id":92697,"name":"Comuna Punghina","latitude":44.29534,"longitude":22.96318},{"id":92779,"name":"Comuna Rogova","latitude":44.47076,"longitude":22.82951},{"id":92865,"name":"Comuna Salcia","latitude":44.14124,"longitude":22.93048},{"id":92935,"name":"Comuna Simian","latitude":44.62736,"longitude":22.74227},{"id":92945,"name":"Comuna Siseşti","latitude":44.77146,"longitude":22.83754},{"id":92978,"name":"Comuna Sovarna","latitude":44.84837,"longitude":22.81235},{"id":93014,"name":"Comuna Stângăceaua","latitude":44.60024,"longitude":23.29263},{"id":93043,"name":"Comuna Sviniţa","latitude":44.50013,"longitude":22.10488},{"id":93223,"name":"Comuna Tâmna","latitude":44.56147,"longitude":23.00793},{"id":93433,"name":"Comuna Vânători","latitude":44.24781,"longitude":22.92979},{"id":93431,"name":"Comuna Vânjuleţ","latitude":44.43124,"longitude":22.80212},{"id":93384,"name":"Comuna Vlădaia","latitude":44.36108,"longitude":23.03758},{"id":93403,"name":"Comuna Voloiac","latitude":44.63241,"longitude":23.05948},{"id":93410,"name":"Comuna Vrata","latitude":44.19197,"longitude":22.84928},{"id":93622,"name":"Corcova","latitude":44.7,"longitude":23.05},{"id":93628,"name":"Corlăţel","latitude":44.39861,"longitude":22.93306},{"id":93766,"name":"Cujmir","latitude":44.20667,"longitude":22.92667},{"id":94123,"name":"Dănceu","latitude":44.36416,"longitude":22.72098},{"id":94111,"name":"Dârvari","latitude":44.2,"longitude":23.05},{"id":93929,"name":"Devesel","latitude":44.46889,"longitude":22.66722},{"id":94032,"name":"Drobeta-Turnu Severin","latitude":44.62693,"longitude":22.65288},{"id":94066,"name":"Dubova","latitude":44.61667,"longitude":22.26667},{"id":94068,"name":"Dudașu","latitude":44.65253,"longitude":22.69683},{"id":94082,"name":"Dumbrava de Sus","latitude":44.51667,"longitude":23.11667},{"id":94147,"name":"Eşelniţa","latitude":44.69917,"longitude":22.36222},{"id":94184,"name":"Floreşti","latitude":44.76306,"longitude":22.94778},{"id":94491,"name":"Gârla-Mare","latitude":44.20917,"longitude":22.775},{"id":94290,"name":"Gemeni","latitude":44.17265,"longitude":23.08251},{"id":94367,"name":"Godeanu","latitude":44.80111,"longitude":22.60861},{"id":94372,"name":"Gogoşu","latitude":44.37389,"longitude":22.59306},{"id":94408,"name":"Greci","latitude":44.55,"longitude":23.11667},{"id":94423,"name":"Grozeşti","latitude":44.65,"longitude":23.31667},{"id":94429,"name":"Gruia","latitude":44.2675,"longitude":22.70472},{"id":94466,"name":"Gura Văii","latitude":44.66732,"longitude":22.55646},{"id":94475,"name":"Gvardinița","latitude":44.39505,"longitude":23.14635},{"id":94520,"name":"Halânga","latitude":44.68116,"longitude":22.69037},{"id":94537,"name":"Hinova","latitude":44.54056,"longitude":22.77694},{"id":94585,"name":"Husnicioara","latitude":44.67806,"longitude":22.8425},{"id":94660,"name":"Ilovăț","latitude":44.81197,"longitude":22.76333},{"id":94659,"name":"Iloviţa","latitude":44.75639,"longitude":22.47278},{"id":94693,"name":"Isverna","latitude":44.97972,"longitude":22.62917},{"id":94700,"name":"Izimșa","latitude":44.17819,"longitude":22.95649},{"id":94709,"name":"Izvoarele","latitude":44.30958,"longitude":22.66348},{"id":94717,"name":"Izvoru Bârzii","latitude":44.70667,"longitude":22.67417},{"id":94726,"name":"Jiana","latitude":44.40184,"longitude":22.71278},{"id":94727,"name":"Jiana Veche","latitude":44.39083,"longitude":22.66861},{"id":94732,"name":"Jidoștița","latitude":44.71582,"longitude":22.59311},{"id":94741,"name":"Jirov","latitude":44.67098,"longitude":23.08693},{"id":94822,"name":"Livezile","latitude":44.51222,"longitude":22.86333},{"id":94914,"name":"Malovăţ","latitude":44.70444,"longitude":22.73111},{"id":95138,"name":"Municipiul Drobeta-Turnu Severin","latitude":44.64287,"longitude":22.60669},{"id":95165,"name":"Municipiul Orşova","latitude":44.7252,"longitude":22.39771},{"id":95334,"name":"Nicolae Bălcescu","latitude":44.37427,"longitude":22.85837},{"id":95391,"name":"Obârșia de Câmp","latitude":44.17222,"longitude":22.98},{"id":95390,"name":"Obârşia-Cloşani","latitude":45.01667,"longitude":22.68333},{"id":95443,"name":"Oprişor","latitude":44.28333,"longitude":23.08333},{"id":95454,"name":"Oraş Baia De Aramã","latitude":45.00366,"longitude":22.80709},{"id":95593,"name":"Oraş Strehaia","latitude":44.6236,"longitude":23.18792},{"id":95621,"name":"Oraş Vânju Mare","latitude":44.42326,"longitude":22.8734},{"id":95657,"name":"Orevița Mare","latitude":44.45715,"longitude":22.91317},{"id":95669,"name":"Orşova","latitude":44.72299,"longitude":22.39619},{"id":95680,"name":"Ostrovu Mare","latitude":44.37931,"longitude":22.51581},{"id":95696,"name":"Padina Mică","latitude":44.42722,"longitude":22.9925},{"id":96024,"name":"Pătulele","latitude":44.34528,"longitude":22.77278},{"id":95843,"name":"Podeni","latitude":44.88139,"longitude":22.54333},{"id":95905,"name":"Ponoarele","latitude":44.97389,"longitude":22.76444},{"id":95920,"name":"Poroina Mare","latitude":44.49528,"longitude":22.93639},{"id":95955,"name":"Pristol","latitude":44.22472,"longitude":22.70917},{"id":95968,"name":"Prunişor","latitude":44.60944,"longitude":22.91528},{"id":95982,"name":"Punghina","latitude":44.28194,"longitude":22.93472},{"id":96068,"name":"Recea","latitude":44.31949,"longitude":22.91659},{"id":96101,"name":"Rogova","latitude":44.47167,"longitude":22.80667},{"id":96137,"name":"Roșiori","latitude":44.25633,"longitude":22.92838},{"id":96232,"name":"Salcia","latitude":44.14083,"longitude":22.92778},{"id":97051,"name":"Şimian","latitude":44.61417,"longitude":22.70722},{"id":97061,"name":"Şişeşti","latitude":44.7775,"longitude":22.83944},{"id":97075,"name":"Şovarna","latitude":44.85361,"longitude":22.7925},{"id":96473,"name":"Stângăceaua","latitude":44.60896,"longitude":23.31273},{"id":96449,"name":"Strehaia","latitude":44.61667,"longitude":23.2},{"id":96515,"name":"Sviniţa","latitude":44.49972,"longitude":22.10611},{"id":96577,"name":"Tâmna","latitude":44.56667,"longitude":23.01667},{"id":96928,"name":"Vânători","latitude":44.24278,"longitude":22.92889},{"id":96926,"name":"Vânju-Mare","latitude":44.42528,"longitude":22.86972},{"id":96927,"name":"Vânjuleţ","latitude":44.44111,"longitude":22.7925},{"id":96859,"name":"Vlădaia","latitude":44.35,"longitude":23.03333},{"id":96887,"name":"Voloiac","latitude":44.61667,"longitude":23.1},{"id":96897,"name":"Vrata","latitude":44.19197,"longitude":22.84928}]