[{"id":105194,"name":"Amphoe Ban Kha","latitude":13.32374,"longitude":99.37323},{"id":105215,"name":"Amphoe Ban Pong","latitude":13.8166,"longitude":99.82147},{"id":105237,"name":"Amphoe Bang Phae","latitude":13.68333,"longitude":99.98333},{"id":105303,"name":"Amphoe Chom Bueng","latitude":13.6252,"longitude":99.5187},{"id":105316,"name":"Amphoe Damnoen Saduak","latitude":13.56537,"longitude":99.97042},{"id":105579,"name":"Amphoe Mueang Ratchaburi","latitude":13.54559,"longitude":99.77678},{"id":105707,"name":"Amphoe Pak Tho","latitude":13.38761,"longitude":99.677},{"id":105759,"name":"Amphoe Photharam","latitude":13.70707,"longitude":99.75622},{"id":106253,"name":"Amphoe Suan Phueng","latitude":13.56361,"longitude":99.31133},{"id":106356,"name":"Amphoe Wat Phleng","latitude":13.44705,"longitude":99.86959},{"id":106410,"name":"Ban Pong","latitude":13.81629,"longitude":99.87739},{"id":106440,"name":"Bang Phae","latitude":13.69157,"longitude":99.92982},{"id":106478,"name":"Chom Bueng","latitude":13.62,"longitude":99.59169},{"id":106485,"name":"Damnoen Saduak","latitude":13.51825,"longitude":99.95469},{"id":106641,"name":"Photharam","latitude":13.69234,"longitude":99.84969},{"id":106664,"name":"Ratchaburi","latitude":13.53671,"longitude":99.81712}]