[{"id":135161,"name":"Akrahreppur","latitude":65.35505,"longitude":-18.79572},{"id":135193,"name":"Húnaþing Vestra","latitude":65.25,"longitude":-20.91667},{"id":135209,"name":"Sauðárkrókur","latitude":65.74611,"longitude":-19.63944},{"id":135214,"name":"Skagabyggð","latitude":65.95,"longitude":-20.25},{"id":135222,"name":"Sveitarfélagið Skagafjörður","latitude":65.50018,"longitude":-19.44566}]