[{"id":107110,"name":"Akçakoca","latitude":41.08663,"longitude":31.11623},{"id":108833,"name":"Çilimli İlçesi","latitude":40.90267,"longitude":31.05913},{"id":107438,"name":"Cumayeri İlçesi","latitude":40.88176,"longitude":30.94094},{"id":107542,"name":"Düzce","latitude":40.83889,"longitude":31.16389},{"id":107704,"name":"Gölyaka İlçesi","latitude":40.78644,"longitude":31.00276},{"id":107739,"name":"Gümüşova İlçesi","latitude":40.8564,"longitude":30.94935},{"id":107953,"name":"Kaynaşlı İlçesi","latitude":40.77908,"longitude":31.31135},{"id":108748,"name":"Yığılca İlçesi","latitude":40.96497,"longitude":31.45672}]