[{"id":109337,"name":"Babanka","latitude":48.70971,"longitude":30.44827},{"id":109459,"name":"Buky","latitude":49.09252,"longitude":30.40355},{"id":109477,"name":"Cherkasy","latitude":49.42854,"longitude":32.06207},{"id":109498,"name":"Chervona Sloboda","latitude":49.37281,"longitude":32.15742},{"id":109510,"name":"Chornobay","latitude":49.66644,"longitude":32.32932},{"id":109524,"name":"Chyhyryn","latitude":49.08376,"longitude":32.65549},{"id":109575,"name":"Drabiv","latitude":49.96029,"longitude":32.1407},{"id":109651,"name":"Horodyshche","latitude":49.28489,"longitude":31.44513},{"id":109709,"name":"Kamianka","latitude":49.0318,"longitude":32.10396},{"id":109714,"name":"Kaniv","latitude":49.75182,"longitude":31.46004},{"id":109741,"name":"Khrystynivka","latitude":48.81577,"longitude":29.97703},{"id":109805,"name":"Korsun-Shevchenkivskyi","latitude":49.41894,"longitude":31.25865},{"id":109909,"name":"Lebedyn","latitude":48.96242,"longitude":31.52696},{"id":109959,"name":"Lysianka","latitude":49.25229,"longitude":30.82946},{"id":109995,"name":"Mankivka","latitude":48.96349,"longitude":30.33366},{"id":110042,"name":"Mliiv","latitude":49.33691,"longitude":31.51704},{"id":110051,"name":"Monastyryshche","latitude":48.9909,"longitude":29.8047},{"id":110054,"name":"Moshny","latitude":49.52754,"longitude":31.73708},{"id":110112,"name":"Nove-Misto","latitude":48.98113,"longitude":29.82813},{"id":110393,"name":"Ruska Poliana","latitude":49.417,"longitude":31.92009},{"id":110451,"name":"Shpola","latitude":49.00687,"longitude":31.39471},{"id":110488,"name":"Smila","latitude":49.22242,"longitude":31.88714},{"id":110546,"name":"Stebliv","latitude":49.40186,"longitude":31.09764},{"id":110587,"name":"Talne","latitude":48.88877,"longitude":30.69482},{"id":110629,"name":"Tsibulev","latitude":49.07907,"longitude":29.84727},{"id":110631,"name":"Tsvitkove","latitude":49.15231,"longitude":31.53739},{"id":110656,"name":"Uman","latitude":48.74838,"longitude":30.22184},{"id":110681,"name":"Vatutine","latitude":49.01502,"longitude":31.06211},{"id":110704,"name":"Verkhniachka","latitude":48.82849,"longitude":30.03957},{"id":110797,"name":"Yerky","latitude":48.99062,"longitude":30.98818},{"id":110802,"name":"Yurkivka","latitude":49.01082,"longitude":31.08797},{"id":110840,"name":"Zhashkiv","latitude":49.24545,"longitude":30.1102},{"id":110861,"name":"Zolotonosha","latitude":49.66832,"longitude":32.04047},{"id":110869,"name":"Zvenihorodka","latitude":49.07866,"longitude":30.96755}]