[{"id":54389,"name":"Baška Voda","latitude":43.35694,"longitude":16.95028},{"id":54407,"name":"Bol","latitude":43.26194,"longitude":16.655},{"id":54414,"name":"Brela","latitude":43.36889,"longitude":16.93417},{"id":54423,"name":"Brnaze","latitude":43.68,"longitude":16.64972},{"id":54454,"name":"Dicmo","latitude":43.63678,"longitude":16.58978},{"id":54463,"name":"Donji Vinjani","latitude":43.44613,"longitude":17.24064},{"id":54474,"name":"Duće","latitude":43.44278,"longitude":16.66833},{"id":54472,"name":"Dugi Rat Općina","latitude":43.44923,"longitude":16.64738},{"id":54473,"name":"Dugopolje","latitude":43.58056,"longitude":16.60278},{"id":54486,"name":"Gala","latitude":43.715,"longitude":16.72694},{"id":54502,"name":"Grabovci","latitude":43.49278,"longitude":17.20111},{"id":54519,"name":"Grad Hvar","latitude":43.17263,"longitude":16.4455},{"id":54520,"name":"Grad Imotski","latitude":43.43333,"longitude":17.16667},{"id":54532,"name":"Grad Makarska","latitude":43.3,"longitude":17.03333},{"id":54537,"name":"Grad Omiš","latitude":43.46667,"longitude":16.7},{"id":54548,"name":"Grad Sinj","latitude":43.72285,"longitude":16.65819},{"id":54552,"name":"Grad Split","latitude":43.5,"longitude":16.5},{"id":54553,"name":"Grad Supetar","latitude":43.38444,"longitude":16.55528},{"id":54555,"name":"Grad Trogir","latitude":43.52061,"longitude":16.25144},{"id":54561,"name":"Grad Vis","latitude":43.05315,"longitude":16.18698},{"id":54564,"name":"Grad Vrgorac","latitude":43.2,"longitude":17.36667},{"id":54574,"name":"Gradac","latitude":43.10583,"longitude":17.34167},{"id":54584,"name":"Greda","latitude":43.61528,"longitude":16.69361},{"id":54587,"name":"Grubine","latitude":43.42986,"longitude":17.16292},{"id":54599,"name":"Hrvace","latitude":43.76333,"longitude":16.615},{"id":54601,"name":"Hvar","latitude":43.1725,"longitude":16.44278},{"id":54603,"name":"Imotski","latitude":43.44667,"longitude":17.21667},{"id":54620,"name":"Jelsa","latitude":43.16139,"longitude":16.69306},{"id":54621,"name":"Jesenice","latitude":43.46158,"longitude":16.60197},{"id":54627,"name":"Kamen","latitude":43.51417,"longitude":16.51472},{"id":54637,"name":"Kaštel Gomilica","latitude":43.55,"longitude":16.4},{"id":54638,"name":"Kaštel Kambelovac","latitude":43.55,"longitude":16.38333},{"id":54639,"name":"Kaštel Lukšić","latitude":43.55528,"longitude":16.3675},{"id":54640,"name":"Kaštel Novi","latitude":43.55,"longitude":16.33333},{"id":54642,"name":"Kaštel Štafilić","latitude":43.55,"longitude":16.33333},{"id":54641,"name":"Kaštel Stari","latitude":43.55,"longitude":16.35},{"id":54643,"name":"Kaštela","latitude":43.53865,"longitude":16.3074},{"id":54650,"name":"Klis","latitude":43.55944,"longitude":16.51944},{"id":54654,"name":"Komiža","latitude":43.04306,"longitude":16.09306},{"id":54665,"name":"Košute","latitude":43.63083,"longitude":16.695},{"id":54694,"name":"Lokvičići","latitude":43.46428,"longitude":17.09142},{"id":54700,"name":"Lovreć","latitude":43.48761,"longitude":16.98632},{"id":54710,"name":"Makarska","latitude":43.29694,"longitude":17.01778},{"id":54733,"name":"Milna","latitude":43.32667,"longitude":16.45083},{"id":54742,"name":"Mravince","latitude":43.53333,"longitude":16.52194},{"id":54747,"name":"Muć","latitude":43.69328,"longitude":16.47267},{"id":54752,"name":"Nerežišća","latitude":43.32959,"longitude":16.57743},{"id":54772,"name":"Okrug","latitude":43.49638,"longitude":16.26732},{"id":54773,"name":"Okrug Gornji","latitude":43.49473,"longitude":16.26531},{"id":54775,"name":"Omiš","latitude":43.44472,"longitude":16.68861},{"id":54795,"name":"Otok","latitude":43.68661,"longitude":16.73488},{"id":54817,"name":"Podstrana","latitude":43.48668,"longitude":16.55013},{"id":54829,"name":"Postira","latitude":43.37551,"longitude":16.63091},{"id":54842,"name":"Proložac","latitude":43.4669,"longitude":17.15507},{"id":54847,"name":"Pučišća","latitude":43.34778,"longitude":16.73389},{"id":54872,"name":"Runović","latitude":43.37667,"longitude":17.23667},{"id":54873,"name":"Runovići","latitude":43.38704,"longitude":17.23892},{"id":54879,"name":"Seget","latitude":43.54305,"longitude":16.21222},{"id":54880,"name":"Seget Vranjica","latitude":43.50999,"longitude":16.18704},{"id":54881,"name":"Selca","latitude":43.29722,"longitude":16.85083},{"id":54890,"name":"Sinj","latitude":43.70361,"longitude":16.63944},{"id":54896,"name":"Slatine","latitude":43.49944,"longitude":16.33333},{"id":54901,"name":"Solin","latitude":43.5432,"longitude":16.49314},{"id":55035,"name":"Šolta","latitude":43.38714,"longitude":16.28865},{"id":54904,"name":"Split","latitude":43.50891,"longitude":16.43915},{"id":54906,"name":"Srinjine","latitude":43.48333,"longitude":16.6},{"id":54907,"name":"Stari Grad","latitude":43.18472,"longitude":16.59528},{"id":54913,"name":"Stobreč","latitude":43.5025,"longitude":16.52222},{"id":54923,"name":"Supetar","latitude":43.38417,"longitude":16.55083},{"id":54941,"name":"Trilj","latitude":43.61833,"longitude":16.72417},{"id":54942,"name":"Trogir","latitude":43.5125,"longitude":16.25167},{"id":54946,"name":"Tučepi","latitude":43.27222,"longitude":17.05444},{"id":54945,"name":"Turjaci","latitude":43.65,"longitude":16.66917},{"id":54961,"name":"Veliki Drvenik","latitude":43.45,"longitude":16.15},{"id":54974,"name":"Vis","latitude":43.06194,"longitude":16.18306},{"id":54987,"name":"Vranjic","latitude":43.53333,"longitude":16.46667},{"id":54993,"name":"Vrgorac","latitude":43.20583,"longitude":17.37111},{"id":54994,"name":"Vrlika","latitude":43.91098,"longitude":16.39933},{"id":55005,"name":"Zagvozd","latitude":43.3975,"longitude":17.05694},{"id":55012,"name":"Zmijavci","latitude":43.41083,"longitude":17.20556},{"id":55040,"name":"Žrnovnica","latitude":43.52111,"longitude":16.55917}]