[{"id":68015,"name":"Abasolo","latitude":20.44997,"longitude":-101.53073},{"id":68087,"name":"Acámbaro","latitude":20.03085,"longitude":-100.72194},{"id":68088,"name":"Adjuntas del Río","latitude":21.11667,"longitude":-100.86806},{"id":68125,"name":"Aguas Buenas","latitude":20.97028,"longitude":-101.3725},{"id":68181,"name":"Alcocer","latitude":20.86867,"longitude":-100.70456},{"id":68185,"name":"Aldama","latitude":20.81641,"longitude":-101.31467},{"id":68191,"name":"Alfaro","latitude":21.14941,"longitude":-101.60611},{"id":68253,"name":"Ameche","latitude":20.55261,"longitude":-100.58367},{"id":68296,"name":"Apaseo el Alto","latitude":20.45798,"longitude":-100.62081},{"id":68297,"name":"Apaseo el Grande","latitude":20.54495,"longitude":-100.68462},{"id":68329,"name":"Arandas","latitude":20.72468,"longitude":-101.37296},{"id":68392,"name":"Atarjea","latitude":21.26777,"longitude":-99.71914},{"id":68505,"name":"Bajío de Bonillas","latitude":20.94944,"longitude":-101.49528},{"id":68523,"name":"Barretos","latitude":20.93933,"longitude":-101.64282},{"id":68543,"name":"Barrio de Guadalupe del Mezquitillo","latitude":20.94417,"longitude":-101.80083},{"id":68562,"name":"Barrón","latitude":20.67667,"longitude":-101.08423},{"id":68640,"name":"Boquillas","latitude":20.41642,"longitude":-101.43333},{"id":68681,"name":"Buenavista de Cortés","latitude":20.37326,"longitude":-101.87021},{"id":68733,"name":"Caleras de Ameche","latitude":20.56133,"longitude":-100.56013},{"id":68754,"name":"Calzada del Tepozán","latitude":20.73762,"longitude":-101.88299},{"id":68874,"name":"Cañada de Bustos","latitude":20.90436,"longitude":-101.3126},{"id":68875,"name":"Cañada de Caracheo","latitude":20.37552,"longitude":-100.94549},{"id":68879,"name":"Cañada de Negros","latitude":20.92636,"longitude":-101.92115},{"id":68813,"name":"Capulín de Bustos","latitude":20.88242,"longitude":-101.3068},{"id":69660,"name":"Cárdenas","latitude":20.63012,"longitude":-101.2204},{"id":68842,"name":"Carrizal Grande","latitude":20.70634,"longitude":-101.306},{"id":68891,"name":"Celaya","latitude":20.52353,"longitude":-100.8157},{"id":68899,"name":"Centro Familiar la Soledad","latitude":21.135,"longitude":-101.74972},{"id":68904,"name":"Cerano","latitude":20.10877,"longitude":-101.3871},{"id":68910,"name":"Cerrito de Gasca","latitude":20.61829,"longitude":-101.062},{"id":68915,"name":"Cerritos","latitude":20.88552,"longitude":-100.5988},{"id":68923,"name":"Cerro Colorado","latitude":20.40111,"longitude":-101.32451},{"id":68928,"name":"Cerro Gordo","latitude":20.59294,"longitude":-101.12684},{"id":68971,"name":"Chamácuaro","latitude":20.10444,"longitude":-100.82756},{"id":68997,"name":"Charco de Pantoja","latitude":20.38949,"longitude":-101.35436},{"id":69029,"name":"Chichimequillas","latitude":21.03716,"longitude":-101.44274},{"id":69094,"name":"Chirimoya (Estación Chirimoya)","latitude":21.59278,"longitude":-101.09139},{"id":69124,"name":"Churipitzeo","latitude":20.41185,"longitude":-101.74206},{"id":69129,"name":"Cieneguilla","latitude":21.24833,"longitude":-100.27389},{"id":69168,"name":"Ciudad Manuel Doblado","latitude":20.72888,"longitude":-101.95226},{"id":69205,"name":"Coachiti","latitude":20.55944,"longitude":-100.58944},{"id":69264,"name":"Colonia 18 de Marzo","latitude":20.55556,"longitude":-101.03556},{"id":69302,"name":"Colonia Fraccionamiento el Puente","latitude":20.52361,"longitude":-100.89667},{"id":69304,"name":"Colonia Francisco Javier Mina","latitude":20.97944,"longitude":-101.41639},{"id":69393,"name":"Colonia la Calzada (La Olla)","latitude":20.50278,"longitude":-100.95889},{"id":69319,"name":"Colonia Latinoamericana","latitude":21.03028,"longitude":-101.70583},{"id":69332,"name":"Colonia Morelos","latitude":20.36832,"longitude":-101.89937},{"id":69336,"name":"Colonia Morelos de Guadalupe de Rivera","latitude":20.59556,"longitude":-101.44833},{"id":69341,"name":"Colonia Nuevo México","latitude":20.98475,"longitude":-101.48502},{"id":69345,"name":"Colonia Padre Hidalgo","latitude":21.17056,"longitude":-100.93556},{"id":69349,"name":"Colonia Patria Nueva","latitude":20.52833,"longitude":-100.87944},{"id":69350,"name":"Colonia Pedro María Anaya","latitude":20.52611,"longitude":-100.87778},{"id":69353,"name":"Colonia Rafael Corrales Ayala","latitude":20.90194,"longitude":-101.51611},{"id":69367,"name":"Colonia San Luis Rey","latitude":20.93556,"longitude":-100.73611},{"id":69421,"name":"Comanjilla","latitude":21.0651,"longitude":-101.47303},{"id":69428,"name":"Comonfort","latitude":20.72278,"longitude":-100.75946},{"id":69482,"name":"Coroneo","latitude":20.20001,"longitude":-100.36546},{"id":69488,"name":"Corral de Piedras de Arriba","latitude":20.97577,"longitude":-100.59474},{"id":69490,"name":"Corralejo de Arriba","latitude":20.89667,"longitude":-100.65444},{"id":69494,"name":"Cortazar","latitude":20.48362,"longitude":-100.96237},{"id":69565,"name":"Cuarta Brigada","latitude":20.62194,"longitude":-101.28001},{"id":69605,"name":"Cuchicuato","latitude":20.66092,"longitude":-101.46203},{"id":69616,"name":"Cuerámaro","latitude":20.62546,"longitude":-101.67242},{"id":69620,"name":"Cuesta de Peñones","latitude":21.084,"longitude":-100.23671},{"id":69642,"name":"Cupareo","latitude":20.22876,"longitude":-101.01806},{"id":69670,"name":"De Parral","latitude":20.45611,"longitude":-101.00778},{"id":69674,"name":"Delgado de Abajo","latitude":20.71749,"longitude":-100.89338},{"id":69675,"name":"Delgado de Arriba","latitude":20.72222,"longitude":-100.9008},{"id":69680,"name":"Derramadero Segundo (Infiernillo)","latitude":21.0975,"longitude":-100.51417},{"id":69699,"name":"Doctor Mora","latitude":21.14246,"longitude":-100.31966},{"id":69706,"name":"Dolores Hidalgo Cuna de la Independencia Nacional","latitude":21.15611,"longitude":-100.9325},{"id":69710,"name":"Don Diego","latitude":20.69791,"longitude":-100.90209},{"id":69711,"name":"Don Francisco","latitude":20.90281,"longitude":-100.91873},{"id":69730,"name":"Duarte","latitude":21.08712,"longitude":-101.52431},{"id":69769,"name":"Ejido Jesús María","latitude":21.14194,"longitude":-100.91167},{"id":69814,"name":"Ejido la Joya","latitude":21.14325,"longitude":-101.73922},{"id":69823,"name":"El Acebuche","latitude":20.22311,"longitude":-100.74196},{"id":69860,"name":"El Canario","latitude":20.15694,"longitude":-101.33556},{"id":69865,"name":"El Capulín","latitude":21.04043,"longitude":-100.3222},{"id":69868,"name":"El Caracol","latitude":20.56718,"longitude":-100.9829},{"id":69872,"name":"El Carmen","latitude":20.64009,"longitude":-101.37259},{"id":69880,"name":"El Carretón","latitude":21.63045,"longitude":-100.98064},{"id":69883,"name":"El Carrizalito","latitude":20.70371,"longitude":-101.32439},{"id":69887,"name":"El Castillo","latitude":20.58072,"longitude":-100.49297},{"id":69852,"name":"El CERESO","latitude":21.02222,"longitude":-101.68917},{"id":69901,"name":"El Chinaco (El Pujido)","latitude":20.52222,"longitude":-100.91972},{"id":69909,"name":"El Coecillo","latitude":20.97651,"longitude":-101.4501},{"id":69925,"name":"El Copalillo","latitude":20.72745,"longitude":-101.3457},{"id":69944,"name":"El Divisador","latitude":20.57722,"longitude":-101.15806},{"id":69957,"name":"El Escoplo","latitude":20.91004,"longitude":-101.51127},{"id":69959,"name":"El Espejo","latitude":20.44094,"longitude":-100.55417},{"id":69968,"name":"El Fresno","latitude":20.27322,"longitude":-100.49154},{"id":69975,"name":"El Gallinero","latitude":21.18208,"longitude":-100.95996},{"id":69992,"name":"El Huizache","latitude":20.41934,"longitude":-100.95978},{"id":69997,"name":"El Jaguey","latitude":20.91499,"longitude":-101.63426},{"id":70020,"name":"El Llanito","latitude":21.12143,"longitude":-100.9511},{"id":70029,"name":"El Maguey","latitude":20.98035,"longitude":-101.84651},{"id":70036,"name":"El Mezquitillo","latitude":20.96213,"longitude":-101.80857},{"id":70049,"name":"El Moral","latitude":20.1303,"longitude":-101.28862},{"id":70053,"name":"El Nacimiento","latitude":20.53596,"longitude":-100.61017},{"id":70054,"name":"El Naranjillo","latitude":20.71417,"longitude":-101.00056},{"id":70102,"name":"El Picacho","latitude":20.71016,"longitude":-100.63704},{"id":70141,"name":"El Puesto","latitude":20.4689,"longitude":-100.82763},{"id":70149,"name":"El Recuerdo de Ancón (Xoconoxtle de Arriba)","latitude":20.63806,"longitude":-101.12694},{"id":70156,"name":"El Refugio de los Sauces","latitude":21.01488,"longitude":-101.53084},{"id":70181,"name":"El Sabino","latitude":20.28131,"longitude":-101.00224},{"id":70192,"name":"El Salto de Espejo","latitude":20.45045,"longitude":-100.50587},{"id":70195,"name":"El Salvador (Ranchito San José del Carmen)","latitude":20.2875,"longitude":-100.87722},{"id":70201,"name":"El Sauz (El Sauz de Villaseñor)","latitude":20.41056,"longitude":-100.79667},{"id":70212,"name":"El Tecolote","latitude":20.88407,"longitude":-101.92432},{"id":70216,"name":"El Tejocote (El Domingo)","latitude":21.67611,"longitude":-100.915},{"id":70245,"name":"El Tunal","latitude":20.56944,"longitude":-100.61995},{"id":70248,"name":"El Varal","latitude":20.34845,"longitude":-101.60028},{"id":70257,"name":"El Vicarlo","latitude":20.58211,"longitude":-100.6712},{"id":70261,"name":"El Zapote","latitude":21.73563,"longitude":-101.04905},{"id":70299,"name":"Empalme Escobedo","latitude":20.6725,"longitude":-100.74675},{"id":70341,"name":"Estación Corralejo","latitude":20.47,"longitude":-101.61639},{"id":70360,"name":"Estación de San Francisco","latitude":21.03722,"longitude":-101.82472},{"id":70344,"name":"Estación Joaquín","latitude":20.56082,"longitude":-101.51993},{"id":70361,"name":"Estación la Piedad","latitude":20.3675,"longitude":-101.99806},{"id":70350,"name":"Estación Pénjamo","latitude":20.3947,"longitude":-101.69188},{"id":70364,"name":"Estancia del Llano","latitude":20.51101,"longitude":-100.72637},{"id":70367,"name":"Estanzuela de Romero","latitude":20.18477,"longitude":-100.50448},{"id":70372,"name":"Estrada","latitude":20.52918,"longitude":-100.8655},{"id":70384,"name":"Ex-Hacienda del Copal","latitude":20.74083,"longitude":-101.33528},{"id":70499,"name":"Fábrica de Melchor","latitude":21.67223,"longitude":-100.90171},{"id":70451,"name":"Fraccionamiento la Mezquitera","latitude":21.00972,"longitude":-101.83472},{"id":70456,"name":"Fraccionamiento las Liebres","latitude":20.6475,"longitude":-101.39556},{"id":70431,"name":"Fraccionamiento Paraíso Real","latitude":21.1125,"longitude":-101.58083},{"id":70432,"name":"Fraccionamiento Paseo de las Torres","latitude":21.16833,"longitude":-101.75806},{"id":70433,"name":"Fraccionamiento Praderas de la Venta","latitude":20.53611,"longitude":-101.0},{"id":70445,"name":"Fraccionamiento Villa Jardín","latitude":20.99167,"longitude":-101.85194},{"id":70446,"name":"Fraccionamiento Villas de Guanajuato","latitude":20.96028,"longitude":-101.29806},{"id":70485,"name":"Franco","latitude":20.94327,"longitude":-101.4618},{"id":70486,"name":"Franco Tavera","latitude":20.60595,"longitude":-100.927},{"id":70495,"name":"Frías","latitude":20.79945,"longitude":-101.99644},{"id":70505,"name":"Gachupines","latitude":21.76259,"longitude":-101.56247},{"id":70513,"name":"Galerade Panales","latitude":20.29452,"longitude":-100.81452},{"id":70521,"name":"Gasca","latitude":20.60444,"longitude":-100.85639},{"id":70522,"name":"Gavia de Rionda","latitude":20.83357,"longitude":-101.61647},{"id":70574,"name":"Guadalupe","latitude":21.71644,"longitude":-100.97645},{"id":70609,"name":"Guadalupe de Paso Blanco","latitude":20.75498,"longitude":-101.40345},{"id":70610,"name":"Guadalupe de Rivera","latitude":20.60499,"longitude":-101.46745},{"id":70611,"name":"Guadalupe de Tambula","latitude":20.86645,"longitude":-100.5762},{"id":70612,"name":"Guadalupe del Monte","latitude":20.55688,"longitude":-100.64064},{"id":70618,"name":"Guanajuato","latitude":21.01858,"longitude":-101.2591},{"id":70650,"name":"Hacienda Arriba","latitude":21.23366,"longitude":-101.70393},{"id":70659,"name":"Hacienda de la Bolsa","latitude":20.37524,"longitude":-101.10425},{"id":70658,"name":"Hacienda de Márquez","latitude":20.78037,"longitude":-101.35979},{"id":70712,"name":"Hoya de Cintora (La Hoya de Arriba)","latitude":20.36444,"longitude":-101.20833},{"id":70734,"name":"Huanímaro","latitude":20.36783,"longitude":-101.49869},{"id":70803,"name":"Huitzatarito","latitude":20.49213,"longitude":-101.57064},{"id":70832,"name":"Ibarrilla","latitude":21.18664,"longitude":-101.64576},{"id":70880,"name":"Irámuco","latitude":19.96156,"longitude":-100.92202},{"id":70876,"name":"Irapuato","latitude":20.67675,"longitude":-101.35628},{"id":70982,"name":"Jalpilla","latitude":20.73129,"longitude":-100.7209},{"id":70995,"name":"Jamaica","latitude":21.14364,"longitude":-100.7343},{"id":71004,"name":"Jaral del Progreso","latitude":20.37237,"longitude":-101.06249},{"id":71013,"name":"Jauregui","latitude":20.5928,"longitude":-100.7194},{"id":71021,"name":"Jerécuaro","latitude":20.15467,"longitude":-100.5086},{"id":71038,"name":"Jesús del Monte","latitude":20.91504,"longitude":-101.74129},{"id":71149,"name":"Jícamas","latitude":20.27602,"longitude":-101.35916},{"id":71066,"name":"Jocoqui","latitude":20.58201,"longitude":-100.6987},{"id":71123,"name":"Juan Martín","latitude":20.47301,"longitude":-100.74691},{"id":71144,"name":"Juventino Rosas","latitude":20.64337,"longitude":-100.99286},{"id":71170,"name":"La Aldea","latitude":20.90166,"longitude":-101.47852},{"id":71174,"name":"La Angostura","latitude":20.27733,"longitude":-101.11005},{"id":71178,"name":"La Aurora","latitude":20.62667,"longitude":-100.7575},{"id":71189,"name":"La Caja","latitude":20.71146,"longitude":-101.43769},{"id":71190,"name":"La Calera","latitude":20.80119,"longitude":-101.33207},{"id":71203,"name":"La Capilla","latitude":20.55655,"longitude":-101.30019},{"id":71216,"name":"La Ciénega","latitude":21.3005,"longitude":-100.48027},{"id":71214,"name":"La Cieneguita","latitude":20.9463,"longitude":-100.78966},{"id":71224,"name":"La Compañía","latitude":20.3776,"longitude":-101.15852},{"id":71251,"name":"La Cruz","latitude":20.45694,"longitude":-100.79583},{"id":71252,"name":"La Cruz del Palmar","latitude":20.96973,"longitude":-100.84354},{"id":71255,"name":"La Cuevita","latitude":20.33872,"longitude":-100.57891},{"id":71262,"name":"La Ermita","latitude":21.15194,"longitude":-101.73306},{"id":71266,"name":"La Escondida","latitude":21.68723,"longitude":-101.53446},{"id":71285,"name":"La Estancia de San José del Carmen","latitude":20.29555,"longitude":-100.86083},{"id":71288,"name":"La Estrella","latitude":20.3905,"longitude":-101.92109},{"id":71299,"name":"La Gavia","latitude":20.39431,"longitude":-100.88122},{"id":71334,"name":"La Joya de Calvillo","latitude":20.74883,"longitude":-101.60847},{"id":71338,"name":"La Labor","latitude":20.53388,"longitude":-100.702},{"id":71341,"name":"La Laborcita","latitude":21.10636,"longitude":-101.5517},{"id":71350,"name":"La Laja","latitude":20.52946,"longitude":-100.7617},{"id":71362,"name":"La Lobera","latitude":20.35815,"longitude":-101.5403},{"id":71376,"name":"La Luz","latitude":20.55386,"longitude":-101.18097},{"id":71402,"name":"La Moncada","latitude":20.28348,"longitude":-100.80502},{"id":71409,"name":"La Norita","latitude":20.55409,"longitude":-100.5166},{"id":71412,"name":"La Ordeña","latitude":20.68988,"longitude":-101.1183},{"id":71415,"name":"La Ortiga","latitude":19.96222,"longitude":-101.00056},{"id":71421,"name":"La Palma","latitude":20.5156,"longitude":-100.69787},{"id":71429,"name":"La Palmita (La Palmita de San Gabriel)","latitude":20.49806,"longitude":-100.87806},{"id":71470,"name":"La Purísima","latitude":20.51444,"longitude":-100.6725},{"id":71481,"name":"La Sabana","latitude":21.19956,"longitude":-100.68956},{"id":71484,"name":"La Sardina","latitude":20.88118,"longitude":-101.6644},{"id":71485,"name":"La Sauceda","latitude":20.89831,"longitude":-101.19124},{"id":71491,"name":"La Soledad","latitude":20.60792,"longitude":-101.41558},{"id":71504,"name":"La Tinaja","latitude":20.49028,"longitude":-101.21556},{"id":71511,"name":"La Trinidad","latitude":20.56333,"longitude":-100.78361},{"id":71539,"name":"Labor de Peralta","latitude":20.40885,"longitude":-101.40901},{"id":71544,"name":"Ladrilleras del Refugio","latitude":21.08472,"longitude":-101.55361},{"id":71552,"name":"Laguna de Guadalupe","latitude":21.80046,"longitude":-101.35689},{"id":71548,"name":"Laguna Larga","latitude":20.54131,"longitude":-101.48451},{"id":71549,"name":"Laguna Larga de Cortés","latitude":20.3927,"longitude":-101.94062},{"id":71570,"name":"Landín","latitude":20.75392,"longitude":-100.90592},{"id":71657,"name":"Las Ánimas","latitude":20.39709,"longitude":-101.79964},{"id":71584,"name":"Las Cañas","latitude":20.29586,"longitude":-101.41823},{"id":71605,"name":"Las Huertas Tercera Sección","latitude":20.65278,"longitude":-101.39306},{"id":71610,"name":"Las Liebres","latitude":20.83532,"longitude":-101.47062},{"id":71620,"name":"Las Masas (La Luz Masas)","latitude":20.59917,"longitude":-101.54278},{"id":71646,"name":"Las Trojas","latitude":20.71111,"longitude":-100.78083},{"id":71666,"name":"León","latitude":21.09309,"longitude":-101.64501},{"id":71668,"name":"León de los Aldama","latitude":21.12908,"longitude":-101.67374},{"id":71701,"name":"Lo de Juárez","latitude":20.76833,"longitude":-101.34111},{"id":71735,"name":"Loma de la Esperanza","latitude":20.65927,"longitude":-101.5567},{"id":71733,"name":"Loma de Yerbabuena","latitude":21.06056,"longitude":-101.44944},{"id":71734,"name":"Loma de Zempoala","latitude":20.29182,"longitude":-101.08023},{"id":71723,"name":"Loma Pelada","latitude":20.57222,"longitude":-101.29417},{"id":71724,"name":"Loma Tendida","latitude":20.3756,"longitude":-101.31057},{"id":71871,"name":"Los Ángeles","latitude":20.55361,"longitude":-100.94167},{"id":71772,"name":"Los Arcos","latitude":21.04928,"longitude":-101.68864},{"id":71796,"name":"Los Desmontes","latitude":19.95662,"longitude":-100.73917},{"id":71798,"name":"Los Dolores (Las Quince Letras)","latitude":21.31778,"longitude":-100.56583},{"id":71799,"name":"Los Dulces Nombres","latitude":20.64806,"longitude":-100.96472},{"id":71801,"name":"Los Fierros","latitude":20.19353,"longitude":-100.75941},{"id":71802,"name":"Los Galvan","latitude":21.06377,"longitude":-100.80114},{"id":71812,"name":"Los Lorenzos","latitude":21.07229,"longitude":-101.3758},{"id":71813,"name":"Los Mancera","latitude":20.47028,"longitude":-100.80389},{"id":71815,"name":"Los Medranos","latitude":20.88283,"longitude":-101.4364},{"id":71822,"name":"Los Nicolases","latitude":20.85806,"longitude":-101.3175},{"id":71824,"name":"Los Ocotes","latitude":20.4156,"longitude":-101.96108},{"id":71838,"name":"Los Prietos","latitude":20.57513,"longitude":-101.26574},{"id":71841,"name":"Los Ramírez","latitude":21.01942,"longitude":-101.64411},{"id":71843,"name":"Los Remedios","latitude":21.18492,"longitude":-100.19919},{"id":71855,"name":"Los Rodríguez","latitude":21.04311,"longitude":-100.64361},{"id":71876,"name":"Loza de Barrera","latitude":20.98461,"longitude":-101.52972},{"id":71877,"name":"Loza de los Padres","latitude":21.07181,"longitude":-101.54603},{"id":71879,"name":"Lucio Blanco (Los Gavilanes)","latitude":21.11528,"longitude":-101.55111},{"id":71933,"name":"Magdalena de Araceo","latitude":20.30935,"longitude":-101.17861},{"id":71944,"name":"Malagana (San Antonio del Monte)","latitude":21.0467,"longitude":-101.7535},{"id":71959,"name":"Manuel Doblado","latitude":20.72085,"longitude":-101.856},{"id":71980,"name":"Maravatío del Encinal","latitude":20.20513,"longitude":-100.96211},{"id":71989,"name":"Marfil","latitude":20.99165,"longitude":-101.28434},{"id":71999,"name":"Marroquín","latitude":20.51138,"longitude":-100.55946},{"id":72065,"name":"Medina","latitude":21.14972,"longitude":-101.6225},{"id":72066,"name":"Medio Sitio","latitude":20.86948,"longitude":-101.35689},{"id":72074,"name":"Menores","latitude":20.92028,"longitude":-101.395},{"id":72078,"name":"Merino","latitude":20.49424,"longitude":-100.88411},{"id":72101,"name":"Mexicanos","latitude":20.52903,"longitude":-101.07064},{"id":72110,"name":"Mezquite de Luna","latitude":20.29765,"longitude":-101.8926},{"id":72111,"name":"Mezquite de Sotelo","latitude":21.00825,"longitude":-101.50287},{"id":72109,"name":"Mezquite Gordo","latitude":20.81463,"longitude":-101.49277},{"id":72148,"name":"Mineral de la Luz","latitude":21.06456,"longitude":-101.33806},{"id":72160,"name":"Misión de Chichimecas","latitude":21.28496,"longitude":-100.48658},{"id":72185,"name":"Molino de San José","latitude":21.57083,"longitude":-101.26389},{"id":72186,"name":"Molino de Santa Ana","latitude":20.82874,"longitude":-101.34929},{"id":72197,"name":"Monte Blanco","latitude":20.35472,"longitude":-101.5275},{"id":72209,"name":"Monte del Coecillo","latitude":20.979,"longitude":-101.43542},{"id":72201,"name":"Monte Grande","latitude":20.99806,"longitude":-101.86333},{"id":72223,"name":"Morales","latitude":20.77821,"longitude":-100.80932},{"id":72238,"name":"Moroleón","latitude":20.12571,"longitude":-101.19208},{"id":72314,"name":"Neutla","latitude":20.708,"longitude":-100.83957},{"id":72331,"name":"Nigromante","latitude":20.96194,"longitude":-100.78028},{"id":72435,"name":"Obrajuelo","latitude":20.1082,"longitude":-100.8495},{"id":72441,"name":"Ocampo","latitude":21.64653,"longitude":-101.48012},{"id":72489,"name":"Ojo de Agua de Ballesteros","latitude":20.22821,"longitude":-100.82424},{"id":72495,"name":"Ojo de Agua de la Trinidad","latitude":20.39356,"longitude":-100.63255},{"id":72492,"name":"Ojo de Agua de Mendoza","latitude":20.16585,"longitude":-100.56909},{"id":72496,"name":"Ojo de Agua del Refugio","latitude":21.01386,"longitude":-100.31687},{"id":72483,"name":"Ojo Seco","latitude":20.38687,"longitude":-100.79659},{"id":72517,"name":"Orduña de Abajo","latitude":20.75806,"longitude":-100.78278},{"id":72518,"name":"Orduña de Arriba","latitude":20.76583,"longitude":-100.79262},{"id":72537,"name":"Otates","latitude":20.40064,"longitude":-101.48169},{"id":72601,"name":"Palmillas de San Juan","latitude":20.76873,"longitude":-100.86432},{"id":72608,"name":"Palo Colorado","latitude":21.00836,"longitude":-100.72917},{"id":72621,"name":"Panales Jamaica (Cañones)","latitude":20.29556,"longitude":-100.82306},{"id":72663,"name":"Parácuaro","latitude":20.14381,"longitude":-100.76352},{"id":72649,"name":"Parangarico","latitude":20.19232,"longitude":-101.1655},{"id":72692,"name":"Paso de Pirules","latitude":20.95028,"longitude":-101.29972},{"id":72716,"name":"Paxtle","latitude":21.05897,"longitude":-101.4039},{"id":73011,"name":"Pénjamo","latitude":20.43108,"longitude":-101.72261},{"id":72754,"name":"Peñuelas","latitude":20.71676,"longitude":-101.29749},{"id":72731,"name":"Peralta","latitude":20.4735,"longitude":-101.40811},{"id":72773,"name":"Piedras de Lumbre","latitude":20.25097,"longitude":-100.59972},{"id":72771,"name":"Piedras Negras","latitude":20.43059,"longitude":-101.39158},{"id":72792,"name":"Piñícuaro","latitude":20.04751,"longitude":-101.24097},{"id":72800,"name":"Plan de Ayala","latitude":21.07209,"longitude":-101.72165},{"id":72794,"name":"Plan Guanajuato (La Sandía)","latitude":20.92167,"longitude":-101.69694},{"id":72805,"name":"Plancarte","latitude":20.58681,"longitude":-100.7962},{"id":72864,"name":"Potrerillos (Guanajal)","latitude":21.08154,"longitude":-101.86986},{"id":72874,"name":"Pozos","latitude":20.62003,"longitude":-100.8956},{"id":72883,"name":"Prados del Rosario","latitude":21.02194,"longitude":-100.3925},{"id":72887,"name":"Presa Blanca","latitude":20.64146,"longitude":-100.79241},{"id":72896,"name":"Primera Fracción de Crespo","latitude":20.49638,"longitude":-100.8515},{"id":72922,"name":"Providencia","latitude":20.35439,"longitude":-101.01895},{"id":72923,"name":"Providencia de Nápoles","latitude":21.02297,"longitude":-101.45775},{"id":72941,"name":"Pueblo Nuevo","latitude":20.52516,"longitude":-101.37196},{"id":72959,"name":"Puentecillas","latitude":20.93187,"longitude":-101.27873},{"id":72963,"name":"Puerta del Monte","latitude":20.25853,"longitude":-101.02597},{"id":72996,"name":"Purísima de Bustos","latitude":21.0315,"longitude":-101.87833},{"id":72997,"name":"Purísima de Covarrubias","latitude":20.61932,"longitude":-101.4834},{"id":72999,"name":"Purísima del Progreso","latitude":20.79333,"longitude":-101.33028},{"id":73000,"name":"Purísima del Rincón","latitude":20.94704,"longitude":-101.90939},{"id":72989,"name":"Puroagua","latitude":20.07913,"longitude":-100.45291},{"id":73078,"name":"Rancho de Guadalupe","latitude":21.21639,"longitude":-101.01},{"id":73068,"name":"Rancho Nuevo de la Cruz","latitude":20.65105,"longitude":-101.51786},{"id":73069,"name":"Rancho Nuevo de la Luz","latitude":20.96246,"longitude":-101.64573},{"id":73070,"name":"Rancho Nuevo del Llanito","latitude":20.82361,"longitude":-101.36861},{"id":73074,"name":"Rancho Viejo","latitude":21.02091,"longitude":-100.77142},{"id":73124,"name":"Rincón de Cano","latitude":21.05519,"longitude":-100.24196},{"id":73132,"name":"Rincón de Parangueo","latitude":20.42193,"longitude":-101.25101},{"id":73134,"name":"Rincón de Tamayo","latitude":20.42344,"longitude":-100.7547},{"id":73137,"name":"Rincón del Centeno","latitude":20.66076,"longitude":-100.88532},{"id":73115,"name":"Rinconadas del Bosque","latitude":20.08528,"longitude":-101.19833},{"id":73180,"name":"Río Laja","latitude":21.20326,"longitude":-100.92339},{"id":73144,"name":"Rizos de la Joya (Rizos del Saucillo)","latitude":21.14861,"longitude":-101.76194},{"id":73156,"name":"Romita","latitude":20.87127,"longitude":-101.51683},{"id":73157,"name":"Roque","latitude":20.58228,"longitude":-100.83727},{"id":73209,"name":"Salamanca","latitude":20.57196,"longitude":-101.19154},{"id":73220,"name":"Salitrillo","latitude":21.03629,"longitude":-101.4565},{"id":73231,"name":"Salvatierra","latitude":20.21322,"longitude":-100.88023},{"id":73258,"name":"San Agustín de las Flores","latitude":21.00727,"longitude":-101.4371},{"id":73279,"name":"San Andrés Enguaro","latitude":20.19472,"longitude":-101.23639},{"id":74512,"name":"San Ángel","latitude":20.90193,"longitude":-101.91895},{"id":73327,"name":"San Antonio Calichar","latitude":20.49669,"longitude":-100.51775},{"id":73364,"name":"San Antonio de Corrales","latitude":20.74556,"longitude":-100.96361},{"id":73375,"name":"San Antonio de los Morales","latitude":20.58055,"longitude":-100.9102},{"id":73377,"name":"San Antonio de los Tepetates","latitude":21.04472,"longitude":-101.67611},{"id":73366,"name":"San Antonio de Romerillo","latitude":20.60784,"longitude":-100.94854},{"id":73383,"name":"San Antonio el Chico","latitude":20.62798,"longitude":-101.28373},{"id":73387,"name":"San Antonio el Rico","latitude":20.82308,"longitude":-101.37161},{"id":73332,"name":"San Antonio Eménguaro","latitude":20.13997,"longitude":-100.87874},{"id":73334,"name":"San Antonio Gallardo","latitude":20.62833,"longitude":-100.76778},{"id":73345,"name":"San Antonio Primero","latitude":21.09417,"longitude":-100.52844},{"id":73355,"name":"San Antonio Texas","latitude":20.98556,"longitude":-101.49},{"id":73411,"name":"San Bartolo de Berrios","latitude":21.6124,"longitude":-101.06845},{"id":73419,"name":"San Bartolomé Aguas Calientes","latitude":20.49556,"longitude":-100.54833},{"id":73438,"name":"San Bernardo","latitude":20.96764,"longitude":-101.86972},{"id":73442,"name":"San Bernardo Peña Blanca","latitude":20.46167,"longitude":-101.4825},{"id":73465,"name":"San Cayetano","latitude":20.60357,"longitude":-100.82021},{"id":73472,"name":"San Cristóbal","latitude":20.65787,"longitude":-101.47683},{"id":73489,"name":"San Diego","latitude":20.88838,"longitude":-101.40973},{"id":73495,"name":"San Diego de Alcalá","latitude":20.03062,"longitude":-100.8635},{"id":73496,"name":"San Diego de la Unión","latitude":21.46749,"longitude":-100.8731},{"id":73505,"name":"San Elías","latitude":20.63529,"longitude":-100.8412},{"id":73511,"name":"San Felipe","latitude":21.47831,"longitude":-101.21566},{"id":73521,"name":"San Felipe Quiriceo","latitude":20.44303,"longitude":-101.2896},{"id":73542,"name":"San Francisco","latitude":21.63387,"longitude":-101.05884},{"id":73546,"name":"San Francisco (Baños de Agua Caliente)","latitude":21.07389,"longitude":-101.47278},{"id":73611,"name":"San Francisco de Durán","latitude":21.00513,"longitude":-101.6199},{"id":73621,"name":"San Francisco del Rincón","latitude":21.01843,"longitude":-101.85515},{"id":73625,"name":"San Gabriel","latitude":21.12949,"longitude":-100.83496},{"id":73633,"name":"San Gabriel y San Ignacio","latitude":20.44028,"longitude":-101.60816},{"id":73640,"name":"San Gregorio","latitude":20.54694,"longitude":-101.62847},{"id":73651,"name":"San Ignacio","latitude":21.28194,"longitude":-100.53722},{"id":73654,"name":"San Ignacio de Hidalgo","latitude":20.91167,"longitude":-101.86056},{"id":73655,"name":"San Ignacio de Rivera (Ojo de Agua)","latitude":20.55926,"longitude":-101.46127},{"id":73656,"name":"San Ignacio de San José Parangueo","latitude":20.41473,"longitude":-101.2978},{"id":73686,"name":"San Isidro de Gamboa","latitude":20.39501,"longitude":-100.52705},{"id":73687,"name":"San Isidro de la Concepción","latitude":20.62776,"longitude":-100.7857},{"id":73688,"name":"San Isidro de la Estacada","latitude":21.14746,"longitude":-100.68473},{"id":73689,"name":"San Isidro de los Sauces","latitude":21.02103,"longitude":-101.53724},{"id":73697,"name":"San Javier","latitude":20.66729,"longitude":-101.4294},{"id":73724,"name":"San Jerónimo de Araceo","latitude":20.32507,"longitude":-101.18195},{"id":73807,"name":"San José de Agua Azul","latitude":20.48662,"longitude":-100.65587},{"id":73809,"name":"San José de Ayala","latitude":20.38709,"longitude":-101.44143},{"id":73811,"name":"San José de Bernalejo (El Guayabo)","latitude":20.64,"longitude":-101.40139},{"id":73813,"name":"San José de Cervera","latitude":20.96778,"longitude":-101.3025},{"id":73814,"name":"San José de Durán (Los Troncoso)","latitude":21.06306,"longitude":-101.67417},{"id":73820,"name":"San José de Guanajuato","latitude":20.55601,"longitude":-100.89277},{"id":73831,"name":"San José de la Montaña","latitude":20.60037,"longitude":-101.07228},{"id":73833,"name":"San José de las Pilas","latitude":20.65227,"longitude":-101.04523},{"id":73822,"name":"San José de Llanos","latitude":20.85568,"longitude":-101.30897},{"id":73823,"name":"San José de Mendoza","latitude":20.68965,"longitude":-101.21353},{"id":73824,"name":"San José de Rancho Nuevo (Los Arrieros)","latitude":21.59639,"longitude":-101.00389},{"id":73835,"name":"San José del Cerrito de Camargo","latitude":20.41917,"longitude":-101.04222},{"id":73837,"name":"San José del Potrero","latitude":21.12815,"longitude":-101.59737},{"id":73842,"name":"San José del Rodeo","latitude":20.92083,"longitude":-101.21639},{"id":73845,"name":"San José del Torreón","latitude":21.47444,"longitude":-101.47056},{"id":73850,"name":"San José el Nuevo","latitude":20.44389,"longitude":-100.77194},{"id":73769,"name":"San José Iturbide","latitude":21.00153,"longitude":-100.38416},{"id":73786,"name":"San José Temascatío","latitude":20.69183,"longitude":-101.26028},{"id":73798,"name":"San José Viborillas","latitude":20.56778,"longitude":-100.63361},{"id":73871,"name":"San Juan Bautista Cacalote","latitude":20.34806,"longitude":-100.78833},{"id":73959,"name":"San Juan de Abajo","latitude":21.05623,"longitude":-101.63544},{"id":73966,"name":"San Juan de la Vega","latitude":20.62521,"longitude":-100.76141},{"id":73962,"name":"San Juan de Otates","latitude":21.11562,"longitude":-101.55773},{"id":73974,"name":"San Juan del Llanito","latitude":20.51369,"longitude":-100.5398},{"id":73893,"name":"San Juan Grande","latitude":20.37627,"longitude":-101.52677},{"id":73903,"name":"San Juan Jaripeo","latitude":20.00601,"longitude":-100.76052},{"id":73914,"name":"San Juan Pan de Arriba","latitude":21.47151,"longitude":-100.92021},{"id":73991,"name":"San Lorenzo","latitude":20.46687,"longitude":-100.7197},{"id":74023,"name":"San Lucas","latitude":20.29341,"longitude":-100.55238},{"id":74060,"name":"San Luis de la Paz","latitude":21.29771,"longitude":-100.51736},{"id":74228,"name":"San Miguel de Allende","latitude":20.91528,"longitude":-100.74389},{"id":74233,"name":"San Miguel del Arenal","latitude":20.99083,"longitude":-101.48556},{"id":74176,"name":"San Miguel Eménguaro","latitude":20.16402,"longitude":-100.88596},{"id":74191,"name":"San Miguel Octopan","latitude":20.57428,"longitude":-100.7478},{"id":74270,"name":"San Nicolás de la Condesa","latitude":20.23259,"longitude":-100.78108},{"id":74272,"name":"San Nicolás de los Agustinos","latitude":20.24614,"longitude":-100.96679},{"id":74275,"name":"San Nicolás del Cármen","latitude":21.27405,"longitude":-100.55032},{"id":74258,"name":"San Nicolás Parangueo","latitude":20.39356,"longitude":-101.25364},{"id":74263,"name":"San Nicolás Temascatío","latitude":20.72486,"longitude":-101.24874},{"id":74298,"name":"San Pablo Pejo","latitude":20.03375,"longitude":-100.93763},{"id":74404,"name":"San Pedro de Ibarra","latitude":21.4832,"longitude":-101.54046},{"id":74409,"name":"San Pedro de los Naranjos","latitude":20.22716,"longitude":-100.93782},{"id":74378,"name":"San Pedro Tenango","latitude":20.50769,"longitude":-100.63247},{"id":74440,"name":"San Roque","latitude":20.59966,"longitude":-101.34182},{"id":74442,"name":"San Roque de Montes","latitude":21.01,"longitude":-101.81083},{"id":74443,"name":"San Roque de Torres","latitude":20.97138,"longitude":-101.8529},{"id":74450,"name":"San Salvador Torrecillas","latitude":20.55981,"longitude":-100.95784},{"id":74478,"name":"San Sebastián de Salitre","latitude":21.10278,"longitude":-100.48086},{"id":74494,"name":"San Vicente","latitude":20.82864,"longitude":-101.3413},{"id":74507,"name":"San Vicente de Flores","latitude":20.62172,"longitude":-101.25296},{"id":74523,"name":"Santa Ana","latitude":21.05917,"longitude":-101.67583},{"id":74544,"name":"Santa Ana Pacueco","latitude":20.34722,"longitude":-102.01583},{"id":74558,"name":"Santa Anita","latitude":20.47028,"longitude":-100.815},{"id":74566,"name":"Santa Bárbara","latitude":21.53716,"longitude":-101.37787},{"id":74579,"name":"Santa Catarina","latitude":21.15134,"longitude":-100.06954},{"id":74599,"name":"Santa Clara","latitude":20.17904,"longitude":-101.4335},{"id":74648,"name":"Santa Cruz de Juventino Rosas","latitude":20.63658,"longitude":-100.97956},{"id":74659,"name":"Santa Fe de la Purísima","latitude":20.49556,"longitude":-100.89278},{"id":74816,"name":"Santa María del Refugio","latitude":20.4403,"longitude":-100.80032},{"id":74838,"name":"Santa Rosa","latitude":21.55181,"longitude":-101.0921},{"id":74850,"name":"Santa Rosa de Lima","latitude":21.07179,"longitude":-101.19723},{"id":74852,"name":"Santa Rosa de Rivas","latitude":20.78112,"longitude":-101.53632},{"id":74853,"name":"Santa Rosa los Angeles","latitude":20.56585,"longitude":-100.92356},{"id":74860,"name":"Santa Teresa","latitude":20.95973,"longitude":-101.31644},{"id":74862,"name":"Santa Teresita de Don Diego","latitude":20.88,"longitude":-100.77861},{"id":74885,"name":"Santiago Capitiro","latitude":20.30427,"longitude":-101.01767},{"id":74983,"name":"Santiago de Cuenda","latitude":20.59956,"longitude":-100.99405},{"id":74921,"name":"Santiago Maravatío","latitude":20.17297,"longitude":-100.99468},{"id":75028,"name":"Santo Tomás Huatzindeo","latitude":20.22205,"longitude":-100.92068},{"id":75040,"name":"Sarabia","latitude":20.52256,"longitude":-101.06163},{"id":75063,"name":"Serrano","latitude":20.7783,"longitude":-101.3954},{"id":75079,"name":"Silao","latitude":20.94356,"longitude":-101.42703},{"id":75080,"name":"Silao de la Victoria","latitude":20.93718,"longitude":-101.44987},{"id":75082,"name":"Silva","latitude":20.94617,"longitude":-101.85687},{"id":75114,"name":"Soledad Nueva","latitude":21.27942,"longitude":-100.92249},{"id":75126,"name":"Sotelo","latitude":20.45773,"longitude":-101.07766},{"id":75141,"name":"Suchitlán","latitude":20.5332,"longitude":-101.0236},{"id":75178,"name":"Tamazula","latitude":20.44228,"longitude":-101.5533},{"id":75229,"name":"Tarandacuao","latitude":20.00094,"longitude":-100.51856},{"id":75232,"name":"Taretán","latitude":20.7788,"longitude":-101.33526},{"id":75233,"name":"Tarimoro","latitude":20.28336,"longitude":-100.75477},{"id":75305,"name":"Tejocote de Calera","latitude":20.17918,"longitude":-101.3971},{"id":75358,"name":"Tenango el Nuevo","latitude":20.53111,"longitude":-100.6717},{"id":75362,"name":"Tenería del Santuario","latitude":20.59955,"longitude":-100.7979},{"id":75464,"name":"Tequisquiapan","latitude":21.07996,"longitude":-100.82067},{"id":75551,"name":"Tierra Fría","latitude":20.46145,"longitude":-101.03927},{"id":75728,"name":"Tomelopitos","latitude":20.59463,"longitude":-101.36846},{"id":75798,"name":"Tulillos de Abajo","latitude":21.08563,"longitude":-100.48411},{"id":75812,"name":"Tupataro","latitude":20.59512,"longitude":-101.64637},{"id":75891,"name":"Uriangato","latitude":20.14085,"longitude":-101.18251},{"id":75895,"name":"Urireo","latitude":20.21314,"longitude":-100.84188},{"id":75907,"name":"Valencia de Cerro Gordo","latitude":20.60133,"longitude":-101.08173},{"id":75908,"name":"Valencianita","latitude":20.74701,"longitude":-101.30223},{"id":75924,"name":"Valle de Santiago","latitude":20.3914,"longitude":-101.19222},{"id":75934,"name":"Valtierrilla","latitude":20.53244,"longitude":-101.12761},{"id":75982,"name":"Victoria","latitude":21.21183,"longitude":-100.21545},{"id":75984,"name":"Victoria de Cortazar","latitude":20.3346,"longitude":-101.03173},{"id":76079,"name":"Villagrán","latitude":20.51452,"longitude":-100.99745},{"id":76088,"name":"Villas de Irapuato","latitude":20.68722,"longitude":-101.40528},{"id":76135,"name":"Xichú","latitude":21.34418,"longitude":-99.9997},{"id":76183,"name":"Xoconoxtle el Grande","latitude":20.93857,"longitude":-100.98149},{"id":76233,"name":"Yerbabuena","latitude":20.96319,"longitude":-101.27448},{"id":76248,"name":"Yuriria","latitude":20.21081,"longitude":-101.13212},{"id":76250,"name":"Yustis","latitude":20.58233,"longitude":-100.86392},{"id":76297,"name":"Zangarro (Zangarro Nuevo)","latitude":20.85806,"longitude":-101.27278},{"id":76302,"name":"Zapote de Barajas","latitude":20.37536,"longitude":-101.69964},{"id":76303,"name":"Zapote de Cestao","latitude":20.48362,"longitude":-101.67596},{"id":76304,"name":"Zapote de Palomas","latitude":20.58444,"longitude":-101.115},{"id":76305,"name":"Zapote de Peralta","latitude":20.45068,"longitude":-101.39481},{"id":76306,"name":"Zapotillo de Mogotes","latitude":20.3785,"longitude":-101.24795}]