[{"id":97606,"name":"Altukhovo","latitude":52.67559,"longitude":34.36703},{"id":97659,"name":"Ardon’","latitude":52.73524,"longitude":32.30857},{"id":97882,"name":"Belyye Berega","latitude":53.20851,"longitude":34.66405},{"id":98051,"name":"Brasovskiy Rayon","latitude":52.66667,"longitude":34.75},{"id":98060,"name":"Bryansk","latitude":53.25209,"longitude":34.37167},{"id":98061,"name":"Bryanskiy Rayon","latitude":53.25,"longitude":34.41667},{"id":98104,"name":"Bytosh’","latitude":53.81861,"longitude":34.09116},{"id":98226,"name":"Churovichi","latitude":52.1693,"longitude":31.9926},{"id":98295,"name":"Dobrun’","latitude":53.18512,"longitude":34.24625},{"id":98345,"name":"Dubrovka","latitude":53.6907,"longitude":33.5071},{"id":98346,"name":"Dubrovskiy Rayon","latitude":53.66667,"longitude":33.41667},{"id":98362,"name":"Dyat’kovo","latitude":53.59782,"longitude":34.33825},{"id":98363,"name":"Dyat’kovskiy Rayon","latitude":53.66667,"longitude":34.25},{"id":98498,"name":"Glinishchevo","latitude":53.30416,"longitude":34.06523},{"id":98520,"name":"Gordeyevka","latitude":52.9569,"longitude":31.9703},{"id":98521,"name":"Gordeyevskiy Rayon","latitude":52.91667,"longitude":31.91667},{"id":98547,"name":"Gorod Bryansk","latitude":53.25,"longitude":34.41667},{"id":98550,"name":"Gorod Dyat’kovo","latitude":53.6,"longitude":34.35},{"id":98729,"name":"Ivanovka","latitude":53.34694,"longitude":34.21917},{"id":98743,"name":"Ivot","latitude":53.67556,"longitude":34.18722},{"id":98859,"name":"Karachev","latitude":53.12292,"longitude":34.98517},{"id":99098,"name":"Kletnya","latitude":53.38967,"longitude":33.21714},{"id":99099,"name":"Kletnyanskiy Rayon","latitude":53.33333,"longitude":33.16667},{"id":99101,"name":"Klimovo","latitude":52.38053,"longitude":32.19233},{"id":99103,"name":"Klimovskiy Rayon","latitude":52.25,"longitude":32.16667},{"id":99106,"name":"Klintsovskiy Rayon","latitude":52.75,"longitude":32.16667},{"id":99107,"name":"Klintsy","latitude":52.76019,"longitude":32.23935},{"id":99130,"name":"Kokino","latitude":52.4964,"longitude":34.7808},{"id":99131,"name":"Kokorevka","latitude":52.5874,"longitude":34.2692},{"id":99158,"name":"Komarichi","latitude":52.4151,"longitude":34.7905},{"id":99159,"name":"Komarichskiy Rayon","latitude":52.41667,"longitude":34.75},{"id":99223,"name":"Korzhovka-Golubovka","latitude":52.76742,"longitude":32.35362},{"id":99277,"name":"Krasnaya Gora","latitude":52.9995,"longitude":31.6023},{"id":99308,"name":"Krasnogorskiy Rayon","latitude":53.0,"longitude":31.5},{"id":99654,"name":"Lokot’","latitude":52.565,"longitude":34.5776},{"id":99661,"name":"Lopandino","latitude":52.4666,"longitude":34.8163},{"id":99719,"name":"Lyubokhna","latitude":53.50332,"longitude":34.38847},{"id":99720,"name":"Lyubovsho","latitude":52.9851,"longitude":31.5422},{"id":99887,"name":"Mglin","latitude":53.05907,"longitude":32.84753},{"id":99888,"name":"Mglinskiy Rayon","latitude":53.16667,"longitude":32.83333},{"id":100071,"name":"Navlinskiy Rayon","latitude":52.83333,"longitude":34.41667},{"id":100072,"name":"Navlya","latitude":52.82544,"longitude":34.4996},{"id":100114,"name":"Net’inka","latitude":53.34778,"longitude":34.19111},{"id":100337,"name":"Novozybkov","latitude":52.5396,"longitude":31.9275},{"id":100338,"name":"Novozybkovskiy Rayon","latitude":52.58333,"longitude":31.83333},{"id":100349,"name":"Novyy Ropsk","latitude":52.29781,"longitude":32.31206},{"id":100706,"name":"Pochep","latitude":52.9336,"longitude":33.4464},{"id":100707,"name":"Pochepskiy Rayon","latitude":52.91667,"longitude":33.5},{"id":100735,"name":"Pogar","latitude":52.55399,"longitude":33.25907},{"id":100736,"name":"Pogarskiy Rayon","latitude":52.5,"longitude":33.25},{"id":100907,"name":"Putëvka","latitude":53.25833,"longitude":34.28778},{"id":100924,"name":"Raditsa-Krylovka","latitude":53.31712,"longitude":34.35742},{"id":100982,"name":"Rognedino","latitude":53.80147,"longitude":33.5576},{"id":100983,"name":"Rognedinskiy Rayon","latitude":53.83333,"longitude":33.66667},{"id":101058,"name":"Rzhanitsa","latitude":53.42844,"longitude":33.92297},{"id":101063,"name":"Sachkovichi","latitude":52.3459,"longitude":32.2246},{"id":101161,"name":"Sel’tso","latitude":53.36831,"longitude":34.10328},{"id":101198,"name":"Seshcha","latitude":53.7361,"longitude":33.3387},{"id":101224,"name":"Sevsk","latitude":52.1491,"longitude":34.4926},{"id":101225,"name":"Sevskiy Rayon","latitude":52.08333,"longitude":34.41667},{"id":101612,"name":"Star’","latitude":53.62362,"longitude":34.15183},{"id":101577,"name":"Starodub","latitude":52.58444,"longitude":32.76333},{"id":101578,"name":"Starodubskiy Rayon","latitude":52.5,"longitude":32.75},{"id":101671,"name":"Suponevo","latitude":53.20492,"longitude":34.29597},{"id":101673,"name":"Surazh","latitude":53.01747,"longitude":32.39178},{"id":101674,"name":"Surazhskiy Rayon","latitude":53.08333,"longitude":32.41667},{"id":101694,"name":"Suzëmka","latitude":52.31834,"longitude":34.07899},{"id":101692,"name":"Suzemskiy Rayon","latitude":52.41667,"longitude":34.16667},{"id":101697,"name":"Sven’","latitude":53.18222,"longitude":34.55111},{"id":101928,"name":"Trubchevsk","latitude":52.5798,"longitude":33.7644},{"id":101929,"name":"Trubchevskiy Rayon","latitude":52.58333,"longitude":33.75},{"id":102058,"name":"Unecha","latitude":52.84591,"longitude":32.67394},{"id":102059,"name":"Unechskiy Rayon","latitude":52.83333,"longitude":32.83333},{"id":102430,"name":"Vygonichi","latitude":53.09855,"longitude":34.06728},{"id":102431,"name":"Vygonichskiy Rayon","latitude":53.08333,"longitude":34.0},{"id":102440,"name":"Vyshkov","latitude":52.4764,"longitude":31.6873},{"id":102640,"name":"Zamishevo","latitude":52.5395,"longitude":32.0129},{"id":102686,"name":"Zaymishche","latitude":52.7264,"longitude":32.2334},{"id":102735,"name":"Zhiryatino","latitude":53.2228,"longitude":33.7306},{"id":102736,"name":"Zhiryatinskiy Rayon","latitude":53.25,"longitude":33.58333},{"id":102741,"name":"Zhukovka","latitude":53.53395,"longitude":33.72798},{"id":102744,"name":"Zhukovskiy Rayon","latitude":53.5,"longitude":33.83333},{"id":102751,"name":"Zlynka","latitude":52.4267,"longitude":31.7378}]