[{"id":109044,"name":"Bagamoyo","latitude":-6.44222,"longitude":38.90422},{"id":109054,"name":"Bungu","latitude":-7.63369,"longitude":39.05818},{"id":109059,"name":"Chalinze","latitude":-6.63784,"longitude":38.35396},{"id":109077,"name":"Ikwiriri","latitude":-7.95618,"longitude":38.97164},{"id":109100,"name":"Kibaha","latitude":-6.76667,"longitude":38.91667},{"id":109104,"name":"Kibiti","latitude":-7.72178,"longitude":38.93749},{"id":109114,"name":"Kilindoni","latitude":-7.91446,"longitude":39.66204},{"id":109124,"name":"Kisarawe","latitude":-6.9,"longitude":39.06667},{"id":109146,"name":"Lugoba","latitude":-6.45,"longitude":38.33333},{"id":109173,"name":"Maneromango","latitude":-7.1988,"longitude":38.78478},{"id":109191,"name":"Mbumi","latitude":-7.90577,"longitude":39.21047},{"id":109202,"name":"Mkuranga","latitude":-7.27,"longitude":39.2},{"id":109204,"name":"Mlandizi","latitude":-6.7,"longitude":38.73333},{"id":109227,"name":"Mvomero","latitude":-6.25,"longitude":38.66667},{"id":109298,"name":"Utete","latitude":-7.98598,"longitude":38.75795},{"id":109302,"name":"Vikindu","latitude":-7.00667,"longitude":39.29849}]