[{"id":107615,"name":"Evren","latitude":40.24527,"longitude":39.17535},{"id":107677,"name":"Gumushkhane","latitude":40.46001,"longitude":39.47176},{"id":107969,"name":"Kelkit","latitude":40.12682,"longitude":39.43424},{"id":108079,"name":"Köse","latitude":40.20692,"longitude":39.64626},{"id":108090,"name":"Kürtün","latitude":40.69516,"longitude":39.09468},{"id":108181,"name":"Merkez","latitude":40.46843,"longitude":39.67441},{"id":108959,"name":"Şiran","latitude":40.19064,"longitude":39.11747},{"id":108591,"name":"Torul","latitude":40.55071,"longitude":39.28344},{"id":108686,"name":"Yağlıdere","latitude":40.54432,"longitude":39.52762}]