[{"id":105188,"name":"Amphoe Ban Dan","latitude":15.12363,"longitude":103.18937},{"id":105197,"name":"Amphoe Ban Kruat","latitude":14.39205,"longitude":103.11494},{"id":105202,"name":"Amphoe Ban Mai Chaiyaphot","latitude":15.57857,"longitude":102.84394},{"id":105279,"name":"Amphoe Chaloem Phra Kiat","latitude":14.55725,"longitude":102.89878},{"id":105281,"name":"Amphoe Chamni","latitude":14.78636,"longitude":102.85386},{"id":105356,"name":"Amphoe Huai Rat","latitude":15.00896,"longitude":103.23499},{"id":105381,"name":"Amphoe Khaen Dong","latitude":15.3062,"longitude":103.13286},{"id":105425,"name":"Amphoe Khu Mueang","latitude":15.26844,"longitude":103.02717},{"id":105454,"name":"Amphoe Krasang","latitude":14.94167,"longitude":103.31898},{"id":105472,"name":"Amphoe Lahan Sai","latitude":14.32194,"longitude":102.87994},{"id":105474,"name":"Amphoe Lam Plai Mat","latitude":15.01688,"longitude":102.87479},{"id":105534,"name":"Amphoe Mueang Buriram","latitude":14.94078,"longitude":103.06244},{"id":105621,"name":"Amphoe Na Pho","latitude":15.69565,"longitude":102.93857},{"id":105641,"name":"Amphoe Nang Rong","latitude":14.63333,"longitude":102.76667},{"id":105649,"name":"Amphoe Non Din Daeng","latitude":14.2201,"longitude":102.68233},{"id":105656,"name":"Amphoe Non Suwan","latitude":14.55511,"longitude":102.58339},{"id":105666,"name":"Amphoe Nong Hong","latitude":14.86149,"longitude":102.6708},{"id":105669,"name":"Amphoe Nong Ki","latitude":14.72696,"longitude":102.55798},{"id":105694,"name":"Amphoe Pa Kham","latitude":14.4,"longitude":102.66667},{"id":105743,"name":"Amphoe Phlapphla Chai","latitude":14.73299,"longitude":103.17015},{"id":105785,"name":"Amphoe Phutthaisong","latitude":15.53249,"longitude":102.98701},{"id":105795,"name":"Amphoe Prakhon Chai","latitude":14.61041,"longitude":103.06054},{"id":106198,"name":"Amphoe Satuek","latitude":15.22699,"longitude":103.33006},{"id":106458,"name":"Buri Ram","latitude":14.99433,"longitude":103.10392},{"id":106589,"name":"Nang Rong","latitude":14.6377,"longitude":102.79138},{"id":106601,"name":"Nong Ki","latitude":14.68679,"longitude":102.538},{"id":106657,"name":"Prakhon Chai","latitude":14.60592,"longitude":103.12081},{"id":106691,"name":"Satuek","latitude":15.29703,"longitude":103.29192}]