[{"id":148500,"name":"Alhué","latitude":-34.03333333,"longitude":-71.1},{"id":18949,"name":"Buin","latitude":-33.73257,"longitude":-70.74281},{"id":148501,"name":"Calera de Tango","latitude":-33.65,"longitude":-70.81666667},{"id":148535,"name":"Cerrillos","latitude":-33.5022919,"longitude":-70.7300942},{"id":148540,"name":"Cerro Navia","latitude":-33.4251643,"longitude":-70.7840754},{"id":148502,"name":"Colina","latitude":-33.2,"longitude":-70.68333333},{"id":148503,"name":"Conchalí","latitude":-33.35,"longitude":-70.61666667},{"id":148536,"name":"Curacaví","latitude":-33.4693783,"longitude":-70.7261203},{"id":148504,"name":"El Bosque","latitude":-33.56666667,"longitude":-70.7},{"id":18982,"name":"El Monte","latitude":-33.67969,"longitude":-70.98482},{"id":148505,"name":"Estación Central","latitude":-33.451944,"longitude":-70.678889},{"id":148537,"name":"Huechuraba","latitude":-33.3692827,"longitude":-70.6648265},{"id":148506,"name":"Independencia","latitude":-33.41666667,"longitude":-70.63333333},{"id":148507,"name":"Isla de Maipo","latitude":-33.75,"longitude":-70.9},{"id":148508,"name":"La Cisterna","latitude":-33.55,"longitude":-70.68333},{"id":148510,"name":"La Florida","latitude":-33.55,"longitude":-70.56666667},{"id":148511,"name":"La Granja","latitude":-33.54305556,"longitude":-70.63194444},{"id":18993,"name":"La Pintana","latitude":-33.58331,"longitude":-70.63419},{"id":148512,"name":"La Reina","latitude":-33.45,"longitude":-70.55},{"id":18997,"name":"Lampa","latitude":-33.2863,"longitude":-70.87561},{"id":148513,"name":"Las Condes","latitude":-33.41666667,"longitude":-70.58333333},{"id":148514,"name":"Lo Barnechea","latitude":-33.35,"longitude":-70.51666667},{"id":148515,"name":"Lo Espejo","latitude":-33.53333333,"longitude":-70.71666667},{"id":19005,"name":"Lo Prado","latitude":-33.4443,"longitude":-70.72552},{"id":148516,"name":"Macul","latitude":-33.5,"longitude":-70.56666667},{"id":148517,"name":"Maipú","latitude":-33.51666667,"longitude":-70.76666667},{"id":148518,"name":"María Pinto","latitude":-33.53333333,"longitude":-71.13333333},{"id":19012,"name":"Melipilla","latitude":-33.68909,"longitude":-71.21528},{"id":148534,"name":"Ñuñoa","latitude":-33.46666667,"longitude":-70.6},{"id":148519,"name":"Padre Hurtado","latitude":-33.56666667,"longitude":-70.83333333},{"id":19020,"name":"Paine","latitude":-33.80796,"longitude":-70.74109},{"id":148520,"name":"Pedro Aguirre Cerda","latitude":-33.46666667,"longitude":-70.63333333},{"id":19026,"name":"Peñaflor","latitude":-33.60627,"longitude":-70.87649},{"id":148521,"name":"Peñalolén","latitude":-33.48333333,"longitude":-70.53333333},{"id":148522,"name":"Pirque","latitude":-33.71865,"longitude":-70.50658},{"id":148523,"name":"Providencia","latitude":-33.43333333,"longitude":-70.61666667},{"id":148538,"name":"Pudahuel","latitude":-33.4188359,"longitude":-70.9146307},{"id":19081,"name":"Puente Alto","latitude":-33.61169,"longitude":-70.57577},{"id":148524,"name":"Quilicura","latitude":-33.36666667,"longitude":-70.75},{"id":148525,"name":"Quinta Normal","latitude":-33.45,"longitude":-70.7},{"id":148526,"name":"Recoleta","latitude":-33.41666667,"longitude":-70.65},{"id":148527,"name":"Renca","latitude":-33.4,"longitude":-70.73333333},{"id":19102,"name":"San Bernardo","latitude":-33.59217,"longitude":-70.6996},{"id":148528,"name":"San Joaquín","latitude":-33.5,"longitude":-70.61666667},{"id":148529,"name":"San José de Maipo","latitude":-33.63333333,"longitude":-70.36666667},{"id":148530,"name":"San Miguel","latitude":-33.5,"longitude":-70.66666667},{"id":148531,"name":"San Pedro","latitude":-33.9,"longitude":-71.46666667},{"id":148539,"name":"San Ramón","latitude":-33.5377595,"longitude":-70.6517673},{"id":19111,"name":"Santiago","latitude":-33.45694,"longitude":-70.64827},{"id":19112,"name":"Talagante","latitude":-33.66386,"longitude":-70.92734},{"id":148532,"name":"Tiltil","latitude":-33.08333333,"longitude":-70.93333333},{"id":148533,"name":"Vitacura","latitude":-33.4,"longitude":-70.6}]