[{"id":68127,"name":"Aguascalientes","latitude":21.88333,"longitude":-102.3},{"id":68336,"name":"Arboledas Paso Blanco [Fraccionamiento]","latitude":21.96361,"longitude":-102.30194},{"id":68342,"name":"Arellano","latitude":21.80106,"longitude":-102.27384},{"id":68380,"name":"Asientos","latitude":22.23333,"longitude":-102.08333},{"id":68616,"name":"Bimbaletes Aguascalientes (El Álamo)","latitude":22.23444,"longitude":-102.01917},{"id":68752,"name":"Calvillo","latitude":21.85,"longitude":-102.71666},{"id":68820,"name":"Carboneras","latitude":22.18311,"longitude":-102.24601},{"id":68844,"name":"Cartagena [Fraccionamiento]","latitude":21.95639,"longitude":-102.27639},{"id":68900,"name":"Centro de Arriba","latitude":21.73123,"longitude":-102.49888},{"id":69197,"name":"Ciénega Grande","latitude":22.19434,"longitude":-102.0194},{"id":69486,"name":"Corral de Barrancos","latitude":21.95028,"longitude":-102.33222},{"id":69507,"name":"Cosío","latitude":22.36667,"longitude":-102.3},{"id":69510,"name":"Cotorina","latitude":21.75154,"longitude":-102.26832},{"id":69539,"name":"Crucero Las Pilas","latitude":21.82722,"longitude":-102.76033},{"id":69634,"name":"Cumbres III","latitude":21.92222,"longitude":-102.2375},{"id":69813,"name":"Ejido la Guayana (Rancho Seco)","latitude":21.98028,"longitude":-102.27306},{"id":69837,"name":"El Bajío","latitude":22.24558,"longitude":-102.30825},{"id":69899,"name":"El Chayote","latitude":22.28667,"longitude":-102.239},{"id":69935,"name":"El Cuervero (Cuerveros)","latitude":21.86056,"longitude":-102.68389},{"id":70023,"name":"El Llano","latitude":21.91667,"longitude":-101.96666},{"id":70154,"name":"El Refugio de Peñuelas","latitude":21.71635,"longitude":-102.28941},{"id":70155,"name":"El Refugio de Providencia (Providencia)","latitude":22.34667,"longitude":-102.25778},{"id":70185,"name":"El Salero","latitude":22.38706,"longitude":-102.32323},{"id":70240,"name":"El Tule","latitude":22.08438,"longitude":-102.091},{"id":70285,"name":"Emiliano Zapata","latitude":22.10635,"longitude":-102.30056},{"id":70315,"name":"Escaleras","latitude":22.25054,"longitude":-102.33377},{"id":70387,"name":"Ex-Viñedos Guadalupe","latitude":21.95944,"longitude":-102.27417},{"id":70535,"name":"General Ignacio Zaragoza","latitude":21.88136,"longitude":-102.46454},{"id":70608,"name":"Guadalupe de Atlas","latitude":22.26653,"longitude":-102.03118},{"id":70989,"name":"Jaltiche de Arriba","latitude":21.77525,"longitude":-102.78849},{"id":70993,"name":"Jaltomate","latitude":22.01528,"longitude":-102.14583},{"id":71007,"name":"Jarillas","latitude":22.29611,"longitude":-102.06333},{"id":71024,"name":"Jesús Gómez Portugal","latitude":21.99607,"longitude":-102.29095},{"id":71025,"name":"Jesús Gómez Portugal (Margaritas)","latitude":21.99917,"longitude":-102.29139},{"id":71032,"name":"Jesús María","latitude":21.96667,"longitude":-102.35},{"id":71232,"name":"La Concepción","latitude":22.03537,"longitude":-102.29989},{"id":71267,"name":"La Escondida","latitude":22.03573,"longitude":-102.25931},{"id":71340,"name":"La Labor","latitude":21.96207,"longitude":-102.69626},{"id":71369,"name":"La Loma de los Negritos","latitude":21.87056,"longitude":-102.35},{"id":71431,"name":"La Panadera","latitude":21.86398,"longitude":-102.69832},{"id":71467,"name":"La Punta","latitude":22.32411,"longitude":-102.29212},{"id":71656,"name":"Las Ánimas","latitude":22.09057,"longitude":-102.26684},{"id":71627,"name":"Las Norias de Ojocaliente","latitude":21.88944,"longitude":-102.21738},{"id":71893,"name":"Lázaro Cárdenas","latitude":22.17137,"longitude":-102.02704},{"id":71774,"name":"Los Arquitos","latitude":21.92299,"longitude":-102.38554},{"id":71785,"name":"Los Caños","latitude":21.78167,"longitude":-102.4675},{"id":71792,"name":"Los Conos","latitude":21.89739,"longitude":-101.99487},{"id":71903,"name":"Macario J. Gómez [Colonia]","latitude":21.98056,"longitude":-102.25139},{"id":71948,"name":"Malpaso","latitude":21.85896,"longitude":-102.66441},{"id":71986,"name":"Maravillas","latitude":21.95408,"longitude":-102.32982},{"id":72079,"name":"Mesa Grande","latitude":21.80529,"longitude":-102.72181},{"id":72155,"name":"Miravalle","latitude":21.9725,"longitude":-102.31139},{"id":72187,"name":"Molinos","latitude":22.16278,"longitude":-102.09472},{"id":72221,"name":"Montoro","latitude":21.75603,"longitude":-102.30219},{"id":72353,"name":"Noria del Borrego (Norias)","latitude":22.28722,"longitude":-102.04194},{"id":72354,"name":"Norias del Paso Hondo","latitude":21.86177,"longitude":-102.20681},{"id":72491,"name":"Ojo de Agua de Crucitas","latitude":21.96426,"longitude":-101.95202},{"id":72498,"name":"Ojocaliente","latitude":21.8739,"longitude":-102.67684},{"id":72562,"name":"Pabellón de Arteaga","latitude":22.15,"longitude":-102.26666},{"id":72563,"name":"Pabellón de Hidalgo","latitude":22.17871,"longitude":-102.34014},{"id":72604,"name":"Palo Alto","latitude":21.91801,"longitude":-101.96453},{"id":72652,"name":"Paredes","latitude":22.14958,"longitude":-102.48232},{"id":72671,"name":"Paseos de la Providencia [Fraccionamiento]","latitude":22.02425,"longitude":-102.27711},{"id":72672,"name":"Paseos de las Haciendas [Fraccionamiento]","latitude":21.99222,"longitude":-102.34361},{"id":72675,"name":"Paso Blanco","latitude":21.97361,"longitude":-102.31694},{"id":72755,"name":"Peñuelas (El Cienegal)","latitude":21.7225,"longitude":-102.27583},{"id":72777,"name":"Pilotos","latitude":22.03722,"longitude":-101.95917},{"id":72835,"name":"Pocitos","latitude":21.92167,"longitude":-102.33472},{"id":72964,"name":"Puertecito de la Virgen","latitude":21.96028,"longitude":-102.26889},{"id":73133,"name":"Rincón de Romos","latitude":22.23333,"longitude":-102.31666},{"id":73315,"name":"San Antonio","latitude":22.22823,"longitude":-102.25034},{"id":73374,"name":"San Antonio de los Horcones","latitude":21.99832,"longitude":-102.32663},{"id":73376,"name":"San Antonio de los Ríos","latitude":22.16104,"longitude":-102.47118},{"id":73365,"name":"San Antonio de Peñuelas","latitude":21.67471,"longitude":-102.3001},{"id":73616,"name":"San Francisco de los Romo","latitude":22.03307,"longitude":-102.22902},{"id":73650,"name":"San Ignacio","latitude":21.89269,"longitude":-102.33974},{"id":73693,"name":"San Jacinto","latitude":22.34861,"longitude":-102.23361},{"id":73819,"name":"San José de Gracia","latitude":22.15,"longitude":-102.41666},{"id":74058,"name":"San Luis de Letras","latitude":22.13551,"longitude":-102.29729},{"id":74475,"name":"San Sebastián [Fraccionamiento]","latitude":21.82139,"longitude":-102.27111},{"id":74490,"name":"San Tadeo","latitude":21.91954,"longitude":-102.70043},{"id":74680,"name":"Santa Isabel [Fraccionamiento]","latitude":22.08111,"longitude":-102.26778},{"id":74807,"name":"Santa María de la Paz","latitude":22.38786,"longitude":-102.25697},{"id":74839,"name":"Santa Rosa (El Huizache)","latitude":21.935,"longitude":-102.02194},{"id":74869,"name":"Santiago","latitude":22.11948,"longitude":-102.33769},{"id":75415,"name":"Tepetates","latitude":21.95667,"longitude":-102.32167},{"id":75446,"name":"Tepezalá","latitude":22.21667,"longitude":-102.16666},{"id":75913,"name":"Valladolid","latitude":22.02111,"longitude":-102.315},{"id":75915,"name":"Valle Huejúcar (Fraccionamiento Popular) [Fraccionamiento]","latitude":21.83111,"longitude":-102.75028},{"id":76024,"name":"Villa Juárez","latitude":22.09447,"longitude":-102.0693},{"id":76026,"name":"Villa Licenciado Jesús Terán (Calvillito)","latitude":21.82528,"longitude":-102.18778}]