[{"id":81132,"name":"Aborlan","latitude":9.43361,"longitude":118.54879},{"id":81133,"name":"Abra de Ilog","latitude":13.4437,"longitude":120.7291},{"id":81145,"name":"Adela","latitude":12.44164,"longitude":120.97291},{"id":81156,"name":"Agcogon","latitude":12.06146,"longitude":121.95911},{"id":81173,"name":"Agutaya","latitude":11.148,"longitude":120.9417},{"id":81181,"name":"Alad","latitude":12.61682,"longitude":122.24751},{"id":81197,"name":"Alcantara","latitude":12.2589,"longitude":122.0544},{"id":81204,"name":"Alemanguan","latitude":10.61177,"longitude":119.3268},{"id":81206,"name":"Algeciras","latitude":11.4154,"longitude":120.8168},{"id":81210,"name":"Alibug","latitude":12.22906,"longitude":121.22811},{"id":81272,"name":"Anilao","latitude":12.71402,"longitude":121.51242},{"id":81295,"name":"Apitong","latitude":13.2391,"longitude":121.2075},{"id":81300,"name":"Apurawan","latitude":9.5994,"longitude":118.3489},{"id":81303,"name":"Araceli","latitude":10.5529,"longitude":119.9913},{"id":81304,"name":"Aramawayan","latitude":9.34247,"longitude":118.1623},{"id":81305,"name":"Aramayuan","latitude":9.17008,"longitude":118.1872},{"id":81333,"name":"Aurora","latitude":13.2322,"longitude":121.1203},{"id":81350,"name":"Babug","latitude":12.37325,"longitude":121.04171},{"id":81362,"name":"Baco","latitude":13.3573,"longitude":121.0983},{"id":81377,"name":"Bacungan","latitude":9.91056,"longitude":118.70222},{"id":81400,"name":"Bagong Sikat","latitude":12.36745,"longitude":121.06171},{"id":81418,"name":"Baheli","latitude":10.01369,"longitude":118.77294},{"id":81429,"name":"Balabac","latitude":7.98363,"longitude":117.04868},{"id":81440,"name":"Balanacan","latitude":13.5289,"longitude":121.8677},{"id":81454,"name":"Balatero","latitude":13.5021,"longitude":120.9244},{"id":81504,"name":"Balugo","latitude":12.57923,"longitude":121.43931},{"id":81545,"name":"Banos","latitude":12.64553,"longitude":120.90972},{"id":81548,"name":"Bansud","latitude":12.865,"longitude":121.45639},{"id":81564,"name":"Barahan","latitude":13.0121,"longitude":120.762},{"id":81581,"name":"Barong Barong","latitude":8.8535,"longitude":117.8939},{"id":81617,"name":"Batarasa","latitude":8.67335,"longitude":117.62795},{"id":81620,"name":"Batasan","latitude":12.76667,"longitude":120.78333},{"id":81627,"name":"Bato","latitude":10.825,"longitude":119.471},{"id":81669,"name":"Bayuin","latitude":13.0411,"longitude":121.38852},{"id":81728,"name":"Bintacay","latitude":13.4986,"longitude":121.8768},{"id":81752,"name":"Boac","latitude":13.4463,"longitude":121.84},{"id":81828,"name":"Buenavista","latitude":13.25511,"longitude":121.94149},{"id":81865,"name":"Bulalacao","latitude":12.32535,"longitude":121.34351},{"id":81888,"name":"Buluang","latitude":12.23336,"longitude":119.87581},{"id":81900,"name":"Bunog","latitude":9.14028,"longitude":117.78167},{"id":81913,"name":"Burirao","latitude":9.2,"longitude":118.1},{"id":81929,"name":"Buyabod","latitude":13.4666,"longitude":122.0526},{"id":81934,"name":"Cabacao","latitude":13.3356,"longitude":120.6588},{"id":81976,"name":"Cabra","latitude":13.88833,"longitude":120.04944},{"id":81993,"name":"Cagayan","latitude":6.9747,"longitude":118.5144},{"id":81995,"name":"Cagayancillo","latitude":9.57694,"longitude":121.20722},{"id":82002,"name":"Caigangan","latitude":13.25811,"longitude":121.93363},{"id":82004,"name":"Cajidiocan","latitude":12.36696,"longitude":122.68141},{"id":82005,"name":"Cajimos","latitude":12.59463,"longitude":122.27531},{"id":82020,"name":"Calamundingan","latitude":12.93101,"longitude":121.47062},{"id":82029,"name":"Calapan","latitude":13.4117,"longitude":121.1803},{"id":82038,"name":"Calatrava","latitude":12.6198,"longitude":122.0714},{"id":82039,"name":"Calatugas","latitude":9.16898,"longitude":118.2235},{"id":82040,"name":"Calauag","latitude":10.66817,"longitude":119.5705},{"id":82056,"name":"Calintaan","latitude":12.56667,"longitude":120.93333},{"id":82090,"name":"Caminauit","latitude":12.33135,"longitude":121.08251},{"id":82127,"name":"Cantel","latitude":12.6176,"longitude":121.5136},{"id":82131,"name":"Canubing No 2","latitude":13.35,"longitude":121.13333},{"id":82149,"name":"Caramay","latitude":10.1815,"longitude":119.236},{"id":82168,"name":"Carmen","latitude":12.6171,"longitude":122.1211},{"id":82185,"name":"Caruray","latitude":10.3094,"longitude":119.0128},{"id":82191,"name":"Casian","latitude":11.035,"longitude":119.7136},{"id":82230,"name":"Cawayan","latitude":12.6557,"longitude":121.5456},{"id":82271,"name":"Concepcion","latitude":12.3975,"longitude":122.09361},{"id":82278,"name":"Conduaga","latitude":8.862,"longitude":117.4893},{"id":82289,"name":"Corcuera","latitude":12.78331,"longitude":122.04851},{"id":82295,"name":"Coron","latitude":11.9986,"longitude":120.2043},{"id":82325,"name":"Cuyo","latitude":10.8525,"longitude":121.00861},{"id":82376,"name":"Dapawan","latitude":12.40694,"longitude":122.02778},{"id":82401,"name":"Daykitin","latitude":13.27073,"longitude":121.91086},{"id":82447,"name":"Dobdoban","latitude":12.5747,"longitude":122.1138},{"id":82476,"name":"Dulangan","latitude":13.3051,"longitude":121.1129},{"id":82490,"name":"Dumaran","latitude":10.525,"longitude":119.7671},{"id":82505,"name":"El Nido","latitude":11.18583,"longitude":119.39556},{"id":82511,"name":"Eraan","latitude":9.06289,"longitude":117.7016},{"id":82516,"name":"España","latitude":12.38414,"longitude":122.49901},{"id":82532,"name":"Estrella","latitude":13.32898,"longitude":121.31092},{"id":82534,"name":"Evangelista","latitude":13.3335,"longitude":121.0972},{"id":82538,"name":"Ferrol","latitude":12.33833,"longitude":121.94139},{"id":82546,"name":"Gabawan","latitude":12.42714,"longitude":122.01332},{"id":82571,"name":"Gasan","latitude":13.32372,"longitude":121.84675},{"id":82603,"name":"Gloria","latitude":12.98333,"longitude":121.46667},{"id":82636,"name":"Guinlo","latitude":10.8009,"longitude":119.4383},{"id":82679,"name":"Harrison","latitude":13.45,"longitude":120.43333},{"id":82757,"name":"Ipil","latitude":13.5132,"longitude":121.9841},{"id":82759,"name":"Ipilan","latitude":8.84306,"longitude":117.90333},{"id":82761,"name":"Irahuan","latitude":9.80798,"longitude":118.69191},{"id":82762,"name":"Iraray","latitude":8.99361,"longitude":118.05111},{"id":82766,"name":"Irirum","latitude":12.61603,"longitude":120.93061},{"id":82772,"name":"Isugod","latitude":9.34077,"longitude":118.1196},{"id":82938,"name":"La Curva","latitude":12.40484,"longitude":121.04591},{"id":82957,"name":"Labasan","latitude":12.77732,"longitude":121.46922},{"id":82963,"name":"Labog","latitude":9.0558,"longitude":118.0495},{"id":83008,"name":"Lanas","latitude":12.04946,"longitude":121.91851},{"id":83056,"name":"Laylay","latitude":13.4391,"longitude":121.8202},{"id":83071,"name":"Leuteboro","latitude":13.061,"longitude":121.37472},{"id":83079,"name":"Libas","latitude":13.24167,"longitude":121.95555},{"id":83085,"name":"Libertad","latitude":12.45412,"longitude":122.00828},{"id":83105,"name":"Ligaya","latitude":12.65993,"longitude":120.89231},{"id":83115,"name":"Limanancong","latitude":10.9893,"longitude":119.3593},{"id":83124,"name":"Limon","latitude":12.3,"longitude":122.01667},{"id":83171,"name":"Looc","latitude":12.2605,"longitude":121.9926},{"id":83192,"name":"Lubang","latitude":13.85835,"longitude":120.12402},{"id":83213,"name":"Lumangbayan","latitude":13.0483,"longitude":121.49872},{"id":83330,"name":"Magbay","latitude":12.41014,"longitude":121.08991},{"id":83334,"name":"Magdiwang","latitude":12.48372,"longitude":122.51472},{"id":83341,"name":"Magsaysay","latitude":12.33333,"longitude":121.15},{"id":83371,"name":"Mainit","latitude":8.8436,"longitude":117.8183},{"id":83398,"name":"Malamig","latitude":12.95,"longitude":121.36667},{"id":83424,"name":"Malibago","latitude":13.2783,"longitude":122.0228},{"id":83429,"name":"Maliig","latitude":13.84556,"longitude":120.15032},{"id":83447,"name":"Malitbog","latitude":12.75212,"longitude":121.46591},{"id":83457,"name":"Maluanluan","latitude":13.0967,"longitude":121.42352},{"id":83477,"name":"Mamburao","latitude":13.2233,"longitude":120.596},{"id":83497,"name":"Manaul","latitude":12.453,"longitude":121.4107},{"id":83511,"name":"Mangarine","latitude":12.35115,"longitude":121.09801},{"id":83534,"name":"Mansalay","latitude":12.52044,"longitude":121.43851},{"id":83591,"name":"Masaguisi","latitude":12.75452,"longitude":121.44841},{"id":83602,"name":"Masiga","latitude":13.3607,"longitude":121.8278},{"id":83638,"name":"Mauhao","latitude":12.29015,"longitude":121.30071},{"id":83693,"name":"Mogpog","latitude":13.47444,"longitude":121.86139},{"id":83747,"name":"Nagiba","latitude":13.33018,"longitude":121.27432},{"id":83781,"name":"Narra","latitude":9.26877,"longitude":118.4043},{"id":83792,"name":"Naujan","latitude":13.32328,"longitude":121.30282},{"id":83800,"name":"New Agutaya","latitude":10.56139,"longitude":119.30778},{"id":83841,"name":"Odala","latitude":13.4776,"longitude":120.8223},{"id":83844,"name":"Odiong","latitude":12.5931,"longitude":121.5032},{"id":83845,"name":"Odiongan","latitude":12.40167,"longitude":121.99194},{"id":83866,"name":"Osmeña","latitude":10.52083,"longitude":119.92583},{"id":83873,"name":"Paclolo","latitude":12.37675,"longitude":121.17351},{"id":83931,"name":"Paluan","latitude":13.416,"longitude":120.4623},{"id":83935,"name":"Pambisan","latitude":13.0137,"longitude":121.41282},{"id":83945,"name":"Panacan","latitude":9.24627,"longitude":118.4082},{"id":83948,"name":"Panalingaan","latitude":8.78417,"longitude":117.42306},{"id":83957,"name":"Pancol","latitude":10.8715,"longitude":119.4157},{"id":84072,"name":"Pañgobilian","latitude":8.80111,"longitude":117.85944},{"id":83983,"name":"Pangulayan","latitude":13.0398,"longitude":121.44792},{"id":83988,"name":"Panique","latitude":12.48025,"longitude":122.01462},{"id":83992,"name":"Panitian","latitude":9.0965,"longitude":118.0864},{"id":83993,"name":"Panlaitan","latitude":12.11907,"longitude":119.84861},{"id":84048,"name":"Pato-o","latitude":12.43025,"longitude":122.0664},{"id":84096,"name":"Pili","latitude":13.0664,"longitude":121.52032},{"id":84101,"name":"Pinagsabangan","latitude":13.26559,"longitude":121.26812},{"id":84103,"name":"Pinamalayan","latitude":13.04603,"longitude":121.46205},{"id":84124,"name":"Pitogo","latitude":12.50744,"longitude":121.09041},{"id":84135,"name":"Plaridel","latitude":9.3786,"longitude":118.50174},{"id":84140,"name":"Pola","latitude":13.14379,"longitude":121.44152},{"id":84167,"name":"Port Barton","latitude":10.47556,"longitude":119.24722},{"id":84220,"name":"Province of Marinduque","latitude":13.41667,"longitude":121.95},{"id":84222,"name":"Province of Mindoro Occidental","latitude":13.0,"longitude":120.91667},{"id":84223,"name":"Province of Mindoro Oriental","latitude":13.15555,"longitude":121.26803},{"id":84231,"name":"Province of Palawan","latitude":10.0,"longitude":118.75},{"id":84237,"name":"Province of Romblon","latitude":12.55499,"longitude":122.28206},{"id":84259,"name":"Puerto Galera","latitude":13.50223,"longitude":120.95166},{"id":84260,"name":"Puerto Princesa","latitude":9.73917,"longitude":118.73528},{"id":84273,"name":"Punang","latitude":9.0169,"longitude":118.0495},{"id":84281,"name":"Punta","latitude":12.2441,"longitude":122.0097},{"id":84300,"name":"Quezon","latitude":9.24111,"longitude":118.03139},{"id":84306,"name":"Quinabigan","latitude":12.9936,"longitude":121.47812},{"id":84329,"name":"Ransang","latitude":8.96028,"longitude":117.58278},{"id":84339,"name":"Rio Tuba","latitude":8.50613,"longitude":117.43169},{"id":84343,"name":"Rizal","latitude":12.46667,"longitude":120.96667},{"id":84352,"name":"Romblon","latitude":12.57513,"longitude":122.27081},{"id":84362,"name":"Roxas","latitude":10.3215,"longitude":119.3451},{"id":84364,"name":"Saaban","latitude":13.13049,"longitude":121.36872},{"id":84370,"name":"Sabang","latitude":13.5092,"longitude":120.9737},{"id":84373,"name":"Sablayan","latitude":12.8346,"longitude":120.769},{"id":84382,"name":"Sagana","latitude":12.72252,"longitude":121.48672},{"id":84405,"name":"Salcedo","latitude":12.81052,"longitude":121.46742},{"id":84418,"name":"Salvacion","latitude":12.13287,"longitude":119.93281},{"id":84437,"name":"San Agustin","latitude":12.41984,"longitude":120.98931},{"id":84453,"name":"San Aquilino","latitude":12.59743,"longitude":121.48671},{"id":84479,"name":"San Fernando","latitude":12.30364,"longitude":122.60041},{"id":84519,"name":"San Jose","latitude":12.35275,"longitude":121.06761},{"id":84549,"name":"San Mariano","latitude":12.64143,"longitude":121.43791},{"id":84567,"name":"San Miguel","latitude":11.4924,"longitude":119.8703},{"id":84588,"name":"San Pedro","latitude":12.46084,"longitude":121.01041},{"id":84616,"name":"San Teodoro","latitude":13.43354,"longitude":121.0144},{"id":84620,"name":"San Vicente","latitude":10.53033,"longitude":119.25423},{"id":84646,"name":"Santa Brigida","latitude":12.56783,"longitude":121.48901},{"id":84661,"name":"Santa Cruz","latitude":13.4758,"longitude":122.0275},{"id":84670,"name":"Santa Fe","latitude":12.15656,"longitude":121.99411},{"id":84687,"name":"Santa Maria","latitude":12.57883,"longitude":121.46041},{"id":84702,"name":"Santa Teresa","latitude":12.25186,"longitude":121.11251},{"id":84751,"name":"Saraza","latitude":8.73556,"longitude":117.78},{"id":84834,"name":"Socorro","latitude":13.0669,"longitude":121.39858},{"id":84839,"name":"Sogod","latitude":12.37635,"longitude":122.66368},{"id":84853,"name":"Suba","latitude":10.82512,"longitude":121.0069},{"id":84875,"name":"Sumagui","latitude":12.79532,"longitude":121.47401},{"id":84897,"name":"Tabinay","latitude":13.4871,"longitude":120.9566},{"id":84905,"name":"Tabon","latitude":9.23877,"longitude":117.9946},{"id":84919,"name":"Tacligan","latitude":13.3975,"longitude":121.0626},{"id":84921,"name":"Taclobo","latitude":12.30744,"longitude":122.58601},{"id":84934,"name":"Tagbak","latitude":13.84166,"longitude":120.08872},{"id":84937,"name":"Tagbita","latitude":8.71331,"longitude":117.35046},{"id":84939,"name":"Tagburos","latitude":9.82861,"longitude":118.73194},{"id":84953,"name":"Tagusao","latitude":9.19238,"longitude":117.8141},{"id":85012,"name":"Tambong","latitude":12.96391,"longitude":121.48462},{"id":85024,"name":"Tampayan","latitude":12.49411,"longitude":122.53309},{"id":85034,"name":"Tangal","latitude":13.84536,"longitude":120.10082},{"id":85062,"name":"Tarusan","latitude":8.65461,"longitude":117.5104},{"id":85071,"name":"Tayaman","latitude":13.2295,"longitude":120.5726},{"id":85076,"name":"Taytay","latitude":10.81788,"longitude":119.49851},{"id":85114,"name":"Tigui","latitude":13.2681,"longitude":122.0415},{"id":85116,"name":"Tiguion","latitude":13.3347,"longitude":121.861},{"id":85117,"name":"Tiguisan","latitude":12.83941,"longitude":121.46052},{"id":85120,"name":"Tilik","latitude":13.81436,"longitude":120.20022},{"id":85137,"name":"Tiniguiban","latitude":11.3574,"longitude":119.5049},{"id":85164,"name":"Tomingad","latitude":12.44311,"longitude":122.02106},{"id":85172,"name":"Torrijos","latitude":13.31676,"longitude":122.08205},{"id":85183,"name":"Tuban","latitude":12.8122,"longitude":120.8323},{"id":85210,"name":"Tugdan","latitude":12.3134,"longitude":122.0853},{"id":85221,"name":"Tumarbong","latitude":10.37659,"longitude":119.4579},{"id":85285,"name":"Victoria","latitude":13.17722,"longitude":121.27806},{"id":85291,"name":"Vigo","latitude":13.82666,"longitude":120.17922},{"id":85313,"name":"Wawa","latitude":13.4632,"longitude":120.7441},{"id":85320,"name":"Yook","latitude":13.22608,"longitude":121.964}]