[{"id":10257,"name":"Angra dos Reis","latitude":-23.00667,"longitude":-44.31806},{"id":10291,"name":"Aperibé","latitude":-21.64148,"longitude":-42.12753},{"id":10356,"name":"Araruama","latitude":-22.87278,"longitude":-42.34306},{"id":10381,"name":"Areal","latitude":-22.23056,"longitude":-43.10556},{"id":10402,"name":"Armação dos Búzios","latitude":-22.76948,"longitude":-41.90965},{"id":10408,"name":"Arraial do Cabo","latitude":-22.95505,"longitude":-42.06098},{"id":10540,"name":"Barra do Piraí","latitude":-22.47,"longitude":-43.82556},{"id":10520,"name":"Barra Mansa","latitude":-22.54417,"longitude":-44.17139},{"id":10602,"name":"Belford Roxo","latitude":-22.76417,"longitude":-43.39944},{"id":10694,"name":"Bom Jardim","latitude":-22.17871,"longitude":-42.33515},{"id":10711,"name":"Bom Jesus do Itabapoana","latitude":-21.13389,"longitude":-41.67972},{"id":10853,"name":"Cabo Frio","latitude":-22.88717,"longitude":-42.02622},{"id":10875,"name":"Cachoeiras de Macacu","latitude":-22.4625,"longitude":-42.65306},{"id":10948,"name":"Cambuci","latitude":-21.57528,"longitude":-41.91111},{"id":11019,"name":"Campos dos Goytacazes","latitude":-21.75227,"longitude":-41.33044},{"id":11052,"name":"Cantagalo","latitude":-21.98111,"longitude":-42.36806},{"id":11108,"name":"Carapebus","latitude":-22.22429,"longitude":-41.61306},{"id":11123,"name":"Cardoso Moreira","latitude":-21.51166,"longitude":-41.46121},{"id":11142,"name":"Carmo","latitude":-21.89966,"longitude":-42.5376},{"id":11180,"name":"Casimiro de Abreu","latitude":-22.48056,"longitude":-42.20417},{"id":11341,"name":"Comendador Levy Gasparian","latitude":-22.03655,"longitude":-43.25312},{"id":11352,"name":"Conceição de Macabu","latitude":-22.12612,"longitude":-41.85341},{"id":11399,"name":"Cordeiro","latitude":-22.02861,"longitude":-42.36083},{"id":11664,"name":"Duas Barras","latitude":-22.07281,"longitude":-42.52467},{"id":11669,"name":"Duque de Caxias","latitude":-22.78556,"longitude":-43.31167},{"id":11702,"name":"Engenheiro Paulo de Frontin","latitude":-22.54807,"longitude":-43.6727},{"id":12028,"name":"Guapimirim","latitude":-22.58914,"longitude":-42.9753},{"id":12195,"name":"Iguaba Grande","latitude":-22.83917,"longitude":-42.22889},{"id":12207,"name":"Ilha Grande","latitude":-23.15236,"longitude":-44.23164},{"id":12336,"name":"Itaboraí","latitude":-22.74444,"longitude":-42.85944},{"id":12357,"name":"Itaguaí","latitude":-22.85222,"longitude":-43.77528},{"id":12374,"name":"Italva","latitude":-21.38401,"longitude":-41.66728},{"id":12397,"name":"Itaocara","latitude":-21.77006,"longitude":-42.07488},{"id":12410,"name":"Itaperuna","latitude":-21.205,"longitude":-41.88778},{"id":12454,"name":"Itatiaia","latitude":-22.41099,"longitude":-44.57621},{"id":12569,"name":"Japeri","latitude":-22.64306,"longitude":-43.65333},{"id":12774,"name":"Laje do Muriaé","latitude":-21.23762,"longitude":-42.13269},{"id":12892,"name":"Macaé","latitude":-22.38484,"longitude":-41.78324},{"id":12903,"name":"Macuco","latitude":-22.02427,"longitude":-42.27369},{"id":12914,"name":"Magé","latitude":-22.6349,"longitude":-43.12056},{"id":12947,"name":"Mangaratiba","latitude":-22.95972,"longitude":-44.04056},{"id":13012,"name":"Maricá","latitude":-22.9163,"longitude":-42.82203},{"id":13097,"name":"Mendes","latitude":-22.54316,"longitude":-43.74899},{"id":13104,"name":"Mesquita","latitude":-22.78993,"longitude":-43.45966},{"id":13112,"name":"Miguel Pereira","latitude":-22.45389,"longitude":-43.46889},{"id":13132,"name":"Miracema","latitude":-21.37442,"longitude":-42.15048},{"id":13301,"name":"Natividade","latitude":-21.04222,"longitude":-41.97333},{"id":13325,"name":"Nilópolis","latitude":-22.82106,"longitude":-43.42703},{"id":13331,"name":"Niterói","latitude":-22.91715,"longitude":-43.08391},{"id":13380,"name":"Nova Friburgo","latitude":-22.28194,"longitude":-42.53111},{"id":13389,"name":"Nova Iguaçu","latitude":-22.75917,"longitude":-43.45111},{"id":13623,"name":"Paracambi","latitude":-22.60829,"longitude":-43.7084},{"id":13658,"name":"Paraíba do Sul","latitude":-22.15847,"longitude":-43.29321},{"id":13654,"name":"Paraty","latitude":-23.21778,"longitude":-44.71306},{"id":13713,"name":"Paty do Alferes","latitude":-22.42861,"longitude":-43.41861},{"id":13821,"name":"Petrópolis","latitude":-22.38219,"longitude":-43.15909},{"id":13866,"name":"Pinheiral","latitude":-22.51278,"longitude":-44.00056},{"id":13910,"name":"Piraí","latitude":-22.62917,"longitude":-43.89806},{"id":13984,"name":"Porciúncula","latitude":-20.96278,"longitude":-42.04083},{"id":14013,"name":"Porto Real","latitude":-22.41972,"longitude":-44.29028},{"id":14131,"name":"Quatis","latitude":-22.40722,"longitude":-44.25806},{"id":14141,"name":"Queimados","latitude":-22.71611,"longitude":-43.55528},{"id":14155,"name":"Quissamã","latitude":-22.09574,"longitude":-41.39137},{"id":14197,"name":"Resende","latitude":-22.46889,"longitude":-44.44667},{"id":14261,"name":"Rio Bonito","latitude":-22.7439,"longitude":-42.61916},{"id":14270,"name":"Rio Claro","latitude":-22.77976,"longitude":-44.07721},{"id":14305,"name":"Rio das Flores","latitude":-22.16104,"longitude":-43.57579},{"id":14306,"name":"Rio das Ostras","latitude":-22.52694,"longitude":-41.945},{"id":14309,"name":"Rio de Janeiro","latitude":-22.92008,"longitude":-43.33069},{"id":14504,"name":"Santa Maria Madalena","latitude":-21.95791,"longitude":-41.90903},{"id":14620,"name":"Santo Antônio de Pádua","latitude":-21.57245,"longitude":-42.2109},{"id":14878,"name":"São Fidélis","latitude":-21.64611,"longitude":-41.74694},{"id":14886,"name":"São Francisco de Itabapoana","latitude":-21.38002,"longitude":-41.14905},{"id":14916,"name":"São Gonçalo","latitude":-22.82694,"longitude":-43.05389},{"id":15006,"name":"São João da Barra","latitude":-21.64028,"longitude":-41.05111},{"id":15021,"name":"São João de Meriti","latitude":-22.80389,"longitude":-43.37222},{"id":14958,"name":"São José de Ubá","latitude":-21.37831,"longitude":-41.95256},{"id":14989,"name":"São José do Vale do Rio Preto","latitude":-22.17062,"longitude":-42.91651},{"id":15105,"name":"São Pedro","latitude":-22.42313,"longitude":-42.96612},{"id":15108,"name":"São Pedro da Aldeia","latitude":-22.83917,"longitude":-42.10278},{"id":15143,"name":"São Sebastião do Alto","latitude":-21.86591,"longitude":-42.09585},{"id":14662,"name":"Sapucaia","latitude":-22.04085,"longitude":-42.81392},{"id":14666,"name":"Saquarema","latitude":-22.92,"longitude":-42.51028},{"id":14720,"name":"Seropédica","latitude":-22.73876,"longitude":-43.70855},{"id":14775,"name":"Silva Jardim","latitude":-22.65083,"longitude":-42.39167},{"id":14824,"name":"Sumidouro","latitude":-22.13179,"longitude":-42.66127},{"id":15218,"name":"Tanguá","latitude":-22.79184,"longitude":-42.71941},{"id":15286,"name":"Teresópolis","latitude":-22.31349,"longitude":-42.87414},{"id":15350,"name":"Trajano de Moraes","latitude":-22.15204,"longitude":-42.18834},{"id":15383,"name":"Três Rios","latitude":-22.12121,"longitude":-43.06617},{"id":15500,"name":"Valença","latitude":-22.2402,"longitude":-43.87843},{"id":15521,"name":"Varre-Sai","latitude":-20.89839,"longitude":-41.81982},{"id":15524,"name":"Vassouras","latitude":-22.35995,"longitude":-43.59809},{"id":15610,"name":"Volta Redonda","latitude":-22.52306,"longitude":-44.10417}]