[{"id":109345,"name":"Balky","latitude":47.38336,"longitude":34.94396},{"id":109367,"name":"Berdiansk Raion","latitude":46.83333,"longitude":36.75},{"id":109369,"name":"Berdyans’ka Mis’krada","latitude":46.81565,"longitude":36.77049},{"id":109368,"name":"Berdyansk","latitude":46.76644,"longitude":36.79872},{"id":109471,"name":"Chapayevka","latitude":47.47114,"longitude":36.34507},{"id":109482,"name":"Chernihivka Raion","latitude":47.16667,"longitude":36.25},{"id":109551,"name":"Dniprorudne","latitude":47.38169,"longitude":34.97652},{"id":109552,"name":"Dniprovka","latitude":47.42945,"longitude":34.61805},{"id":109595,"name":"Energodar","latitude":47.49865,"longitude":34.6574},{"id":109660,"name":"Hulyaypole","latitude":47.66389,"longitude":36.25633},{"id":109748,"name":"Kirove","latitude":47.65311,"longitude":35.69512},{"id":109785,"name":"Komysh-Zorya","latitude":47.32755,"longitude":36.69298},{"id":109787,"name":"Komyshuvakha","latitude":47.71598,"longitude":35.52981},{"id":109816,"name":"Kostyantynivka","latitude":46.81673,"longitude":35.42287},{"id":109892,"name":"Kushuhum","latitude":47.71278,"longitude":35.20917},{"id":109895,"name":"Kuybysheve","latitude":47.358,"longitude":36.64908},{"id":109899,"name":"Kyrylivka","latitude":46.37592,"longitude":35.36753},{"id":109978,"name":"Mala Bilozerka","latitude":47.24737,"longitude":34.93457},{"id":109980,"name":"Mala Tokmachka","latitude":47.53563,"longitude":35.89293},{"id":109984,"name":"Malokaterynivka","latitude":47.6555,"longitude":35.25649},{"id":110008,"name":"Matviyivka","latitude":47.07473,"longitude":35.14444},{"id":110018,"name":"Melitopol","latitude":46.84891,"longitude":35.36533},{"id":110019,"name":"Melitopol’s’kyy Rayon","latitude":46.90326,"longitude":35.34616},{"id":110068,"name":"Mykhaylivka","latitude":47.27235,"longitude":35.22235},{"id":110069,"name":"Mykhaylivs’kyy Rayon","latitude":47.22111,"longitude":35.2658},{"id":110121,"name":"Novobohdanivka","latitude":47.08524,"longitude":35.32945},{"id":110133,"name":"Novomykolayivka","latitude":47.9781,"longitude":35.9102},{"id":110151,"name":"Novovasylivka","latitude":46.83021,"longitude":35.75136},{"id":110203,"name":"Orikhiv","latitude":47.56731,"longitude":35.78575},{"id":110211,"name":"Osypenko","latitude":46.9136,"longitude":36.8253},{"id":110293,"name":"Polohy","latitude":47.48444,"longitude":36.25361},{"id":110309,"name":"Preobrazhenka","latitude":47.57194,"longitude":35.81667},{"id":110318,"name":"Pryazovske Raion","latitude":46.66667,"longitude":35.66667},{"id":110322,"name":"Prymors’k","latitude":46.73479,"longitude":36.34425},{"id":110321,"name":"Prymorsk Raion","latitude":46.83333,"longitude":36.25},{"id":110323,"name":"Pryshyb","latitude":47.25927,"longitude":35.31953},{"id":110382,"name":"Rozivka","latitude":47.38484,"longitude":37.06792},{"id":110383,"name":"Rozivs’kyy Rayon","latitude":47.46956,"longitude":36.97192},{"id":110603,"name":"Ternuvate","latitude":47.83049,"longitude":36.12761},{"id":110605,"name":"Terpinnya","latitude":46.96942,"longitude":35.421},{"id":110611,"name":"Tokmak","latitude":47.25522,"longitude":35.71238},{"id":110612,"name":"Tokmak Raion","latitude":47.25,"longitude":35.75},{"id":110641,"name":"Tymoshivka","latitude":47.1841,"longitude":35.11625},{"id":110677,"name":"Vasylivka","latitude":47.43694,"longitude":35.27417},{"id":110683,"name":"Velyka Bilozerka","latitude":47.27756,"longitude":34.70616},{"id":110692,"name":"Velykobilozers’kyy Rayon","latitude":47.24341,"longitude":34.66137},{"id":110713,"name":"Vesele","latitude":47.01479,"longitude":34.91504},{"id":110718,"name":"Vilniansk Raion","latitude":48.0,"longitude":35.41667},{"id":110730,"name":"Vodyane","latitude":47.48746,"longitude":34.49235},{"id":110750,"name":"Voznesenka","latitude":46.87165,"longitude":35.46458},{"id":110775,"name":"Yakymivka","latitude":46.69972,"longitude":35.15916},{"id":110776,"name":"Yakymivka Raion","latitude":46.58333,"longitude":35.0},{"id":110816,"name":"Zaliznychne","latitude":47.65238,"longitude":36.16524},{"id":110821,"name":"Zaporiz’ka Mis’krada","latitude":47.84634,"longitude":35.16824},{"id":110820,"name":"Zaporizhia","latitude":47.82289,"longitude":35.19031}]