[{"id":54415,"name":"Brestovac","latitude":45.33056,"longitude":17.59694},{"id":54541,"name":"Grad Pakrac","latitude":45.43333,"longitude":17.2},{"id":54545,"name":"Grad Požega","latitude":45.33333,"longitude":17.66667},{"id":54612,"name":"Jakšić","latitude":45.35765,"longitude":17.76502},{"id":54631,"name":"Kaptol","latitude":45.43472,"longitude":17.72611},{"id":54677,"name":"Kutjevo","latitude":45.42611,"longitude":17.8825},{"id":54688,"name":"Lipik","latitude":45.41139,"longitude":17.15222},{"id":54799,"name":"Pakrac","latitude":45.43639,"longitude":17.18889},{"id":54811,"name":"Pleternica","latitude":45.28861,"longitude":17.80639},{"id":54830,"name":"Požega","latitude":45.34028,"longitude":17.68528},{"id":54955,"name":"Velika","latitude":45.45444,"longitude":17.66139},{"id":54964,"name":"Vidovci","latitude":45.3325,"longitude":17.71472}]