[{"id":105293,"name":"Amphoe Chiang Kham","latitude":19.47061,"longitude":100.33868},{"id":105298,"name":"Amphoe Chiang Muan","latitude":18.90385,"longitude":100.31792},{"id":105315,"name":"Amphoe Chun","latitude":19.36803,"longitude":100.14492},{"id":105328,"name":"Amphoe Dok Kham Tai","latitude":19.10813,"longitude":100.05657},{"id":105498,"name":"Amphoe Mae Chai","latitude":19.37925,"longitude":99.80141},{"id":105569,"name":"Amphoe Mueang Phayao","latitude":19.14857,"longitude":99.87325},{"id":105774,"name":"Amphoe Phu Kam Yao","latitude":19.3117,"longitude":99.96614},{"id":105781,"name":"Amphoe Phu Sang","latitude":19.62372,"longitude":100.37246},{"id":105791,"name":"Amphoe Pong","latitude":19.185,"longitude":100.3878},{"id":106471,"name":"Chiang Kham","latitude":19.52331,"longitude":100.3},{"id":106491,"name":"Dok Kham Tai","latitude":19.16242,"longitude":99.99342},{"id":106561,"name":"Mae Chai","latitude":19.34597,"longitude":99.814},{"id":106629,"name":"Phayao","latitude":19.19203,"longitude":99.87883},{"id":106652,"name":"Pong","latitude":19.14931,"longitude":100.27522}]