[{"id":9274,"name":"Berkovitsa","latitude":43.23581,"longitude":23.12738},{"id":9283,"name":"Boychinovtsi","latitude":43.47222,"longitude":23.33583},{"id":9290,"name":"Brusartsi","latitude":43.66075,"longitude":23.06732},{"id":9301,"name":"Chiprovtsi","latitude":43.38417,"longitude":22.88083},{"id":9387,"name":"Lom","latitude":43.82106,"longitude":23.23677},{"id":9398,"name":"Medkovets","latitude":43.62403,"longitude":23.16876},{"id":9404,"name":"Montana","latitude":43.4125,"longitude":23.225},{"id":9437,"name":"Obshtina Boychinovtsi","latitude":43.53333,"longitude":23.43333},{"id":9450,"name":"Obshtina Chiprovtsi","latitude":43.41667,"longitude":22.9},{"id":9478,"name":"Obshtina Georgi Damyanovo","latitude":43.35,"longitude":23.0},{"id":9522,"name":"Obshtina Lom","latitude":43.81667,"longitude":23.23333},{"id":9536,"name":"Obshtina Montana","latitude":43.46667,"longitude":23.2},{"id":9622,"name":"Obshtina Valchedram","latitude":43.71667,"longitude":23.51667},{"id":9625,"name":"Obshtina Varshets","latitude":43.21667,"longitude":23.33333},{"id":9632,"name":"Obshtina Yakimovo","latitude":43.63333,"longitude":23.33333},{"id":9733,"name":"Valchedram","latitude":43.69281,"longitude":23.44518},{"id":9736,"name":"Varshets","latitude":43.19356,"longitude":23.2868},{"id":9744,"name":"Yakimovo","latitude":43.63472,"longitude":23.3535}]