[{"id":53443,"name":"Catarina","latitude":14.85354,"longitude":-92.07682},{"id":53459,"name":"Ciudad Tecún Umán","latitude":14.67737,"longitude":-92.14039},{"id":53467,"name":"Comitancillo","latitude":15.08937,"longitude":-91.74971},{"id":53472,"name":"Concepción Tutuapa","latitude":15.2394,"longitude":-91.8446},{"id":53487,"name":"El Quetzal","latitude":14.76865,"longitude":-91.81757},{"id":53488,"name":"El Rodeo","latitude":14.91447,"longitude":-91.97631},{"id":53490,"name":"El Tumbador","latitude":14.86375,"longitude":-91.93416},{"id":53493,"name":"Esquipulas Palo Gordo","latitude":14.94135,"longitude":-91.82564},{"id":53506,"name":"Ixchiguán","latitude":15.16375,"longitude":-91.93256},{"id":53522,"name":"La Reforma","latitude":14.80104,"longitude":-91.82233},{"id":53529,"name":"Malacatán","latitude":14.91132,"longitude":-92.05788},{"id":53558,"name":"Municipio de Concepción Tutuapa","latitude":15.28795,"longitude":-91.86738},{"id":53568,"name":"Municipio de Malacatán","latitude":14.91829,"longitude":-92.10548},{"id":53597,"name":"Municipio de Sipacapa","latitude":15.19243,"longitude":-91.65541},{"id":53598,"name":"Municipio de Tejutla","latitude":15.15638,"longitude":-91.82457},{"id":53607,"name":"Nuevo Progreso","latitude":14.79174,"longitude":-91.91946},{"id":53609,"name":"Ocós","latitude":14.50998,"longitude":-92.19298},{"id":53615,"name":"Pajapita","latitude":14.72152,"longitude":-92.03521},{"id":53642,"name":"Río Blanco","latitude":15.0382,"longitude":-91.68463},{"id":53660,"name":"San Antonio Sacatepéquez","latitude":14.9606,"longitude":-91.73154},{"id":53669,"name":"San Cristóbal Cucho","latitude":14.90505,"longitude":-91.78123},{"id":53686,"name":"San José Ojetenam","latitude":15.23443,"longitude":-91.97317},{"id":53687,"name":"San José Ojetenán","latitude":15.21667,"longitude":-91.96667},{"id":53700,"name":"San Lorenzo","latitude":15.03087,"longitude":-91.73534},{"id":53708,"name":"San Marcos","latitude":14.96389,"longitude":-91.79444},{"id":53718,"name":"San Miguel Ixtahuacán","latitude":15.27247,"longitude":-91.74785},{"id":53721,"name":"San Pablo","latitude":14.93269,"longitude":-92.00415},{"id":53729,"name":"San Pedro Sacatepéquez","latitude":14.96807,"longitude":-91.76172},{"id":53735,"name":"San Rafael Pie de la Cuesta","latitude":14.93052,"longitude":-91.91388},{"id":53779,"name":"Sibinal","latitude":15.14963,"longitude":-92.04892},{"id":53780,"name":"Sipacapa","latitude":15.21246,"longitude":-91.63416},{"id":53785,"name":"Tacaná","latitude":15.24058,"longitude":-92.06721},{"id":53787,"name":"Tajumulco","latitude":15.08349,"longitude":-91.92225},{"id":53792,"name":"Tejutla","latitude":15.12254,"longitude":-91.80635}]