[{"id":131344,"name":"Kabompo","latitude":-13.59268,"longitude":24.20081},{"id":131348,"name":"Kalengwa","latitude":-13.46586,"longitude":25.00271},{"id":131350,"name":"Kansanshi","latitude":-12.09514,"longitude":26.42727},{"id":131355,"name":"Kasempa","latitude":-13.45836,"longitude":25.8338},{"id":131379,"name":"Mufumbwe","latitude":-13.68333,"longitude":24.8},{"id":131383,"name":"Mwinilunga","latitude":-11.73584,"longitude":24.42926},{"id":131398,"name":"Solwezi","latitude":-12.1688,"longitude":26.38938},{"id":131399,"name":"Zambezi","latitude":-13.54323,"longitude":23.10467}]