[{"id":76778,"name":"Argungu","latitude":12.74482,"longitude":4.52514},{"id":76791,"name":"Bagudo","latitude":11.40351,"longitude":4.22571},{"id":76798,"name":"Bena","latitude":11.28444,"longitude":5.93472},{"id":76803,"name":"Bin Yauri","latitude":10.7823,"longitude":4.81135},{"id":76805,"name":"Birnin Kebbi","latitude":12.45389,"longitude":4.1975},{"id":76822,"name":"Dabai","latitude":11.47651,"longitude":5.20625},{"id":76824,"name":"Dakingari","latitude":11.64809,"longitude":4.06177},{"id":76891,"name":"Gulma","latitude":12.64231,"longitude":4.35545},{"id":76896,"name":"Gwandu","latitude":12.50204,"longitude":4.64295},{"id":76959,"name":"Jega","latitude":12.22336,"longitude":4.37971},{"id":76974,"name":"Kamba","latitude":11.85172,"longitude":3.65478},{"id":76975,"name":"Kangiwa","latitude":12.55339,"longitude":3.81814},{"id":76983,"name":"Kende","latitude":11.51966,"longitude":4.2603},{"id":77017,"name":"Mahuta","latitude":11.55338,"longitude":4.98138},{"id":77019,"name":"Maiyama","latitude":12.08225,"longitude":4.36907},{"id":77102,"name":"Shanga","latitude":11.21374,"longitude":4.57941},{"id":77134,"name":"Wasagu","latitude":11.3764,"longitude":5.79536},{"id":77153,"name":"Zuru","latitude":11.43522,"longitude":5.23494}]