[{"id":19137,"name":"Babanki","latitude":6.11667,"longitude":10.25},{"id":19141,"name":"Bali","latitude":5.88737,"longitude":10.01176},{"id":19142,"name":"Bamenda","latitude":5.9597,"longitude":10.14597},{"id":19151,"name":"Batibo","latitude":5.8358,"longitude":9.8553},{"id":19155,"name":"Belo","latitude":6.13333,"longitude":10.25},{"id":19159,"name":"Boyo","latitude":6.36365,"longitude":10.3554},{"id":19180,"name":"Fundong","latitude":6.25,"longitude":10.26667},{"id":19185,"name":"Jakiri","latitude":6.1,"longitude":10.65},{"id":19193,"name":"Kumbo","latitude":6.2,"longitude":10.66667},{"id":19214,"name":"Mbengwi","latitude":6.01667,"longitude":10.0},{"id":19222,"name":"Mme-Bafumen","latitude":6.33333,"longitude":10.23333},{"id":19241,"name":"Njinikom","latitude":6.23333,"longitude":10.28333},{"id":19263,"name":"Wum","latitude":6.38333,"longitude":10.06667}]