[{"id":9826,"name":"Achacachi","latitude":-16.05,"longitude":-68.68333},{"id":9828,"name":"Amarete","latitude":-15.23675,"longitude":-68.98462},{"id":9833,"name":"Batallas","latitude":-16.3,"longitude":-68.53333},{"id":9842,"name":"Caranavi","latitude":-15.83652,"longitude":-67.56901},{"id":9846,"name":"Chulumani","latitude":-16.40855,"longitude":-67.5294},{"id":9854,"name":"Colquiri","latitude":-17.38918,"longitude":-67.12671},{"id":9857,"name":"Coripata","latitude":-16.3,"longitude":-67.6},{"id":9858,"name":"Coroico","latitude":-16.19386,"longitude":-67.72998},{"id":9860,"name":"Curahuara de Carangas","latitude":-17.86667,"longitude":-68.43333},{"id":9863,"name":"Eucaliptus","latitude":-17.58333,"longitude":-67.51667},{"id":9865,"name":"Guanay","latitude":-15.49756,"longitude":-67.88332},{"id":9869,"name":"Huarina","latitude":-16.2,"longitude":-68.63333},{"id":9870,"name":"Huatajata","latitude":-16.2,"longitude":-68.68333},{"id":9874,"name":"José Manuel Pando","latitude":-16.1897,"longitude":-67.72664},{"id":9876,"name":"La Paz","latitude":-16.5,"longitude":-68.15},{"id":9877,"name":"Lahuachaca","latitude":-17.37054,"longitude":-67.67501},{"id":9884,"name":"Mapiri","latitude":-15.25,"longitude":-68.16667},{"id":9894,"name":"Patacamaya","latitude":-17.2358,"longitude":-67.92169},{"id":9904,"name":"Provincia Aroma","latitude":-17.5,"longitude":-68.0},{"id":9910,"name":"Provincia Bautista Saavedra","latitude":-15.0,"longitude":-68.91667},{"id":9912,"name":"Provincia Camacho","latitude":-15.5,"longitude":-69.0},{"id":9929,"name":"Provincia Franz Tamayo","latitude":-14.5,"longitude":-68.33333},{"id":9935,"name":"Provincia Gualberto Villarroel","latitude":-17.58333,"longitude":-68.0},{"id":9938,"name":"Provincia Ingavi","latitude":-16.83333,"longitude":-68.66667},{"id":9939,"name":"Provincia Inquisivi","latitude":-17.0,"longitude":-67.08333},{"id":9940,"name":"Provincia Iturralde","latitude":-13.0,"longitude":-68.0},{"id":9943,"name":"Provincia Larecaja","latitude":-15.5,"longitude":-68.33333},{"id":9945,"name":"Provincia Loayza","latitude":-17.0,"longitude":-67.66667},{"id":9946,"name":"Provincia Los Andes","latitude":-16.33333,"longitude":-68.5},{"id":9950,"name":"Provincia Manco Kapac","latitude":-16.0,"longitude":-69.16667},{"id":9958,"name":"Provincia Muñecas","latitude":-15.33333,"longitude":-68.66667},{"id":9957,"name":"Provincia Murillo","latitude":-16.33333,"longitude":-68.0},{"id":9964,"name":"Provincia Nor Yungas","latitude":-16.0,"longitude":-67.5},{"id":9965,"name":"Provincia Omasuyos","latitude":-15.91667,"longitude":-68.83333},{"id":9968,"name":"Provincia Pacajes","latitude":-17.5,"longitude":-69.0},{"id":9985,"name":"Provincia Sud Yungas","latitude":-16.5,"longitude":-67.5},{"id":10004,"name":"Quime","latitude":-16.98333,"longitude":-67.21667},{"id":10017,"name":"San Pablo","latitude":-16.21667,"longitude":-68.83333},{"id":10019,"name":"San Pedro","latitude":-16.23717,"longitude":-68.85063},{"id":10030,"name":"Sorata","latitude":-15.77305,"longitude":-68.64973},{"id":10036,"name":"Tiahuanaco","latitude":-16.55228,"longitude":-68.67953},{"id":10049,"name":"Viloco","latitude":-16.95,"longitude":-67.55},{"id":10052,"name":"Yumani","latitude":-16.03574,"longitude":-69.14843}]