[{"id":20495,"name":"Aguazul","latitude":5.17282,"longitude":-72.54706},{"id":20677,"name":"Chameza","latitude":5.19237,"longitude":-72.88952},{"id":20937,"name":"Hato Corozal","latitude":6.15472222,"longitude":-71.76527888},{"id":149243,"name":"La Salina","latitude":6.12755555,"longitude":-72.33416777},{"id":21062,"name":"Maní","latitude":4.81638,"longitude":-72.27946},{"id":21101,"name":"Monterrey","latitude":4.82015,"longitude":-72.87901},{"id":21141,"name":"Nunchía","latitude":5.63589,"longitude":-72.19543},{"id":21153,"name":"Orocué","latitude":4.79035,"longitude":-71.33917},{"id":149244,"name":"Paz de Ariporo","latitude":5.88111111,"longitude":-71.89166777},{"id":21220,"name":"Pore","latitude":5.72792,"longitude":-71.99266},{"id":21279,"name":"Recetor","latitude":5.22947,"longitude":-72.76099},{"id":21310,"name":"Sabanalarga","latitude":4.8543,"longitude":-73.04003},{"id":21501,"name":"Sácama","latitude":6.09908,"longitude":-72.2488},{"id":21381,"name":"San Luis de Palenque","latitude":5.42139,"longitude":-71.73167},{"id":21561,"name":"Támara","latitude":5.82998,"longitude":-72.16286},{"id":21516,"name":"Tauramena","latitude":5.01789,"longitude":-72.74675},{"id":21548,"name":"Trinidad","latitude":5.34778,"longitude":-71.20194},{"id":21607,"name":"Villanueva","latitude":5.28333,"longitude":-71.96667},{"id":21626,"name":"Yopal","latitude":5.33775,"longitude":-72.39586}]