[{"id":107098,"name":"Akyaka","latitude":40.74093,"longitude":43.61432},{"id":107189,"name":"Arpaçay","latitude":40.84522,"longitude":43.32747},{"id":107494,"name":"Digor İlçesi","latitude":40.37515,"longitude":43.41361},{"id":107960,"name":"Kağızman","latitude":40.15669,"longitude":43.13424},{"id":107931,"name":"Kars","latitude":40.59825,"longitude":43.08548},{"id":108401,"name":"Sarıkamış","latitude":40.32769,"longitude":42.58705},{"id":108430,"name":"Selim","latitude":40.45772,"longitude":42.78287},{"id":108511,"name":"Susuz","latitude":40.7791,"longitude":43.12769}]