[{"id":65964,"name":"Anse Ger","latitude":13.79567,"longitude":-60.91567},{"id":65991,"name":"Beauchamp","latitude":13.81778,"longitude":-60.91528},{"id":66014,"name":"Blanchard","latitude":13.80616,"longitude":-60.9463},{"id":66041,"name":"Canelles","latitude":13.78515,"longitude":-60.91789},{"id":66059,"name":"Cazuca","latitude":13.80002,"longitude":-60.90481},{"id":66068,"name":"Chique/Blanchard","latitude":13.8012,"longitude":-60.9497},{"id":66079,"name":"Coolie Town","latitude":13.85429,"longitude":-60.9138},{"id":66098,"name":"Delomel","latitude":13.80338,"longitude":-60.92927},{"id":66116,"name":"Des Blanchard","latitude":13.81155,"longitude":-60.93423},{"id":66119,"name":"Desruisseaux","latitude":13.7964,"longitude":-60.9354},{"id":66126,"name":"Dugard","latitude":13.8109,"longitude":-60.91415},{"id":66134,"name":"Escap","latitude":13.83031,"longitude":-60.89673},{"id":66148,"name":"Fond D'Lor/Dugard","latitude":13.81069,"longitude":-60.92119},{"id":66150,"name":"Fond Estate","latitude":13.84243,"longitude":-60.91862},{"id":66153,"name":"Fond/Desruisseaux","latitude":13.79421,"longitude":-60.94128},{"id":66165,"name":"Gomier","latitude":13.81485,"longitude":-60.95252},{"id":66167,"name":"Gouette","latitude":13.8065,"longitude":-60.93964},{"id":66192,"name":"Honeymoon Beach","latitude":13.77746,"longitude":-60.90493},{"id":66205,"name":"L'Eau Mineau","latitude":13.80672,"longitude":-60.92103},{"id":66210,"name":"La Courville","latitude":13.81056,"longitude":-60.92766},{"id":66222,"name":"La Pointe","latitude":13.84593,"longitude":-60.89332},{"id":66228,"name":"La Tille","latitude":13.82744,"longitude":-60.91716},{"id":66239,"name":"Lezy","latitude":13.80372,"longitude":-60.93906},{"id":66240,"name":"Lombard","latitude":13.85772,"longitude":-60.9151},{"id":66245,"name":"Mahaut","latitude":13.84391,"longitude":-60.95397},{"id":66247,"name":"Malgretoute","latitude":13.84199,"longitude":-60.90411},{"id":66249,"name":"Mamiku","latitude":13.86744,"longitude":-60.90184},{"id":66264,"name":"Micoud","latitude":13.81667,"longitude":-60.9},{"id":66268,"name":"Mon Repos","latitude":13.85865,"longitude":-60.89591},{"id":66290,"name":"Moreau","latitude":13.82676,"longitude":-60.94238},{"id":66308,"name":"Morne Vient","latitude":13.80646,"longitude":-60.95241},{"id":66312,"name":"Myette Gardens","latitude":13.81862,"longitude":-60.9044},{"id":66315,"name":"New Village","latitude":13.82446,"longitude":-60.89864},{"id":66321,"name":"Paix Bouche","latitude":13.81556,"longitude":-60.94073},{"id":66323,"name":"Palmiste Estate","latitude":13.85377,"longitude":-60.96007},{"id":66326,"name":"Patience","latitude":13.85,"longitude":-60.90874},{"id":66334,"name":"Planard","latitude":13.80521,"longitude":-60.9154},{"id":66341,"name":"Praslin","latitude":13.87545,"longitude":-60.89717},{"id":66344,"name":"Rameau","latitude":13.83055,"longitude":-60.92375},{"id":66367,"name":"Saint Marie Road","latitude":13.85444,"longitude":-60.91803},{"id":66373,"name":"Saut","latitude":13.81272,"longitude":-60.94375},{"id":66375,"name":"Savannes","latitude":13.77098,"longitude":-60.92017},{"id":66379,"name":"St Helen Estate","latitude":13.78735,"longitude":-60.90726},{"id":66401,"name":"Ti Riviere","latitude":13.83006,"longitude":-60.93774},{"id":66403,"name":"Ti Rocher","latitude":13.81734,"longitude":-60.92858},{"id":66411,"name":"Troumassee","latitude":13.80892,"longitude":-60.90341},{"id":66425,"name":"Village","latitude":13.81904,"longitude":-60.89692},{"id":66430,"name":"Volet","latitude":13.82626,"longitude":-60.90789}]