[{"id":23577,"name":"Alt Tucheband","latitude":52.53732,"longitude":14.51225},{"id":23585,"name":"Altdöbern","latitude":51.65,"longitude":14.03333},{"id":23626,"name":"Altlandsberg","latitude":52.56503,"longitude":13.72815},{"id":23655,"name":"Angermünde","latitude":53.01499,"longitude":13.99924},{"id":23764,"name":"Bad Belzig","latitude":52.14184,"longitude":12.59272},{"id":23798,"name":"Bad Freienwalde","latitude":52.7873,"longitude":14.0304},{"id":23829,"name":"Bad Liebenwerda","latitude":51.51826,"longitude":13.39459},{"id":23853,"name":"Bad Saarow","latitude":52.28333,"longitude":14.06667},{"id":23885,"name":"Bad Wilsnack","latitude":52.95607,"longitude":11.94903},{"id":23947,"name":"Baruth","latitude":52.04468,"longitude":13.5027},{"id":23983,"name":"Beelitz","latitude":52.23812,"longitude":12.9714},{"id":23987,"name":"Beeskow","latitude":52.17291,"longitude":14.24597},{"id":24017,"name":"Bensdorf","latitude":52.41667,"longitude":12.33333},{"id":24050,"name":"Berkenbrück","latitude":52.35,"longitude":14.15},{"id":24061,"name":"Bernau bei Berlin","latitude":52.67982,"longitude":13.58708},{"id":24079,"name":"Bestensee","latitude":52.23978,"longitude":13.63732},{"id":24112,"name":"Biesenthal","latitude":52.76616,"longitude":13.64416},{"id":24138,"name":"Birkenwerder","latitude":52.68333,"longitude":13.28333},{"id":24181,"name":"Bliesdorf","latitude":52.69298,"longitude":14.15949},{"id":24246,"name":"Borkheide","latitude":52.21667,"longitude":12.85},{"id":24248,"name":"Borkwalde","latitude":52.25,"longitude":12.83333},{"id":24280,"name":"Brandenburg an der Havel","latitude":52.41667,"longitude":12.55},{"id":24293,"name":"Breddin","latitude":52.8856,"longitude":12.22366},{"id":24297,"name":"Breese","latitude":53.0,"longitude":11.8},{"id":24331,"name":"Brieselang","latitude":52.58333,"longitude":13.0},{"id":24332,"name":"Briesen","latitude":52.34383,"longitude":14.27804},{"id":24333,"name":"Brieskow-Finkenheerd","latitude":52.25387,"longitude":14.57285},{"id":24337,"name":"Britz","latitude":52.88726,"longitude":13.81119},{"id":24365,"name":"Brück","latitude":52.19766,"longitude":12.76868},{"id":24374,"name":"Brüssow","latitude":53.39971,"longitude":14.12533},{"id":24396,"name":"Buckow","latitude":52.5661,"longitude":14.07429},{"id":24406,"name":"Burg","latitude":51.83448,"longitude":14.14856},{"id":24513,"name":"Calau","latitude":51.74402,"longitude":13.95329},{"id":24525,"name":"Casekow","latitude":53.21117,"longitude":14.20824},{"id":24535,"name":"Chorin","latitude":52.90197,"longitude":13.87153},{"id":24556,"name":"Cottbus","latitude":51.75769,"longitude":14.32888},{"id":24564,"name":"Crinitz","latitude":51.73333,"longitude":13.76667},{"id":24583,"name":"Dahme","latitude":51.87008,"longitude":13.42743},{"id":24587,"name":"Dallgow-Döberitz","latitude":52.54269,"longitude":13.05837},{"id":24713,"name":"Doberlug-Kirchhain","latitude":51.62578,"longitude":13.56232},{"id":24758,"name":"Drebkau","latitude":51.65412,"longitude":14.22316},{"id":24759,"name":"Dreetz","latitude":52.80297,"longitude":12.45961},{"id":24839,"name":"Eberswalde","latitude":52.83492,"longitude":13.81951},{"id":24907,"name":"Eichwalde","latitude":52.36667,"longitude":13.61667},{"id":24929,"name":"Eisenhüttenstadt","latitude":52.15,"longitude":14.65},{"id":24972,"name":"Elsterwerda","latitude":51.46043,"longitude":13.52001},{"id":25049,"name":"Erkner","latitude":52.42,"longitude":13.75437},{"id":25133,"name":"Falkenberg","latitude":51.58557,"longitude":13.24347},{"id":25138,"name":"Falkensee","latitude":52.56014,"longitude":13.0927},{"id":25149,"name":"Fehrbellin","latitude":52.8135,"longitude":12.7644},{"id":25169,"name":"Fichtenwalde","latitude":52.28038,"longitude":12.88349},{"id":25176,"name":"Finsterwalde","latitude":51.63388,"longitude":13.70662},{"id":25207,"name":"Forst","latitude":51.73544,"longitude":14.63971},{"id":25221,"name":"Frankfurt (Oder)","latitude":52.34714,"longitude":14.55062},{"id":25282,"name":"Friedland","latitude":52.10493,"longitude":14.26399},{"id":25297,"name":"Friesack","latitude":52.73764,"longitude":12.57969},{"id":25328,"name":"Fürstenberg","latitude":53.18427,"longitude":13.14442},{"id":25334,"name":"Fürstenwalde","latitude":52.36067,"longitude":14.06185},{"id":25373,"name":"Gartz","latitude":53.20829,"longitude":14.39226},{"id":25465,"name":"Gerswalde","latitude":53.16988,"longitude":13.74853},{"id":25512,"name":"Glienicke","latitude":52.63353,"longitude":13.32564},{"id":25536,"name":"Golßen","latitude":51.97204,"longitude":13.60115},{"id":25535,"name":"Golzow","latitude":52.27617,"longitude":12.60052},{"id":25786,"name":"Görzke","latitude":52.17179,"longitude":12.37506},{"id":25575,"name":"Gramzow","latitude":53.21246,"longitude":14.00748},{"id":25577,"name":"Gransee","latitude":53.00704,"longitude":13.1575},{"id":25730,"name":"Gröden","latitude":51.4,"longitude":13.56667},{"id":25627,"name":"Groß Köris","latitude":52.16587,"longitude":13.65935},{"id":25625,"name":"Groß Kreutz","latitude":52.40281,"longitude":12.7794},{"id":25629,"name":"Groß Lindow","latitude":52.23333,"longitude":14.53333},{"id":25634,"name":"Groß Pankow","latitude":53.11952,"longitude":12.04975},{"id":25653,"name":"Großbeeren","latitude":52.35862,"longitude":13.30994},{"id":25684,"name":"Großkmehlen","latitude":51.37901,"longitude":13.72501},{"id":25703,"name":"Großräschen","latitude":51.5876,"longitude":14.01093},{"id":25710,"name":"Großthiemig","latitude":51.38333,"longitude":13.66667},{"id":25714,"name":"Großwoltersdorf","latitude":53.06667,"longitude":13.1},{"id":25741,"name":"Grünheide","latitude":52.42343,"longitude":13.81324},{"id":25748,"name":"Guben","latitude":51.94987,"longitude":14.71447},{"id":25753,"name":"Gumtow","latitude":52.98333,"longitude":12.25},{"id":25842,"name":"Halbe","latitude":52.11667,"longitude":13.7},{"id":25996,"name":"Heiligengrabe","latitude":53.14461,"longitude":12.36254},{"id":26051,"name":"Hennigsdorf","latitude":52.63598,"longitude":13.20419},{"id":26098,"name":"Herzberg","latitude":51.68692,"longitude":13.22016},{"id":26166,"name":"Hirschfeld","latitude":51.38333,"longitude":13.61667},{"id":26195,"name":"Hohen Neuendorf","latitude":52.67631,"longitude":13.27775},{"id":26199,"name":"Hohenbocka","latitude":51.43099,"longitude":14.00982},{"id":26208,"name":"Hohenleipisch","latitude":51.5,"longitude":13.55},{"id":26424,"name":"Jacobsdorf","latitude":52.33333,"longitude":14.35},{"id":26464,"name":"Jänschwalde","latitude":51.86066,"longitude":14.49813},{"id":26452,"name":"Joachimsthal","latitude":52.97945,"longitude":13.74493},{"id":26476,"name":"Jüterbog","latitude":51.99607,"longitude":13.07979},{"id":26526,"name":"Karstädt","latitude":53.16215,"longitude":11.74242},{"id":26579,"name":"Ketzin","latitude":52.47809,"longitude":12.8453},{"id":26675,"name":"Kleinmachnow","latitude":52.40786,"longitude":13.22514},{"id":26693,"name":"Kloster Lehnin","latitude":52.32039,"longitude":12.7432},{"id":26713,"name":"Kolkwitz","latitude":51.75,"longitude":14.25},{"id":26822,"name":"Königs Wusterhausen","latitude":52.30141,"longitude":13.633},{"id":26749,"name":"Kremmen","latitude":52.76216,"longitude":13.02515},{"id":26811,"name":"Kyritz","latitude":52.94212,"longitude":12.39704},{"id":26959,"name":"Lauchhammer","latitude":51.48813,"longitude":13.76623},{"id":26995,"name":"Lebus","latitude":52.42719,"longitude":14.53235},{"id":26998,"name":"Leegebruch","latitude":52.7234,"longitude":13.19304},{"id":27050,"name":"Lenzen","latitude":53.09176,"longitude":11.47453},{"id":27055,"name":"Letschin","latitude":52.64379,"longitude":14.36007},{"id":27089,"name":"Liebenwalde","latitude":52.87125,"longitude":13.39465},{"id":27090,"name":"Lieberose","latitude":51.98491,"longitude":14.29987},{"id":27112,"name":"Lindow","latitude":52.96689,"longitude":12.98498},{"id":27203,"name":"Lübben","latitude":51.93814,"longitude":13.88826},{"id":27204,"name":"Lübbenau","latitude":51.86217,"longitude":13.95168},{"id":27160,"name":"Luckau","latitude":51.85245,"longitude":13.70735},{"id":27161,"name":"Luckenwalde","latitude":52.09029,"longitude":13.16772},{"id":27164,"name":"Ludwigsfelde","latitude":52.30322,"longitude":13.25405},{"id":27182,"name":"Lychen","latitude":53.21242,"longitude":13.31483},{"id":27266,"name":"Manschnow","latitude":52.5499,"longitude":14.55332},{"id":27281,"name":"Marienwerder","latitude":52.84208,"longitude":13.59927},{"id":27391,"name":"Melchow","latitude":52.77613,"longitude":13.70647},{"id":27448,"name":"Meyenburg","latitude":53.04524,"longitude":14.23691},{"id":27456,"name":"Michendorf","latitude":52.31352,"longitude":13.02996},{"id":27467,"name":"Milmersdorf","latitude":53.11185,"longitude":13.6415},{"id":27489,"name":"Mittenwalde","latitude":52.26007,"longitude":13.53945},{"id":27495,"name":"Mixdorf","latitude":52.2,"longitude":14.4},{"id":27592,"name":"Mühlberg","latitude":51.43453,"longitude":13.22177},{"id":27607,"name":"Müllrose","latitude":52.24736,"longitude":14.41794},{"id":27610,"name":"Müncheberg","latitude":52.50704,"longitude":14.13716},{"id":27647,"name":"Nauen","latitude":52.60701,"longitude":12.87374},{"id":27673,"name":"Nennhausen","latitude":52.6,"longitude":12.5},{"id":27691,"name":"Neu Zauche","latitude":51.92757,"longitude":14.08812},{"id":27720,"name":"Neuenhagen","latitude":52.52985,"longitude":13.68914},{"id":27737,"name":"Neuhardenberg","latitude":52.59601,"longitude":14.23768},{"id":27767,"name":"Neulewin","latitude":52.72434,"longitude":14.27922},{"id":27787,"name":"Neuruppin","latitude":52.92815,"longitude":12.80311},{"id":27812,"name":"Neutrebbin","latitude":52.66482,"longitude":14.22802},{"id":27816,"name":"Neuzelle","latitude":52.09016,"longitude":14.64804},{"id":27849,"name":"Niedergörsdorf","latitude":51.97943,"longitude":12.98541},{"id":27891,"name":"Niemegk","latitude":52.07388,"longitude":12.68947},{"id":28070,"name":"Oderberg","latitude":52.86571,"longitude":14.04508},{"id":28124,"name":"Oranienburg","latitude":52.75577,"longitude":13.24197},{"id":28133,"name":"Ortrand","latitude":51.37505,"longitude":13.75982},{"id":28235,"name":"Paulinenaue","latitude":52.67701,"longitude":12.71067},{"id":28244,"name":"Peitz","latitude":51.85841,"longitude":14.41138},{"id":28260,"name":"Perleberg","latitude":53.07583,"longitude":11.85739},{"id":28265,"name":"Petershagen","latitude":52.52078,"longitude":13.78748},{"id":28315,"name":"Plattenburg","latitude":52.95919,"longitude":12.02951},{"id":28323,"name":"Plessa","latitude":51.46667,"longitude":13.61667},{"id":28339,"name":"Podelzig","latitude":52.47175,"longitude":14.53465},{"id":28362,"name":"Potsdam","latitude":52.39886,"longitude":13.06566},{"id":28373,"name":"Premnitz","latitude":52.53184,"longitude":12.34845},{"id":28374,"name":"Prenzlau","latitude":53.31625,"longitude":13.86261},{"id":28392,"name":"Pritzwalk","latitude":53.14945,"longitude":12.17405},{"id":28399,"name":"Prötzel","latitude":52.63723,"longitude":13.98783},{"id":28409,"name":"Putlitz","latitude":53.24899,"longitude":12.04179},{"id":28471,"name":"Rangsdorf","latitude":52.29126,"longitude":13.41946},{"id":28485,"name":"Rathenow","latitude":52.60659,"longitude":12.33696},{"id":28494,"name":"Rauen","latitude":52.33227,"longitude":14.02797},{"id":28532,"name":"Rehfelde","latitude":52.53417,"longitude":13.90884},{"id":28546,"name":"Reichenwalde","latitude":52.26667,"longitude":14.0},{"id":28612,"name":"Rheinsberg","latitude":53.09972,"longitude":12.89885},{"id":28617,"name":"Rhinow","latitude":52.75094,"longitude":12.34194},{"id":28654,"name":"Rietz Neuendorf","latitude":52.22758,"longitude":14.17463},{"id":28712,"name":"Roskow","latitude":52.47237,"longitude":12.71886},{"id":28799,"name":"Rückersdorf","latitude":51.56955,"longitude":13.57226},{"id":28802,"name":"Rüdnitz","latitude":52.72137,"longitude":13.62502},{"id":28756,"name":"Ruhland","latitude":51.45755,"longitude":13.86643},{"id":28835,"name":"Sallgast","latitude":51.5887,"longitude":13.84861},{"id":28929,"name":"Schenkendöbern","latitude":51.95723,"longitude":14.63541},{"id":28951,"name":"Schipkau","latitude":51.51766,"longitude":13.89738},{"id":28975,"name":"Schlieben","latitude":51.72379,"longitude":13.38304},{"id":29113,"name":"Schönborn","latitude":51.60016,"longitude":13.48967},{"id":29119,"name":"Schönefeld","latitude":52.38897,"longitude":13.50374},{"id":29120,"name":"Schöneiche","latitude":52.47286,"longitude":13.69226},{"id":29122,"name":"Schönewalde","latitude":51.67901,"longitude":13.60247},{"id":29035,"name":"Schulzendorf","latitude":52.35818,"longitude":13.59842},{"id":29074,"name":"Schwarzheide","latitude":51.47671,"longitude":13.85559},{"id":29078,"name":"Schwedt (Oder)","latitude":53.05963,"longitude":14.28154},{"id":29160,"name":"Seelow","latitude":52.53392,"longitude":14.38128},{"id":29191,"name":"Senftenberg","latitude":51.52517,"longitude":14.00164},{"id":29274,"name":"Sonnewalde","latitude":51.69223,"longitude":13.6473},{"id":29297,"name":"Sperenberg","latitude":52.14113,"longitude":13.365},{"id":29307,"name":"Spreenhagen","latitude":52.34325,"longitude":13.87663},{"id":29333,"name":"Stahnsdorf","latitude":52.38333,"longitude":13.21667},{"id":29384,"name":"Steinhöfel","latitude":52.4,"longitude":14.16667},{"id":29421,"name":"Storkow","latitude":52.25662,"longitude":13.93337},{"id":29429,"name":"Straupitz","latitude":51.91357,"longitude":14.12275},{"id":29430,"name":"Strausberg","latitude":52.57859,"longitude":13.88741},{"id":29535,"name":"Tauche","latitude":52.15,"longitude":14.16667},{"id":29554,"name":"Teltow","latitude":52.4031,"longitude":13.26014},{"id":29556,"name":"Templin","latitude":53.11865,"longitude":13.5022},{"id":29571,"name":"Teupitz","latitude":52.12967,"longitude":13.6196},{"id":29648,"name":"Trebbin","latitude":52.21675,"longitude":13.22496},{"id":29663,"name":"Treuenbrietzen","latitude":52.09754,"longitude":12.87258},{"id":29687,"name":"Tschernitz","latitude":51.58333,"longitude":14.61667},{"id":29718,"name":"Uebigau","latitude":51.59415,"longitude":13.29983},{"id":29831,"name":"Velten","latitude":52.69149,"longitude":13.17533},{"id":29839,"name":"Vetschau","latitude":51.78638,"longitude":14.07941},{"id":29964,"name":"Waldsieversdorf","latitude":52.54221,"longitude":14.07022},{"id":29999,"name":"Wandlitz","latitude":52.74196,"longitude":13.45799},{"id":30107,"name":"Weisen","latitude":53.02518,"longitude":11.7871},{"id":30150,"name":"Welzow","latitude":51.58381,"longitude":14.17082},{"id":30157,"name":"Wendisch Rietz","latitude":52.21613,"longitude":14.00845},{"id":30167,"name":"Werben","latitude":51.81667,"longitude":14.18333},{"id":30170,"name":"Werder","latitude":52.37874,"longitude":12.934},{"id":30173,"name":"Werftpfuhl","latitude":52.66014,"longitude":13.79351},{"id":30183,"name":"Werneuchen","latitude":52.63275,"longitude":13.73437},{"id":30256,"name":"Wiesenau","latitude":52.23071,"longitude":14.59107},{"id":30258,"name":"Wiesenburg","latitude":52.11456,"longitude":12.45534},{"id":30352,"name":"Wittenberge","latitude":53.00543,"longitude":11.75032},{"id":30366,"name":"Wittstock","latitude":53.16118,"longitude":12.48287},{"id":30400,"name":"Woltersdorf","latitude":52.45554,"longitude":13.74986},{"id":30411,"name":"Wriezen","latitude":52.72091,"longitude":14.13425},{"id":30427,"name":"Wusterhausen","latitude":52.8912,"longitude":12.46021},{"id":30429,"name":"Wustermark","latitude":52.55,"longitude":12.95},{"id":30430,"name":"Wusterwitz","latitude":52.36666,"longitude":12.38488},{"id":30474,"name":"Zehdenick","latitude":52.97852,"longitude":13.33165},{"id":30499,"name":"Zeuthen","latitude":52.34803,"longitude":13.62174},{"id":30505,"name":"Ziesar","latitude":52.26616,"longitude":12.28997},{"id":30507,"name":"Ziltendorf","latitude":52.20608,"longitude":14.62411},{"id":30517,"name":"Zossen","latitude":52.216,"longitude":13.44909}]