[{"id":31915,"name":"Abla","latitude":37.14245,"longitude":-2.77808},{"id":31918,"name":"Abrucena","latitude":37.13226,"longitude":-2.79711},{"id":31936,"name":"Adra","latitude":36.74961,"longitude":-3.02055},{"id":32063,"name":"Albánchez","latitude":37.28361,"longitude":-2.18229},{"id":151347,"name":"Alboloduy","latitude":0.0,"longitude":0.0},{"id":32056,"name":"Albox","latitude":37.38856,"longitude":-2.14949},{"id":32103,"name":"Alcolea","latitude":36.97458,"longitude":-2.9615},{"id":32138,"name":"Alcóntar","latitude":37.33647,"longitude":-2.59725},{"id":32130,"name":"Alcudia de Monteagud","latitude":37.23529,"longitude":-2.2665},{"id":32232,"name":"Alhabia","latitude":36.99003,"longitude":-2.58655},{"id":32233,"name":"Alhama de Almería","latitude":36.95692,"longitude":-2.56861},{"id":32245,"name":"Alicún","latitude":36.9658,"longitude":-2.60212},{"id":32290,"name":"Almería","latitude":37.16667,"longitude":-2.33333},{"id":32316,"name":"Almócita","latitude":37.00262,"longitude":-2.79051},{"id":32336,"name":"Alsodux","latitude":37.00247,"longitude":-2.59476},{"id":32390,"name":"Antas","latitude":37.24536,"longitude":-1.9176},{"id":32426,"name":"Arboleas","latitude":37.35024,"longitude":-2.07384},{"id":32491,"name":"Armuña de Almanzora","latitude":37.3503,"longitude":-2.4115},{"id":151348,"name":"Bacares","latitude":0.0,"longitude":0.0},{"id":32699,"name":"Bayárcal","latitude":37.03073,"longitude":-2.99606},{"id":32696,"name":"Bayarque","latitude":37.33062,"longitude":-2.4361},{"id":33057,"name":"Bédar","latitude":37.19389,"longitude":-1.98166},{"id":32732,"name":"Beires","latitude":37.01237,"longitude":-2.79134},{"id":32762,"name":"Benahadux","latitude":36.92493,"longitude":-2.45941},{"id":32823,"name":"Benitagla","latitude":37.23138,"longitude":-2.23935},{"id":32824,"name":"Benizalón","latitude":37.21213,"longitude":-2.2418},{"id":32827,"name":"Bentarique","latitude":36.98823,"longitude":-2.61991},{"id":32853,"name":"Berja","latitude":36.84693,"longitude":-2.94966},{"id":33245,"name":"Canjáyar","latitude":37.00959,"longitude":-2.73943},{"id":33260,"name":"Cantoria","latitude":37.35146,"longitude":-2.19209},{"id":33285,"name":"Carboneras","latitude":36.99666,"longitude":-1.89651},{"id":33488,"name":"Castro de Filabres","latitude":37.18484,"longitude":-2.44024},{"id":33627,"name":"Chercos","latitude":37.2545,"longitude":-2.26657},{"id":33643,"name":"Chirivel","latitude":37.59527,"longitude":-2.26844},{"id":33902,"name":"Cóbdar","latitude":37.26166,"longitude":-2.21098},{"id":33876,"name":"Cuevas del Almanzora","latitude":37.29678,"longitude":-1.88218},{"id":33911,"name":"Dalías","latitude":36.82179,"longitude":-2.87138},{"id":151359,"name":"Ejido El","latitude":0.0,"longitude":0.0},{"id":34060,"name":"Enix","latitude":36.87732,"longitude":-2.6018},{"id":151349,"name":"Felix","latitude":0.0,"longitude":0.0},{"id":34194,"name":"Fiñana","latitude":37.1715,"longitude":-2.84011},{"id":34188,"name":"Fines","latitude":37.36074,"longitude":-2.2581},{"id":34205,"name":"Fondón","latitude":36.9802,"longitude":-2.85957},{"id":34558,"name":"Gádor","latitude":36.95322,"longitude":-2.49254},{"id":151350,"name":"Gallardos Los","latitude":0.0,"longitude":0.0},{"id":34427,"name":"Garrucha","latitude":37.18141,"longitude":-1.82252},{"id":34562,"name":"Gérgal","latitude":37.11886,"longitude":-2.54012},{"id":34706,"name":"Huécija","latitude":36.96804,"longitude":-2.60941},{"id":34711,"name":"Huércal de Almería","latitude":36.88507,"longitude":-2.4376},{"id":34712,"name":"Huércal-Overa","latitude":37.38918,"longitude":-1.943},{"id":34746,"name":"Illar","latitude":36.98562,"longitude":-2.63871},{"id":34757,"name":"Instinción","latitude":36.99344,"longitude":-2.66046},{"id":34977,"name":"Laroya","latitude":37.29771,"longitude":-2.33419},{"id":35004,"name":"Laujar de Andarax","latitude":36.99516,"longitude":-2.89033},{"id":151351,"name":"Líjar","latitude":0.0,"longitude":0.0},{"id":35147,"name":"Lubrín","latitude":37.21538,"longitude":-2.06677},{"id":35148,"name":"Lucainena de las Torres","latitude":37.04037,"longitude":-2.20095},{"id":35177,"name":"Lúcar","latitude":37.40035,"longitude":-2.42496},{"id":35179,"name":"Macael","latitude":37.33318,"longitude":-2.30087},{"id":35312,"name":"María","latitude":37.71023,"longitude":-2.16454},{"id":35473,"name":"Mojacar","latitude":37.1402,"longitude":-1.85102},{"id":151360,"name":"Mojonera La","latitude":0.0,"longitude":0.0},{"id":151352,"name":"Nacimiento","latitude":0.0,"longitude":0.0},{"id":35844,"name":"Níjar","latitude":36.96655,"longitude":-2.20595},{"id":35863,"name":"Ohanes","latitude":37.03861,"longitude":-2.74524},{"id":35914,"name":"Olula de Castro","latitude":37.17475,"longitude":-2.4743},{"id":35915,"name":"Olula del Río","latitude":37.35445,"longitude":-2.29754},{"id":35948,"name":"Oria","latitude":37.4853,"longitude":-2.29292},{"id":35997,"name":"Padules","latitude":36.99813,"longitude":-2.77367},{"id":36072,"name":"Partaloa","latitude":37.40764,"longitude":-2.22526},{"id":36081,"name":"Paterna del Río","latitude":37.02222,"longitude":-2.95343},{"id":151353,"name":"Pechina","latitude":0.0,"longitude":0.0},{"id":36469,"name":"Pulpí","latitude":37.41154,"longitude":-1.74496},{"id":36475,"name":"Purchena","latitude":37.34744,"longitude":-2.3608},{"id":36714,"name":"Rágol","latitude":36.99523,"longitude":-2.68178},{"id":36630,"name":"Rioja","latitude":36.94508,"longitude":-2.46302},{"id":36675,"name":"Roquetas de Mar","latitude":36.76419,"longitude":-2.61475},{"id":151354,"name":"Santa Cruz de Marchena","latitude":0.0,"longitude":0.0},{"id":37059,"name":"Santa Fe de Mondújar","latitude":36.97479,"longitude":-2.53126},{"id":151355,"name":"Senés","latitude":0.0,"longitude":0.0},{"id":37228,"name":"Serón","latitude":37.34485,"longitude":-2.50913},{"id":37248,"name":"Sierro","latitude":37.32237,"longitude":-2.39844},{"id":37288,"name":"Somontín","latitude":37.39176,"longitude":-2.38828},{"id":37298,"name":"Sorbas","latitude":37.09761,"longitude":-2.12349},{"id":37331,"name":"Suflí","latitude":37.33866,"longitude":-2.38817},{"id":37343,"name":"Tabernas","latitude":37.04992,"longitude":-2.39084},{"id":151356,"name":"Taberno","latitude":0.0,"longitude":0.0},{"id":37350,"name":"Tahal","latitude":37.22797,"longitude":-2.2847},{"id":37406,"name":"Terque","latitude":36.98393,"longitude":-2.59679},{"id":37667,"name":"Tíjola","latitude":37.34606,"longitude":-2.43326},{"id":151358,"name":"Tres Villas Las","latitude":0.0,"longitude":0.0},{"id":37656,"name":"Turre","latitude":37.15224,"longitude":-1.89497},{"id":37657,"name":"Turrillas","latitude":37.02948,"longitude":-2.26607},{"id":37679,"name":"Uleila del Campo","latitude":37.1846,"longitude":-2.20491},{"id":37697,"name":"Urrácal","latitude":37.3974,"longitude":-2.36485},{"id":37926,"name":"Velefique","latitude":37.19407,"longitude":-2.40155},{"id":38415,"name":"Vélez-Blanco","latitude":37.69178,"longitude":-2.09587},{"id":151357,"name":"Vélez-Rubio","latitude":0.0,"longitude":0.0},{"id":37947,"name":"Vera","latitude":37.24345,"longitude":-1.85905},{"id":37961,"name":"Viator","latitude":36.89006,"longitude":-2.42695},{"id":38417,"name":"Vícar","latitude":36.83155,"longitude":-2.64273},{"id":38510,"name":"Zurgena","latitude":37.34218,"longitude":-2.03985}]