[{"id":15805,"name":"Antopal’","latitude":52.2038,"longitude":24.7863},{"id":15810,"name":"Asnyezhytsy","latitude":52.1891,"longitude":26.1299},{"id":15820,"name":"Baranovichi","latitude":53.1327,"longitude":26.0139},{"id":15821,"name":"Baranovichskiy Rayon","latitude":53.16667,"longitude":25.83333},{"id":15833,"name":"Brest","latitude":52.09755,"longitude":23.68775},{"id":15834,"name":"Brestski Rayon","latitude":52.0,"longitude":23.75},{"id":15841,"name":"Byaroza","latitude":52.5314,"longitude":24.9786},{"id":15843,"name":"Byarozawski Rayon","latitude":52.5,"longitude":25.0},{"id":15844,"name":"Byelaazyorsk","latitude":52.4731,"longitude":25.1784},{"id":15850,"name":"Charnawchytsy","latitude":52.21948,"longitude":23.74043},{"id":15861,"name":"Damachava","latitude":51.75,"longitude":23.6},{"id":15863,"name":"Davyd-Haradok","latitude":52.0566,"longitude":27.2161},{"id":15868,"name":"Drahichyn","latitude":52.1874,"longitude":25.1597},{"id":15869,"name":"Drahichynski Rayon","latitude":52.16667,"longitude":25.0},{"id":15884,"name":"Hantsavichy","latitude":52.758,"longitude":26.43},{"id":15885,"name":"Hantsavitski Rayon","latitude":52.66667,"longitude":26.5},{"id":15888,"name":"Haradzishcha","latitude":53.3247,"longitude":26.0107},{"id":15897,"name":"Horad Baranavichy","latitude":53.13333,"longitude":26.03333},{"id":15898,"name":"Horad Brest","latitude":52.1,"longitude":23.7},{"id":15909,"name":"Ivanava","latitude":52.1451,"longitude":25.5365},{"id":15910,"name":"Ivanawski Rayon","latitude":52.16667,"longitude":25.58333},{"id":15911,"name":"Ivatsevichy","latitude":52.709,"longitude":25.3401},{"id":15917,"name":"Kamyanyets","latitude":52.40013,"longitude":23.81},{"id":15918,"name":"Kamyanyetski Rayon","latitude":52.41667,"longitude":23.66667},{"id":15919,"name":"Kamyanyuki","latitude":52.55757,"longitude":23.80525},{"id":15942,"name":"Kobryn","latitude":52.2138,"longitude":24.3564},{"id":15946,"name":"Kosava","latitude":52.7583,"longitude":25.1554},{"id":15957,"name":"Lahishyn","latitude":52.339,"longitude":25.9867},{"id":15964,"name":"Luninyets","latitude":52.2472,"longitude":26.8047},{"id":15965,"name":"Lyakhavichy","latitude":53.0388,"longitude":26.2656},{"id":15982,"name":"Malaryta","latitude":51.7905,"longitude":24.074},{"id":15988,"name":"Mikashevichy","latitude":52.2173,"longitude":27.476},{"id":15993,"name":"Motal’","latitude":52.3138,"longitude":25.6072},{"id":16010,"name":"Nyakhachava","latitude":52.644,"longitude":25.2027},{"id":16021,"name":"Pinsk","latitude":52.1229,"longitude":26.0951},{"id":16027,"name":"Pruzhanski Rayon","latitude":52.66667,"longitude":24.58333},{"id":16028,"name":"Pruzhany","latitude":52.556,"longitude":24.4573},{"id":16044,"name":"Ruzhany","latitude":52.86322,"longitude":24.89357},{"id":16075,"name":"Stolin","latitude":51.89115,"longitude":26.84597},{"id":16076,"name":"Stolinski Rayon","latitude":52.0,"longitude":27.0},{"id":16089,"name":"Tsyelyakhany","latitude":52.5175,"longitude":25.8429},{"id":16114,"name":"Vysokaye","latitude":52.37091,"longitude":23.37083},{"id":16122,"name":"Zhabinka","latitude":52.1984,"longitude":24.0115},{"id":16123,"name":"Zhabinkawski Rayon","latitude":52.16667,"longitude":24.08333},{"id":16130,"name":"Znamenka","latitude":51.88168,"longitude":23.65545}]