[{"id":79964,"name":"Alto de Jesús","latitude":8.26152,"longitude":-81.48412},{"id":79970,"name":"Arenas","latitude":7.36865,"longitude":-80.86268},{"id":79975,"name":"Atalaya","latitude":8.04213,"longitude":-80.92528},{"id":79981,"name":"Barnizal","latitude":8.4046,"longitude":-80.77765},{"id":79994,"name":"Bisvalles","latitude":8.18298,"longitude":-81.22092},{"id":80001,"name":"Boquerón","latitude":8.24414,"longitude":-80.85897},{"id":80004,"name":"Boró","latitude":8.16933,"longitude":-81.30071},{"id":80022,"name":"Calabacito","latitude":8.24817,"longitude":-81.08187},{"id":80024,"name":"Calidonia","latitude":7.95756,"longitude":-81.38633},{"id":80025,"name":"Calobre","latitude":8.31886,"longitude":-80.84067},{"id":80026,"name":"Calovébora","latitude":8.78703,"longitude":-81.21056},{"id":80040,"name":"Cañazas","latitude":8.32004,"longitude":-81.21152},{"id":80031,"name":"Canto del Llano","latitude":8.12472,"longitude":-80.96374},{"id":80077,"name":"Corozal","latitude":8.07712,"longitude":-81.4399},{"id":80089,"name":"Distrito de Atalaya","latitude":8.02899,"longitude":-80.91739},{"id":80096,"name":"Distrito de Calobre","latitude":8.39684,"longitude":-80.85124},{"id":80098,"name":"Distrito de Cañazas","latitude":8.35596,"longitude":-81.28633},{"id":80113,"name":"Distrito de La Mesa","latitude":8.10976,"longitude":-81.17767},{"id":80116,"name":"Distrito de Las Palmas","latitude":8.14532,"longitude":-81.42849},{"id":80121,"name":"Distrito de Montijo","latitude":7.95316,"longitude":-81.05301},{"id":80134,"name":"Distrito de Río de Jesús","latitude":7.91438,"longitude":-81.16133},{"id":80136,"name":"Distrito de San Francisco","latitude":8.26965,"longitude":-81.00108},{"id":80139,"name":"Distrito de Santa Fé","latitude":8.72063,"longitude":-80.95858},{"id":80142,"name":"Distrito de Santiago","latitude":8.12425,"longitude":-80.87827},{"id":80143,"name":"Distrito de Soná","latitude":7.84378,"longitude":-81.36612},{"id":80149,"name":"El Alto","latitude":8.51191,"longitude":-81.03646},{"id":80150,"name":"El Barrito","latitude":7.96059,"longitude":-80.94801},{"id":80162,"name":"El Coclá","latitude":8.32143,"longitude":-80.92069},{"id":80173,"name":"El Espino de Santa Rosa","latitude":8.09286,"longitude":-80.8238},{"id":80182,"name":"El Marañón","latitude":8.03582,"longitude":-81.21489},{"id":80183,"name":"El María","latitude":8.02905,"longitude":-81.44384},{"id":80197,"name":"El Pájaro","latitude":7.95342,"longitude":-81.12154},{"id":80187,"name":"El Pantano","latitude":8.53755,"longitude":-81.06941},{"id":80190,"name":"El Peñón","latitude":8.35,"longitude":-80.9762},{"id":80191,"name":"El Picador","latitude":8.37803,"longitude":-81.25621},{"id":80195,"name":"El Potrero","latitude":8.37692,"longitude":-80.79434},{"id":80200,"name":"El Rincón","latitude":8.18422,"longitude":-81.43333},{"id":80205,"name":"El Uvito","latitude":8.11648,"longitude":-80.98461},{"id":80224,"name":"Guarumal","latitude":7.79404,"longitude":-81.25904},{"id":80244,"name":"La Colorada","latitude":8.01319,"longitude":-80.9859},{"id":80255,"name":"La Garceana","latitude":7.93708,"longitude":-81.01643},{"id":80259,"name":"La Laguna","latitude":8.33882,"longitude":-80.72949},{"id":80262,"name":"La Loma","latitude":7.43708,"longitude":-80.89118},{"id":80263,"name":"La Mesa","latitude":8.14707,"longitude":-81.18114},{"id":80269,"name":"La Montañuela","latitude":8.02487,"longitude":-80.86325},{"id":80274,"name":"La Peña","latitude":8.12784,"longitude":-81.02693},{"id":80276,"name":"La Raya de Calobre","latitude":8.2163,"longitude":-80.82729},{"id":80277,"name":"La Raya de Santa María","latitude":8.16429,"longitude":-80.82143},{"id":80281,"name":"La Yeguada","latitude":8.4306,"longitude":-80.85752},{"id":80291,"name":"Las Guías Abajo","latitude":8.19451,"longitude":-80.75494},{"id":80292,"name":"Las Huacas","latitude":7.90167,"longitude":-81.14056},{"id":80302,"name":"Las Palmas","latitude":8.13564,"longitude":-81.45674},{"id":80310,"name":"Leones Arriba","latitude":7.75415,"longitude":-81.11556},{"id":80316,"name":"Llano Grande","latitude":8.07473,"longitude":-81.13626},{"id":80324,"name":"Lolá","latitude":8.09326,"longitude":-81.47163},{"id":80327,"name":"Los Algarrobos","latitude":8.10898,"longitude":-81.01355},{"id":80332,"name":"Los Castillos","latitude":8.02326,"longitude":-81.11941},{"id":80335,"name":"Los Higos","latitude":8.20553,"longitude":-80.86022},{"id":80349,"name":"Mariato District","latitude":7.6781,"longitude":-81.00409},{"id":80359,"name":"Monjarás","latitude":8.36942,"longitude":-80.86667},{"id":80361,"name":"Montijo","latitude":7.98858,"longitude":-81.05643},{"id":80412,"name":"Piedras Gordas","latitude":8.52419,"longitude":-80.91152},{"id":80421,"name":"Ponuga","latitude":7.88245,"longitude":-80.9788},{"id":80436,"name":"Puerto Vidal","latitude":8.04834,"longitude":-81.60499},{"id":80446,"name":"Quebrada de Oro","latitude":8.03548,"longitude":-81.38692},{"id":80466,"name":"Río de Jesús","latitude":7.97882,"longitude":-81.16162},{"id":80461,"name":"Río Grande","latitude":7.71907,"longitude":-81.33423},{"id":80454,"name":"Rodeo Viejo","latitude":8.11205,"longitude":-81.31684},{"id":80473,"name":"San Bartolo","latitude":8.21063,"longitude":-81.27572},{"id":80477,"name":"San Francisco","latitude":8.06667,"longitude":-81.36667},{"id":80482,"name":"San José","latitude":8.46704,"longitude":-80.80514},{"id":80484,"name":"San Juan","latitude":8.30311,"longitude":-81.01575},{"id":80488,"name":"San Marcelo","latitude":8.27252,"longitude":-81.15988},{"id":80493,"name":"San Pedro del Espino","latitude":8.14011,"longitude":-81.08663},{"id":80501,"name":"Santa Fé","latitude":8.51063,"longitude":-81.07802},{"id":80508,"name":"Santiago de Veraguas","latitude":8.1,"longitude":-80.98333},{"id":80516,"name":"Soná","latitude":8.01223,"longitude":-81.32163},{"id":80519,"name":"Tebario","latitude":7.71369,"longitude":-80.97825},{"id":80535,"name":"Utirá","latitude":7.97208,"longitude":-81.21777},{"id":80542,"name":"Viguí","latitude":8.33921,"longitude":-81.49823},{"id":80553,"name":"Zapotillo","latitude":8.00532,"longitude":-81.50653}]