[{"id":147944,"name":"Andoas","latitude":-2.9025,"longitude":-76.4025},{"id":147941,"name":"Borja","latitude":-4.43333333,"longitude":-77.55},{"id":147949,"name":"Caballococha","latitude":-3.90583333,"longitude":-70.51638889},{"id":147947,"name":"Cape Pantoja","latitude":-0.96435,"longitude":-75.18144},{"id":147952,"name":"Indiana","latitude":-3.501427,"longitude":-73.048096},{"id":147940,"name":"Iquitos","latitude":-3.73333333,"longitude":-73.25},{"id":147945,"name":"Jeberos","latitude":-5.28333,"longitude":-76.28333},{"id":147946,"name":"Jenaro Herrera","latitude":-4.90741,"longitude":-73.66779},{"id":147948,"name":"Lagunas","latitude":-5.22694,"longitude":-75.67528},{"id":147942,"name":"Nauta","latitude":-4.50833333,"longitude":-73.58333333},{"id":147953,"name":"Punchana","latitude":-3.71666667,"longitude":-73.23333333},{"id":147954,"name":"Requena","latitude":-6.74797,"longitude":-75.05491},{"id":147955,"name":"San Antonio del Estrecho","latitude":-2.45012,"longitude":-72.66896},{"id":147950,"name":"San Lorenzo","latitude":-4.81667,"longitude":-76.6},{"id":147943,"name":"San Pablo","latitude":-4.01922,"longitude":-71.10281},{"id":147951,"name":"Tamshiyacu","latitude":-4.0032,"longitude":-73.1585},{"id":147956,"name":"Yurimaguas","latitude":-5.9,"longitude":-76.08333333}]