[{"id":23493,"name":"Adorf","latitude":50.32011,"longitude":12.25986},{"id":23537,"name":"Albertstadt","latitude":51.08333,"longitude":13.76667},{"id":23593,"name":"Altenberg","latitude":50.76556,"longitude":13.75334},{"id":23629,"name":"Altmittweida","latitude":50.96667,"longitude":12.95},{"id":23661,"name":"Annaberg-Buchholz","latitude":50.57953,"longitude":13.00627},{"id":23696,"name":"Arzberg","latitude":51.52887,"longitude":13.12565},{"id":23724,"name":"Aue","latitude":50.59034,"longitude":12.70657},{"id":23726,"name":"Auerbach","latitude":50.51155,"longitude":12.40083},{"id":23733,"name":"Augustusburg","latitude":50.81192,"longitude":13.10197},{"id":23775,"name":"Bad Brambach","latitude":50.21667,"longitude":12.31667},{"id":23784,"name":"Bad Düben","latitude":51.59174,"longitude":12.58492},{"id":23789,"name":"Bad Elster","latitude":50.28192,"longitude":12.2343},{"id":23826,"name":"Bad Lausick","latitude":51.14495,"longitude":12.64449},{"id":23836,"name":"Bad Muskau","latitude":51.55051,"longitude":14.7124},{"id":23860,"name":"Bad Schandau","latitude":50.91743,"longitude":14.15494},{"id":23861,"name":"Bad Schlema","latitude":50.60257,"longitude":12.67288},{"id":23921,"name":"Bannewitz","latitude":50.99291,"longitude":13.71712},{"id":24459,"name":"Bärenstein","latitude":50.5,"longitude":13.03333},{"id":23963,"name":"Bautzen","latitude":51.18035,"longitude":14.43494},{"id":23992,"name":"Beierfeld","latitude":50.56529,"longitude":12.79049},{"id":23993,"name":"Beiersdorf","latitude":51.07405,"longitude":14.53828},{"id":23994,"name":"Beilrode","latitude":51.56667,"longitude":13.06667},{"id":23998,"name":"Belgern","latitude":51.48263,"longitude":13.12382},{"id":23999,"name":"Belgershain","latitude":51.23333,"longitude":12.55},{"id":24012,"name":"Bennewitz","latitude":51.36074,"longitude":12.71376},{"id":24034,"name":"Bergen","latitude":50.471,"longitude":12.27448},{"id":24069,"name":"Bernsbach","latitude":50.57624,"longitude":12.76751},{"id":24070,"name":"Bernsdorf","latitude":51.3735,"longitude":14.06886},{"id":24071,"name":"Bernstadt","latitude":51.04736,"longitude":14.82784},{"id":24075,"name":"Berthelsdorf","latitude":51.04679,"longitude":14.22197},{"id":24076,"name":"Bertsdorf-Hörnitz","latitude":50.88593,"longitude":14.73696},{"id":24150,"name":"Bischofswerda","latitude":51.12771,"longitude":14.17974},{"id":24195,"name":"Bockau","latitude":50.54209,"longitude":12.68639},{"id":24196,"name":"Bockelwitz","latitude":51.19942,"longitude":12.95618},{"id":24466,"name":"Böhlen","latitude":51.20061,"longitude":12.38622},{"id":24250,"name":"Borna","latitude":51.12416,"longitude":12.49639},{"id":24474,"name":"Börnichen","latitude":50.7501,"longitude":13.14075},{"id":24257,"name":"Borsdorf","latitude":51.35,"longitude":12.53333},{"id":24260,"name":"Borstendorf","latitude":50.77323,"longitude":13.17918},{"id":24480,"name":"Bösenbrunn","latitude":50.39703,"longitude":12.09998},{"id":24267,"name":"Boxberg","latitude":51.40373,"longitude":14.57598},{"id":24278,"name":"Brand-Erbisdorf","latitude":50.86643,"longitude":13.32285},{"id":24281,"name":"Brandis","latitude":51.33597,"longitude":12.61024},{"id":24308,"name":"Breitenbrunn","latitude":50.47553,"longitude":12.76649},{"id":24435,"name":"Burgstädt","latitude":50.91333,"longitude":12.806},{"id":24441,"name":"Burkau","latitude":51.17579,"longitude":14.17329},{"id":24442,"name":"Burkhardtsdorf","latitude":50.73333,"longitude":12.91667},{"id":24517,"name":"Callenberg","latitude":50.85,"longitude":12.63333},{"id":24527,"name":"Cavertitz","latitude":51.38333,"longitude":13.13333},{"id":24533,"name":"Chemnitz","latitude":50.8357,"longitude":12.92922},{"id":24539,"name":"Claußnitz","latitude":50.93333,"longitude":12.88333},{"id":24549,"name":"Colditz","latitude":51.12821,"longitude":12.80295},{"id":24554,"name":"Coswig","latitude":51.13204,"longitude":13.58312},{"id":24563,"name":"Crimmitschau","latitude":50.81644,"longitude":12.39045},{"id":24566,"name":"Crostau","latitude":51.08462,"longitude":14.45589},{"id":24567,"name":"Crostwitz","latitude":51.23832,"longitude":14.24338},{"id":24568,"name":"Crottendorf","latitude":50.51667,"longitude":12.95},{"id":24569,"name":"Cunewalde","latitude":51.1,"longitude":14.51667},{"id":24579,"name":"Dahlen","latitude":51.36495,"longitude":12.99881},{"id":24623,"name":"Delitzsch","latitude":51.52546,"longitude":12.34284},{"id":24628,"name":"Demitz-Thumitz","latitude":51.14149,"longitude":14.24719},{"id":24633,"name":"Dennheritz","latitude":50.81412,"longitude":12.46519},{"id":24660,"name":"Deutzen","latitude":51.11217,"longitude":12.42541},{"id":24701,"name":"Dippoldiswalde","latitude":50.89621,"longitude":13.66905},{"id":24792,"name":"Döbeln","latitude":51.1221,"longitude":13.11027},{"id":24793,"name":"Döbernitz","latitude":51.51241,"longitude":12.34753},{"id":24714,"name":"Doberschütz","latitude":51.4987,"longitude":12.74792},{"id":24718,"name":"Dohma","latitude":50.91667,"longitude":13.93333},{"id":24719,"name":"Dohna","latitude":50.95621,"longitude":13.85839},{"id":24727,"name":"Dommitzsch","latitude":51.64071,"longitude":12.8794},{"id":24734,"name":"Dorfchemnitz","latitude":50.66363,"longitude":12.83651},{"id":24736,"name":"Dorfhain","latitude":50.93333,"longitude":13.56667},{"id":24757,"name":"Drebach","latitude":50.67583,"longitude":13.0162},{"id":24768,"name":"Dresden","latitude":51.05089,"longitude":13.73832},{"id":24813,"name":"Dürrhennersdorf","latitude":51.04863,"longitude":14.60383},{"id":24815,"name":"Dürrröhrsdorf","latitude":51.03395,"longitude":13.99718},{"id":24832,"name":"Ebersbach","latitude":51.00762,"longitude":14.58621},{"id":24893,"name":"Ehrenfriedersdorf","latitude":50.64934,"longitude":12.97009},{"id":24895,"name":"Eibau","latitude":50.98272,"longitude":14.66214},{"id":24897,"name":"Eibenstock","latitude":50.49431,"longitude":12.59978},{"id":24904,"name":"Eichigt","latitude":50.35,"longitude":12.16667},{"id":24913,"name":"Eilenburg","latitude":51.45984,"longitude":12.63338},{"id":24946,"name":"Ellefeld","latitude":50.48367,"longitude":12.3888},{"id":24968,"name":"Elsnig","latitude":51.61024,"longitude":12.92833},{"id":24970,"name":"Elsterberg","latitude":50.60841,"longitude":12.16787},{"id":24971,"name":"Elstertrebnitz","latitude":51.15,"longitude":12.23333},{"id":24973,"name":"Elstra","latitude":51.22172,"longitude":14.13201},{"id":24974,"name":"Elterlein","latitude":50.57663,"longitude":12.86836},{"id":25022,"name":"Eppendorf","latitude":50.8,"longitude":13.23333},{"id":25053,"name":"Erlau","latitude":51.00938,"longitude":12.94549},{"id":25054,"name":"Erlbach","latitude":50.31667,"longitude":12.36667},{"id":25091,"name":"Espenhain","latitude":51.18926,"longitude":12.47885},{"id":25131,"name":"Falkenau","latitude":50.85559,"longitude":13.11718},{"id":25137,"name":"Falkenhain","latitude":51.39888,"longitude":12.87083},{"id":25139,"name":"Falkenstein","latitude":50.47788,"longitude":12.37129},{"id":25199,"name":"Flöha","latitude":50.85613,"longitude":13.07407},{"id":25214,"name":"Frankenberg","latitude":50.91297,"longitude":13.04011},{"id":25216,"name":"Frankenstein","latitude":50.90064,"longitude":13.20933},{"id":25219,"name":"Frankenthal","latitude":51.13129,"longitude":14.10893},{"id":25230,"name":"Frauenstein","latitude":50.80279,"longitude":13.5379},{"id":25233,"name":"Fraureuth","latitude":50.7,"longitude":12.35},{"id":25238,"name":"Freiberg","latitude":50.91089,"longitude":13.33881},{"id":25252,"name":"Freital","latitude":51.00166,"longitude":13.6488},{"id":25277,"name":"Friedersdorf","latitude":51.02416,"longitude":14.56246},{"id":25304,"name":"Frohburg","latitude":51.05719,"longitude":12.55746},{"id":25340,"name":"Gablenz","latitude":51.53333,"longitude":14.66667},{"id":25404,"name":"Geising","latitude":50.75742,"longitude":13.79278},{"id":25410,"name":"Geithain","latitude":51.05528,"longitude":12.69674},{"id":25414,"name":"Gelenau","latitude":50.71151,"longitude":12.96666},{"id":25443,"name":"Geringswalde","latitude":51.07677,"longitude":12.90725},{"id":25458,"name":"Gersdorf","latitude":51.1122,"longitude":12.93889},{"id":25479,"name":"Geyer","latitude":50.62632,"longitude":12.92074},{"id":25503,"name":"Glashütte","latitude":50.85196,"longitude":13.77977},{"id":25508,"name":"Glaubitz","latitude":51.32498,"longitude":13.37817},{"id":25510,"name":"Glauchau","latitude":50.81987,"longitude":12.54493},{"id":25775,"name":"Göda","latitude":51.178,"longitude":14.31951},{"id":25781,"name":"Görlitz","latitude":51.15518,"longitude":14.98853},{"id":25543,"name":"Gornau","latitude":50.75901,"longitude":13.03731},{"id":25544,"name":"Gornsdorf","latitude":50.7,"longitude":12.88333},{"id":25610,"name":"Grimma","latitude":51.23367,"longitude":12.71959},{"id":25612,"name":"Groitzsch","latitude":51.15536,"longitude":12.28279},{"id":25621,"name":"Groß Düben","latitude":51.56667,"longitude":14.56667},{"id":25650,"name":"Großbardau","latitude":51.20419,"longitude":12.69848},{"id":25656,"name":"Großbothen","latitude":51.18784,"longitude":12.75101},{"id":25659,"name":"Großdubrau","latitude":51.25422,"longitude":14.45897},{"id":25664,"name":"Großenhain","latitude":51.28951,"longitude":13.5335},{"id":25675,"name":"Großharthau","latitude":51.10694,"longitude":14.09911},{"id":25676,"name":"Großhartmannsdorf","latitude":50.8,"longitude":13.33333},{"id":25678,"name":"Großhennersdorf","latitude":50.98597,"longitude":14.78776},{"id":25689,"name":"Großlehna","latitude":51.30687,"longitude":12.1719},{"id":25693,"name":"Großnaundorf","latitude":51.2,"longitude":13.93333},{"id":25695,"name":"Großolbersdorf","latitude":50.7,"longitude":13.08333},{"id":25698,"name":"Großpösna","latitude":51.26667,"longitude":12.5},{"id":25697,"name":"Großpostwitz","latitude":51.12083,"longitude":14.44065},{"id":25704,"name":"Großröhrsdorf","latitude":51.14528,"longitude":14.01917},{"id":25705,"name":"Großrückerswalde","latitude":50.63333,"longitude":13.11667},{"id":25706,"name":"Großschirma","latitude":50.96602,"longitude":13.2859},{"id":25708,"name":"Großschönau","latitude":50.9,"longitude":14.68333},{"id":25707,"name":"Großschweidnitz","latitude":51.06939,"longitude":14.64297},{"id":25713,"name":"Großweitzschen","latitude":51.15845,"longitude":13.04517},{"id":25735,"name":"Grünbach","latitude":50.44995,"longitude":12.36186},{"id":25739,"name":"Grünhain","latitude":50.58019,"longitude":12.80695},{"id":25740,"name":"Grünhainichen","latitude":50.7672,"longitude":13.15366},{"id":25770,"name":"Guttau","latitude":51.25904,"longitude":14.56132},{"id":26295,"name":"Hähnichen","latitude":51.3654,"longitude":14.86098},{"id":25837,"name":"Hainewalde","latitude":50.91014,"longitude":14.70387},{"id":25838,"name":"Hainichen","latitude":50.97044,"longitude":13.12287},{"id":25858,"name":"Halsbrücke","latitude":50.95,"longitude":13.35},{"id":25878,"name":"Hammerbrücke","latitude":50.43504,"longitude":12.415},{"id":25913,"name":"Hartenstein","latitude":50.66236,"longitude":12.66966},{"id":25914,"name":"Hartha","latitude":51.09863,"longitude":12.97391},{"id":25917,"name":"Hartmannsdorf","latitude":50.75804,"longitude":12.42687},{"id":25924,"name":"Haselbachtal","latitude":51.2357,"longitude":14.02576},{"id":25954,"name":"Hauswalde","latitude":51.15212,"longitude":14.0863},{"id":25985,"name":"Heidenau","latitude":50.97221,"longitude":13.86741},{"id":26081,"name":"Hermsdorf","latitude":50.92338,"longitude":13.7348},{"id":26090,"name":"Herrnhut","latitude":51.01624,"longitude":14.74381},{"id":26132,"name":"Hilbersdorf","latitude":50.854,"longitude":12.94776},{"id":26165,"name":"Hirschfeld","latitude":50.62453,"longitude":12.45722},{"id":26167,"name":"Hirschfelde","latitude":50.94437,"longitude":14.8851},{"id":26177,"name":"Hochkirch","latitude":51.14898,"longitude":14.57063},{"id":26305,"name":"Höckendorf","latitude":51.22423,"longitude":13.90935},{"id":26194,"name":"Hohburg","latitude":51.41168,"longitude":12.80508},{"id":26215,"name":"Hohenstein-Ernstthal","latitude":50.80064,"longitude":12.71287},{"id":26224,"name":"Hohndorf","latitude":50.74044,"longitude":12.68058},{"id":26226,"name":"Hohnstein","latitude":50.97991,"longitude":14.11408},{"id":26262,"name":"Horka","latitude":51.26342,"longitude":14.25523},{"id":26263,"name":"Hormersdorf","latitude":50.67406,"longitude":12.88194},{"id":26277,"name":"Hoyerswerda","latitude":51.43787,"longitude":14.23549},{"id":26427,"name":"Jahnsdorf","latitude":50.74509,"longitude":12.85414},{"id":26443,"name":"Jesewitz","latitude":51.42276,"longitude":12.56312},{"id":26455,"name":"Johanngeorgenstadt","latitude":50.43254,"longitude":12.7114},{"id":26467,"name":"Jöhstadt","latitude":50.51229,"longitude":13.0946},{"id":26500,"name":"Kamenz","latitude":51.26798,"longitude":14.09374},{"id":26595,"name":"Kirchberg","latitude":50.6219,"longitude":12.52449},{"id":26644,"name":"Kirschau","latitude":51.09317,"longitude":14.4284},{"id":26651,"name":"Kitzen","latitude":51.22172,"longitude":12.22349},{"id":26653,"name":"Kitzscher","latitude":51.16444,"longitude":12.5526},{"id":26689,"name":"Klingenthal","latitude":50.35963,"longitude":12.46463},{"id":26691,"name":"Klipphausen","latitude":51.06841,"longitude":13.51374},{"id":26692,"name":"Klitten","latitude":51.35109,"longitude":14.60526},{"id":26707,"name":"Kodersdorf","latitude":51.24272,"longitude":14.89336},{"id":26826,"name":"Königsbrück","latitude":51.26451,"longitude":13.9054},{"id":26829,"name":"Königsfeld","latitude":51.06667,"longitude":12.75},{"id":26832,"name":"Königshain","latitude":51.18333,"longitude":14.86667},{"id":26834,"name":"Königstein","latitude":50.9157,"longitude":14.07186},{"id":26837,"name":"Königswalde","latitude":50.55,"longitude":13.05},{"id":26838,"name":"Königswartha","latitude":51.31028,"longitude":14.32797},{"id":26729,"name":"Kossa","latitude":51.61707,"longitude":12.68197},{"id":26742,"name":"Krauschwitz","latitude":51.52153,"longitude":14.71211},{"id":26748,"name":"Kreischa","latitude":50.94534,"longitude":13.75514},{"id":26761,"name":"Kriebstein","latitude":51.05,"longitude":13.01667},{"id":26776,"name":"Krostitz","latitude":51.46208,"longitude":12.4536},{"id":26788,"name":"Kubschütz","latitude":51.16667,"longitude":14.5},{"id":26801,"name":"Kurort Gohrisch","latitude":50.91234,"longitude":14.10687},{"id":26802,"name":"Kurort Jonsdorf","latitude":50.85751,"longitude":14.70922},{"id":26803,"name":"Kurort Oberwiesenthal","latitude":50.41943,"longitude":12.96836},{"id":26804,"name":"Kurort Oybin","latitude":50.84105,"longitude":14.74124},{"id":26886,"name":"Lampertswalde","latitude":51.31108,"longitude":13.67694},{"id":26910,"name":"Langenbernsdorf","latitude":50.75583,"longitude":12.32669},{"id":26991,"name":"Laußig","latitude":51.54676,"longitude":12.6293},{"id":26992,"name":"Laußnitz","latitude":51.25,"longitude":13.88333},{"id":26982,"name":"Lauter","latitude":50.56264,"longitude":12.73513},{"id":26993,"name":"Lawalde","latitude":51.08333,"longitude":14.6},{"id":27028,"name":"Leipzig","latitude":51.33962,"longitude":12.37129},{"id":27029,"name":"Leisnig","latitude":51.15743,"longitude":12.9279},{"id":27040,"name":"Lengefeld","latitude":50.71911,"longitude":13.1929},{"id":27041,"name":"Lengenfeld","latitude":50.5694,"longitude":12.36408},{"id":27057,"name":"Leubnitz","latitude":50.72313,"longitude":12.3566},{"id":27058,"name":"Leubsdorf","latitude":50.8,"longitude":13.16667},{"id":27067,"name":"Leutersdorf","latitude":50.95,"longitude":14.65},{"id":27080,"name":"Lichtenberg","latitude":50.83492,"longitude":13.42478},{"id":27083,"name":"Lichtenstein","latitude":50.75659,"longitude":12.63025},{"id":27084,"name":"Lichtentanne","latitude":50.69255,"longitude":12.42585},{"id":27091,"name":"Liebstadt","latitude":50.86417,"longitude":13.85694},{"id":27097,"name":"Limbach","latitude":50.58333,"longitude":12.25},{"id":27098,"name":"Limbach-Oberfrohna","latitude":50.85882,"longitude":12.76165},{"id":27185,"name":"Löbau","latitude":51.09954,"longitude":14.66738},{"id":27189,"name":"Löbnitz","latitude":51.59238,"longitude":12.46347},{"id":27125,"name":"Lobstädt","latitude":51.13361,"longitude":12.44861},{"id":27134,"name":"Lohmen","latitude":50.98831,"longitude":14.00268},{"id":27138,"name":"Lohsa","latitude":51.38333,"longitude":14.4},{"id":27142,"name":"Lommatzsch","latitude":51.19537,"longitude":13.30917},{"id":27200,"name":"Lößnitz","latitude":50.62181,"longitude":12.73147},{"id":27169,"name":"Lugau","latitude":50.73843,"longitude":12.74861},{"id":27176,"name":"Lunzenau","latitude":50.96269,"longitude":12.75594},{"id":27227,"name":"Machern","latitude":51.36667,"longitude":12.63333},{"id":27257,"name":"Malschwitz","latitude":51.23759,"longitude":14.52163},{"id":27273,"name":"Marienberg","latitude":50.65051,"longitude":13.16122},{"id":27284,"name":"Markersbach","latitude":50.53545,"longitude":12.86149},{"id":27285,"name":"Markersdorf","latitude":51.13333,"longitude":14.88333},{"id":27287,"name":"Markkleeberg","latitude":51.2755,"longitude":12.36906},{"id":27290,"name":"Markneukirchen","latitude":50.31144,"longitude":12.32951},{"id":27291,"name":"Markranstädt","latitude":51.30146,"longitude":12.2202},{"id":27365,"name":"Meerane","latitude":50.84688,"longitude":12.46473},{"id":27373,"name":"Mehltheuer","latitude":50.5453,"longitude":12.037},{"id":27385,"name":"Meissen","latitude":51.16158,"longitude":13.4737},{"id":27465,"name":"Mildenau","latitude":50.58689,"longitude":13.07263},{"id":27482,"name":"Mittelherwigsdorf","latitude":50.91667,"longitude":14.76667},{"id":27493,"name":"Mittweida","latitude":50.98622,"longitude":12.97537},{"id":27497,"name":"Mochau","latitude":51.13333,"longitude":13.18333},{"id":27498,"name":"Mockrehna","latitude":51.50757,"longitude":12.81418},{"id":27525,"name":"Moritzburg","latitude":51.15922,"longitude":13.68021},{"id":27584,"name":"Mücka","latitude":51.31667,"longitude":14.7},{"id":27586,"name":"Mügeln","latitude":51.23619,"longitude":13.04567},{"id":27591,"name":"Mühlau","latitude":50.9,"longitude":12.76667},{"id":27603,"name":"Mühltroff","latitude":50.53919,"longitude":11.92828},{"id":27535,"name":"Mulda","latitude":50.80789,"longitude":13.41477},{"id":27608,"name":"Mülsen","latitude":50.75,"longitude":12.56667},{"id":27551,"name":"Mutzschen","latitude":51.26159,"longitude":12.89125},{"id":27552,"name":"Mylau","latitude":50.61861,"longitude":12.26535},{"id":27643,"name":"Narsdorf","latitude":51.01667,"longitude":12.71667},{"id":27651,"name":"Naundorf","latitude":51.25718,"longitude":13.1081},{"id":27652,"name":"Naunhof","latitude":51.2777,"longitude":12.58827},{"id":27655,"name":"Nauwalde","latitude":51.41837,"longitude":13.40974},{"id":27656,"name":"Nebelschütz","latitude":51.26227,"longitude":14.15849},{"id":27677,"name":"Nerchau","latitude":51.27094,"longitude":12.78912},{"id":27680,"name":"Neschwitz","latitude":51.27056,"longitude":14.329},{"id":27686,"name":"Netzschkau","latitude":50.61411,"longitude":12.24382},{"id":27726,"name":"Neuensalz","latitude":50.5,"longitude":12.21667},{"id":27736,"name":"Neugersdorf","latitude":50.97729,"longitude":14.60881},{"id":27745,"name":"Neuhausen","latitude":50.67647,"longitude":13.4675},{"id":27755,"name":"Neukieritzsch","latitude":51.14995,"longitude":12.4109},{"id":27756,"name":"Neukirch","latitude":51.28333,"longitude":13.98333},{"id":27758,"name":"Neukirch/Lausitz","latitude":51.09727,"longitude":14.30789},{"id":27762,"name":"Neukirchen","latitude":50.77955,"longitude":12.86755},{"id":27770,"name":"Neumark","latitude":50.6601,"longitude":12.35619},{"id":27788,"name":"Neusalza-Spremberg","latitude":51.03945,"longitude":14.5356},{"id":27806,"name":"Neustadt in Sachsen","latitude":51.02844,"longitude":14.21785},{"id":27796,"name":"Neustadt Vogtland","latitude":50.461,"longitude":12.33224},{"id":27831,"name":"Niederau","latitude":51.1773,"longitude":13.54563},{"id":27836,"name":"Niedercunnersdorf","latitude":51.05398,"longitude":14.6583},{"id":27837,"name":"Niederdorf","latitude":50.72623,"longitude":12.78587},{"id":27847,"name":"Niederfrohna","latitude":50.9,"longitude":12.71667},{"id":27871,"name":"Niederschöna","latitude":50.96671,"longitude":13.4191},{"id":27877,"name":"Niederstriegis","latitude":51.08243,"longitude":13.14925},{"id":27883,"name":"Niederwiesa","latitude":50.86667,"longitude":13.01667},{"id":27898,"name":"Niesky","latitude":51.29241,"longitude":14.82107},{"id":27934,"name":"Nossen","latitude":51.05798,"longitude":13.29652},{"id":27953,"name":"Nünchritz","latitude":51.29993,"longitude":13.38555},{"id":27969,"name":"Obercunnersdorf","latitude":50.91711,"longitude":13.56015},{"id":27979,"name":"Obergurig","latitude":51.13294,"longitude":14.40488},{"id":27993,"name":"Oberlichtenau","latitude":51.21875,"longitude":13.98992},{"id":27994,"name":"Oberlungwitz","latitude":50.7823,"longitude":12.70789},{"id":28033,"name":"Oberschöna","latitude":50.89759,"longitude":13.25379},{"id":28055,"name":"Oberwiera","latitude":50.88913,"longitude":12.54415},{"id":28073,"name":"Oederan","latitude":50.86064,"longitude":13.17164},{"id":28078,"name":"Oelsnitz","latitude":50.4147,"longitude":12.1695},{"id":28101,"name":"Ohorn","latitude":51.17199,"longitude":14.04669},{"id":28102,"name":"Olbernhau","latitude":50.6587,"longitude":13.3425},{"id":28103,"name":"Olbersdorf","latitude":50.87304,"longitude":14.77035},{"id":28117,"name":"Oppach","latitude":51.06667,"longitude":14.5},{"id":28136,"name":"Oschatz","latitude":51.30001,"longitude":13.10984},{"id":28206,"name":"Oßling","latitude":51.35999,"longitude":14.16567},{"id":28165,"name":"Ostrau","latitude":51.20639,"longitude":12.88421},{"id":28167,"name":"Ostritz","latitude":51.01451,"longitude":14.93059},{"id":28178,"name":"Ottendorf-Okrilla","latitude":51.18333,"longitude":13.83333},{"id":28193,"name":"Otterwisch","latitude":51.2,"longitude":12.61667},{"id":28217,"name":"Panschwitz-Kuckau","latitude":51.23395,"longitude":14.19791},{"id":28238,"name":"Pausa","latitude":50.58172,"longitude":11.99732},{"id":28240,"name":"Pegau","latitude":51.16715,"longitude":12.25144},{"id":28251,"name":"Penig","latitude":50.93336,"longitude":12.70422},{"id":28278,"name":"Pfaffroda","latitude":50.86134,"longitude":12.51497},{"id":28309,"name":"Pirna","latitude":50.95843,"longitude":13.93702},{"id":28319,"name":"Plauen","latitude":50.4973,"longitude":12.13782},{"id":28336,"name":"Pobershau","latitude":50.64079,"longitude":13.21776},{"id":28337,"name":"Pockau","latitude":50.7,"longitude":13.23333},{"id":28414,"name":"Pöhl","latitude":50.39311,"longitude":12.32908},{"id":28415,"name":"Pöhla","latitude":50.51143,"longitude":12.81889},{"id":28355,"name":"Porschdorf","latitude":50.9418,"longitude":14.12687},{"id":28383,"name":"Pretzschendorf","latitude":50.87385,"longitude":13.52499},{"id":28388,"name":"Priestewitz","latitude":51.25,"longitude":13.51667},{"id":28407,"name":"Puschwitz","latitude":51.25501,"longitude":14.30111},{"id":28434,"name":"Quitzdorf","latitude":51.28333,"longitude":14.76667},{"id":28436,"name":"Rabenau","latitude":50.96484,"longitude":13.64305},{"id":28772,"name":"Räckelwitz","latitude":51.25,"longitude":14.23333},{"id":28438,"name":"Rackwitz","latitude":51.43333,"longitude":12.38333},{"id":28441,"name":"Radeberg","latitude":51.11112,"longitude":13.91199},{"id":28442,"name":"Radebeul","latitude":51.10654,"longitude":13.66047},{"id":28443,"name":"Radeburg","latitude":51.21516,"longitude":13.7281},{"id":28446,"name":"Radibor","latitude":51.24481,"longitude":14.39842},{"id":28462,"name":"Rammenau","latitude":51.15,"longitude":14.13333},{"id":28477,"name":"Raschau","latitude":50.53127,"longitude":12.83312},{"id":28486,"name":"Rathmannsdorf","latitude":50.92993,"longitude":14.14224},{"id":28501,"name":"Rechenberg-Bienenmühle","latitude":50.73777,"longitude":13.53502},{"id":28526,"name":"Regis-Breitingen","latitude":51.08883,"longitude":12.43841},{"id":28540,"name":"Reichenbach","latitude":51.14144,"longitude":14.8027},{"id":28543,"name":"Reichenbach/Vogtland","latitude":50.62279,"longitude":12.30344},{"id":28559,"name":"Reinhardtsgrimma","latitude":50.8927,"longitude":13.75534},{"id":28563,"name":"Reinsberg","latitude":51.00823,"longitude":13.36542},{"id":28564,"name":"Reinsdorf","latitude":50.69775,"longitude":12.55555},{"id":28577,"name":"Remse","latitude":50.85,"longitude":12.56667},{"id":28594,"name":"Reuth","latitude":50.61667,"longitude":12.21667},{"id":28645,"name":"Riesa","latitude":51.30777,"longitude":13.29168},{"id":28653,"name":"Rietschen","latitude":51.4,"longitude":14.78333},{"id":28669,"name":"Rittersgrün","latitude":50.48031,"longitude":12.79336},{"id":28670,"name":"Rochlitz","latitude":51.05007,"longitude":12.79754},{"id":28678,"name":"Rodewisch","latitude":50.53083,"longitude":12.41329},{"id":28713,"name":"Rossau","latitude":51.0,"longitude":13.06667},{"id":28747,"name":"Roßwein","latitude":51.06589,"longitude":13.18308},{"id":28789,"name":"Rötha","latitude":51.19783,"longitude":12.41447},{"id":28724,"name":"Rothenburg","latitude":51.334,"longitude":14.96874},{"id":28863,"name":"Sankt Egidien","latitude":50.78617,"longitude":12.62395},{"id":28899,"name":"Sayda","latitude":50.71123,"longitude":13.42172},{"id":28911,"name":"Scharfenstein","latitude":50.70405,"longitude":13.05654},{"id":28921,"name":"Scheibenberg","latitude":50.54023,"longitude":12.91215},{"id":28945,"name":"Schildau","latitude":51.45721,"longitude":12.93024},{"id":28952,"name":"Schirgiswalde","latitude":51.07641,"longitude":14.42834},{"id":28955,"name":"Schkeuditz","latitude":51.39678,"longitude":12.22141},{"id":28966,"name":"Schlegel","latitude":50.97775,"longitude":14.87686},{"id":28970,"name":"Schleife","latitude":51.53333,"longitude":14.53333},{"id":28973,"name":"Schlettau","latitude":50.55882,"longitude":12.95269},{"id":28994,"name":"Schmiedeberg","latitude":50.83644,"longitude":13.67622},{"id":29004,"name":"Schneeberg","latitude":50.59465,"longitude":12.64139},{"id":29109,"name":"Schönau-Berzdorf","latitude":51.06402,"longitude":14.88402},{"id":29110,"name":"Schönbach","latitude":51.06667,"longitude":14.56667},{"id":29112,"name":"Schönberg","latitude":50.86752,"longitude":12.49126},{"id":29117,"name":"Schöneck","latitude":50.39052,"longitude":12.32731},{"id":29123,"name":"Schönfeld","latitude":51.3,"longitude":13.7},{"id":29126,"name":"Schönheide","latitude":50.50458,"longitude":12.52158},{"id":29070,"name":"Schwarzenberg","latitude":50.53791,"longitude":12.78522},{"id":29089,"name":"Schwepnitz","latitude":51.32809,"longitude":13.95772},{"id":29139,"name":"Sebnitz","latitude":50.9754,"longitude":14.27579},{"id":29159,"name":"Seelitz","latitude":51.03333,"longitude":12.81667},{"id":29172,"name":"Seiffen","latitude":50.65,"longitude":13.45},{"id":29173,"name":"Seifhennersdorf","latitude":50.93492,"longitude":14.60194},{"id":29255,"name":"Sohland","latitude":51.04089,"longitude":14.41897},{"id":29256,"name":"Sohland am Rotstein","latitude":51.11643,"longitude":14.78372},{"id":29280,"name":"Sosa","latitude":50.49917,"longitude":12.6512},{"id":29318,"name":"Stadt Wehlen","latitude":50.95821,"longitude":14.03091},{"id":29342,"name":"Stauchitz","latitude":51.2435,"longitude":13.21437},{"id":29358,"name":"Steina","latitude":51.2,"longitude":14.05},{"id":29386,"name":"Steinigtwolmsdorf","latitude":51.06314,"longitude":14.3454},{"id":29417,"name":"Stollberg","latitude":50.70999,"longitude":12.78034},{"id":29419,"name":"Stolpen","latitude":51.04901,"longitude":14.07943},{"id":29435,"name":"Strehla","latitude":51.35248,"longitude":13.2266},{"id":29438,"name":"Struppen","latitude":50.93333,"longitude":14.01667},{"id":29456,"name":"Stützengrün","latitude":50.53333,"longitude":12.53333},{"id":29488,"name":"Syrau","latitude":50.54297,"longitude":12.07933},{"id":29523,"name":"Tannenberg","latitude":50.60738,"longitude":12.93798},{"id":29524,"name":"Tannenbergsthal","latitude":50.43665,"longitude":12.45754},{"id":29534,"name":"Taucha","latitude":51.38333,"longitude":12.48333},{"id":29538,"name":"Taura","latitude":50.91667,"longitude":12.85},{"id":29539,"name":"Tauscha","latitude":51.26667,"longitude":13.8},{"id":29579,"name":"Thalheim","latitude":50.70077,"longitude":12.84996},{"id":29580,"name":"Thallwitz","latitude":51.43333,"longitude":12.68333},{"id":29585,"name":"Tharandt","latitude":50.98525,"longitude":13.58035},{"id":29591,"name":"Theuma","latitude":50.47007,"longitude":12.22195},{"id":29592,"name":"Thiendorf","latitude":51.29375,"longitude":13.74124},{"id":29600,"name":"Thum","latitude":50.67081,"longitude":12.95091},{"id":29617,"name":"Tirpersdorf","latitude":50.43333,"longitude":12.25},{"id":29632,"name":"Torgau","latitude":51.56016,"longitude":12.99617},{"id":29649,"name":"Trebendorf","latitude":51.53333,"longitude":14.56667},{"id":29652,"name":"Trebsen","latitude":51.28898,"longitude":12.75496},{"id":29662,"name":"Treuen","latitude":50.54247,"longitude":12.30339},{"id":29666,"name":"Triebel","latitude":50.37153,"longitude":12.12118},{"id":29680,"name":"Trossin","latitude":51.61667,"longitude":12.81667},{"id":29735,"name":"Uhyst","latitude":51.36469,"longitude":14.506},{"id":29833,"name":"Venusberg","latitude":50.69918,"longitude":13.01854},{"id":29900,"name":"Wachau","latitude":51.16172,"longitude":13.90651},{"id":29946,"name":"Waldenburg","latitude":50.87653,"longitude":12.59919},{"id":29952,"name":"Waldheim","latitude":51.07282,"longitude":13.02004},{"id":29955,"name":"Waldkirchen","latitude":50.59667,"longitude":12.37994},{"id":30045,"name":"Wechselburg","latitude":51.00214,"longitude":12.77661},{"id":30098,"name":"Weinböhla","latitude":51.16667,"longitude":13.56667},{"id":30105,"name":"Weischlitz","latitude":50.45,"longitude":12.06667},{"id":30124,"name":"Weißenberg","latitude":51.19644,"longitude":14.65874},{"id":30126,"name":"Weißenborn","latitude":50.73952,"longitude":12.47051},{"id":30138,"name":"Weißig","latitude":51.29192,"longitude":13.44117},{"id":30139,"name":"Weißkeißel","latitude":51.49405,"longitude":14.71515},{"id":30140,"name":"Weißwasser","latitude":51.50403,"longitude":14.64017},{"id":30168,"name":"Werda","latitude":50.43811,"longitude":12.30473},{"id":30169,"name":"Werdau","latitude":50.73604,"longitude":12.37534},{"id":30177,"name":"Wermsdorf","latitude":51.28333,"longitude":12.95},{"id":30239,"name":"Wiedemar","latitude":51.46667,"longitude":12.2},{"id":30243,"name":"Wiednitz","latitude":51.38608,"longitude":14.02683},{"id":30252,"name":"Wiesa","latitude":50.61114,"longitude":13.01377},{"id":30276,"name":"Wildenfels","latitude":50.66784,"longitude":12.60886},{"id":30277,"name":"Wildenhain","latitude":51.3076,"longitude":13.47678},{"id":30291,"name":"Wilkau-Haßlau","latitude":50.67504,"longitude":12.51482},{"id":30301,"name":"Wilsdruff","latitude":51.05199,"longitude":13.53657},{"id":30305,"name":"Wilthen","latitude":51.09745,"longitude":14.3929},{"id":30357,"name":"Wittgensdorf","latitude":50.88316,"longitude":12.87031},{"id":30358,"name":"Wittichenau","latitude":51.38496,"longitude":14.24403},{"id":30391,"name":"Wolkenstein","latitude":50.65552,"longitude":13.07132},{"id":30455,"name":"Wülknitz","latitude":51.36667,"longitude":13.4},{"id":30426,"name":"Wurzen","latitude":51.3707,"longitude":12.73939},{"id":30462,"name":"Zabeltitz","latitude":51.35147,"longitude":13.50462},{"id":30479,"name":"Zeithain","latitude":51.33356,"longitude":13.33809},{"id":30510,"name":"Zinna","latitude":51.5679,"longitude":12.95354},{"id":30512,"name":"Zittau","latitude":50.89772,"longitude":14.80764},{"id":30541,"name":"Zöblitz","latitude":50.65912,"longitude":13.22981},{"id":30518,"name":"Zschadrass","latitude":51.13828,"longitude":12.81848},{"id":30519,"name":"Zschepplin","latitude":51.5,"longitude":12.6},{"id":30522,"name":"Zschopau","latitude":50.74818,"longitude":13.07691},{"id":30523,"name":"Zschorlau","latitude":50.56667,"longitude":12.65},{"id":30525,"name":"Zschortau","latitude":51.4793,"longitude":12.35893},{"id":30533,"name":"Zwenkau","latitude":51.21872,"longitude":12.33008},{"id":30534,"name":"Zwickau","latitude":50.72724,"longitude":12.48839},{"id":30538,"name":"Zwochau","latitude":51.46467,"longitude":12.26844},{"id":30540,"name":"Zwönitz","latitude":50.63027,"longitude":12.80999},{"id":30539,"name":"Zwota","latitude":50.35103,"longitude":12.42241}]