[{"id":107138,"name":"Altıeylül İlçesi","latitude":39.64099,"longitude":27.88639},{"id":107143,"name":"Altınoluk","latitude":39.57944,"longitude":26.73722},{"id":107233,"name":"Ayvalık","latitude":39.31927,"longitude":26.69341},{"id":107277,"name":"Balıkesir","latitude":39.64917,"longitude":27.88611},{"id":107273,"name":"Balya","latitude":39.74861,"longitude":27.57889},{"id":107283,"name":"Bandırma","latitude":40.35222,"longitude":27.97667},{"id":107354,"name":"Bigadiç","latitude":39.3925,"longitude":28.13111},{"id":107412,"name":"Burhaniye","latitude":39.50041,"longitude":26.97269},{"id":107532,"name":"Dursunbey","latitude":39.58596,"longitude":28.62568},{"id":107550,"name":"Edremit","latitude":39.59611,"longitude":27.02444},{"id":107584,"name":"Erdek","latitude":40.3996,"longitude":27.79348},{"id":107705,"name":"Gömeç","latitude":39.39016,"longitude":26.84127},{"id":107708,"name":"Gönen","latitude":40.1049,"longitude":27.65399},{"id":107806,"name":"Havran","latitude":39.55833,"longitude":27.09833},{"id":108920,"name":"İvrindi","latitude":39.58389,"longitude":27.48639},{"id":107982,"name":"Kepsut","latitude":39.68889,"longitude":28.15222},{"id":108151,"name":"Manyas","latitude":40.04639,"longitude":27.97},{"id":108155,"name":"Marmara","latitude":40.58633,"longitude":27.55541},{"id":108417,"name":"Savaştepe","latitude":39.38319,"longitude":27.65612},{"id":108527,"name":"Sındırgı","latitude":39.24128,"longitude":28.17842},{"id":108509,"name":"Susurluk","latitude":39.91361,"longitude":28.15778}]