[{"id":66576,"name":"Akademija (Kaunas)","latitude":54.8964,"longitude":23.82411},{"id":66579,"name":"Aleksotas","latitude":54.88037,"longitude":23.90842},{"id":66584,"name":"Ariogala","latitude":55.262,"longitude":23.477},{"id":66588,"name":"Birštonas","latitude":54.61667,"longitude":24.03333},{"id":66591,"name":"Dainava (Kaunas)","latitude":54.91525,"longitude":23.96831},{"id":66595,"name":"Eiguliai","latitude":54.93133,"longitude":23.93243},{"id":66598,"name":"Ežerėlis","latitude":54.88315,"longitude":23.60396},{"id":66601,"name":"Garliava","latitude":54.82139,"longitude":23.8713},{"id":66605,"name":"Jieznas","latitude":54.59937,"longitude":24.17593},{"id":66606,"name":"Jonava","latitude":55.08333,"longitude":24.28333},{"id":66611,"name":"Kaišiadorys","latitude":54.86667,"longitude":24.45},{"id":66614,"name":"Karmėlava","latitude":54.97055,"longitude":24.06182},{"id":66615,"name":"Kaunas","latitude":54.90272,"longitude":23.90961},{"id":66629,"name":"Kėdainiai","latitude":55.28333,"longitude":23.96667},{"id":66624,"name":"Kulautuva","latitude":54.94212,"longitude":23.64218},{"id":66636,"name":"Mastaiciai","latitude":54.81998,"longitude":23.84462},{"id":66661,"name":"Prienai","latitude":54.63333,"longitude":23.95},{"id":66664,"name":"Ramučiai","latitude":54.9483,"longitude":24.0305},{"id":66666,"name":"Raseiniai","latitude":55.36667,"longitude":23.11667},{"id":66674,"name":"Sargėnai","latitude":54.94933,"longitude":23.88316},{"id":66714,"name":"Šilainiai","latitude":54.92911,"longitude":23.88599},{"id":66701,"name":"Vilkija","latitude":55.04609,"longitude":23.58552},{"id":66723,"name":"Žiežmariai","latitude":54.80725,"longitude":24.44073}]