[{"id":107170,"name":"Araban","latitude":37.42559,"longitude":37.78175},{"id":107519,"name":"Doğanpınar","latitude":36.84321,"longitude":37.61759},{"id":107645,"name":"Gaziantep","latitude":37.05944,"longitude":37.3825},{"id":108886,"name":"İkizce","latitude":36.86262,"longitude":37.77432},{"id":108917,"name":"İslahiye İlçesi","latitude":36.96528,"longitude":36.70972},{"id":107925,"name":"Karkamış","latitude":36.83452,"longitude":37.9983},{"id":108250,"name":"Nizip","latitude":37.00972,"longitude":37.79417},{"id":108253,"name":"Nurdağı","latitude":37.16821,"longitude":36.73623},{"id":108303,"name":"Oğuzeli","latitude":36.96572,"longitude":37.51339},{"id":108929,"name":"Şahinbey İlçesi","latitude":37.03741,"longitude":37.37822},{"id":108946,"name":"Şehitkamil","latitude":37.17217,"longitude":37.36974},{"id":108424,"name":"Sekili","latitude":36.97876,"longitude":37.67174},{"id":108630,"name":"Uluyatır","latitude":36.96333,"longitude":37.69361},{"id":108677,"name":"Yavuzeli","latitude":37.31772,"longitude":37.56824},{"id":108722,"name":"Yeşildere","latitude":36.973,"longitude":37.49488}]