[{"id":39243,"name":"Abondance","latitude":46.27874,"longitude":6.72105},{"id":39246,"name":"Abrest","latitude":46.09859,"longitude":3.44461},{"id":39273,"name":"Aigueblanche","latitude":45.50455,"longitude":6.50184},{"id":39275,"name":"Aigueperse","latitude":46.02255,"longitude":3.20228},{"id":39285,"name":"Aime","latitude":45.55559,"longitude":6.65042},{"id":39286,"name":"Ainay-le-Château","latitude":46.71125,"longitude":2.69238},{"id":39291,"name":"Aiton","latitude":45.56123,"longitude":6.25955},{"id":39295,"name":"Aix-les-Bains","latitude":45.69173,"longitude":5.90863},{"id":39301,"name":"Alba-la-Romaine","latitude":44.55537,"longitude":4.59846},{"id":39302,"name":"Albens","latitude":45.78786,"longitude":5.94528},{"id":39304,"name":"Albertville","latitude":45.67452,"longitude":6.39061},{"id":39307,"name":"Albigny-sur-Saône","latitude":45.86667,"longitude":4.83333},{"id":39309,"name":"Alby-sur-Chéran","latitude":45.81667,"longitude":6.01667},{"id":39315,"name":"Alissas","latitude":44.71253,"longitude":4.62936},{"id":39316,"name":"Alixan","latitude":44.97426,"longitude":5.0285},{"id":39319,"name":"Allan","latitude":44.49713,"longitude":4.79068},{"id":39320,"name":"Allanche","latitude":45.22907,"longitude":2.93449},{"id":39333,"name":"Allègre","latitude":45.19959,"longitude":3.71174},{"id":39325,"name":"Allevard","latitude":45.39449,"longitude":6.07519},{"id":39326,"name":"Allex","latitude":44.76765,"longitude":4.89837},{"id":39328,"name":"Allières-et-Risset","latitude":45.09934,"longitude":5.67924},{"id":39327,"name":"Allinges","latitude":46.33547,"longitude":6.4635},{"id":39331,"name":"Allonzier-la-Caille","latitude":46.00117,"longitude":6.11865},{"id":39344,"name":"Amancy","latitude":46.07294,"longitude":6.3289},{"id":39360,"name":"Ambérieu-en-Bugey","latitude":45.95932,"longitude":5.3516},{"id":39361,"name":"Ambérieux-en-Dombes","latitude":45.99894,"longitude":4.90126},{"id":39349,"name":"Ambert","latitude":45.54944,"longitude":3.74164},{"id":39350,"name":"Ambierle","latitude":46.10558,"longitude":3.89323},{"id":39358,"name":"Ambronay","latitude":46.00467,"longitude":5.36273},{"id":39369,"name":"Amplepuis","latitude":45.9726,"longitude":4.3303},{"id":39370,"name":"Ampuis","latitude":45.48925,"longitude":4.81001},{"id":39375,"name":"Ancône","latitude":44.58107,"longitude":4.72711},{"id":39376,"name":"Andance","latitude":45.24059,"longitude":4.79916},{"id":39377,"name":"Andancette","latitude":45.24858,"longitude":4.8086},{"id":39391,"name":"Andrézieux-Bouthéon","latitude":45.52625,"longitude":4.26021},{"id":39414,"name":"Annecy","latitude":45.90878,"longitude":6.12565},{"id":39415,"name":"Annecy-le-Vieux","latitude":45.91971,"longitude":6.14393},{"id":39416,"name":"Annemasse","latitude":46.19439,"longitude":6.23775},{"id":39420,"name":"Anneyron","latitude":45.2722,"longitude":4.88626},{"id":39423,"name":"Annonay","latitude":45.23992,"longitude":4.6707},{"id":39428,"name":"Anse","latitude":45.93553,"longitude":4.71933},{"id":39431,"name":"Anthy-sur-Léman","latitude":46.35534,"longitude":6.42735},{"id":39440,"name":"Aoste","latitude":45.59423,"longitude":5.60712},{"id":39441,"name":"Aouste-sur-Sye","latitude":44.71813,"longitude":5.05422},{"id":39444,"name":"Apprieu","latitude":45.39591,"longitude":5.49993},{"id":39537,"name":"Arâches-la-Frasse","latitude":46.04297,"longitude":6.63145},{"id":39448,"name":"Arbent","latitude":46.29221,"longitude":5.6789},{"id":39460,"name":"Archamps","latitude":46.13195,"longitude":6.12551},{"id":39471,"name":"Arenthon","latitude":46.10697,"longitude":6.33316},{"id":39487,"name":"Arlanc","latitude":45.41389,"longitude":3.72528},{"id":39496,"name":"Armoy","latitude":46.35079,"longitude":6.51703},{"id":39500,"name":"Arnas","latitude":46.02361,"longitude":4.7083},{"id":39507,"name":"Arpajon-sur-Cère","latitude":44.90391,"longitude":2.45664},{"id":39514,"name":"Ars-sur-Formans","latitude":45.99491,"longitude":4.81986},{"id":39519,"name":"Artas","latitude":45.53717,"longitude":5.16352},{"id":39520,"name":"Artemare","latitude":45.87441,"longitude":5.69366},{"id":39522,"name":"Arthaz-Pont-Notre-Dame","latitude":46.15941,"longitude":6.26598},{"id":39563,"name":"Attignat","latitude":46.28562,"longitude":5.16164},{"id":39569,"name":"Aubenas","latitude":44.61975,"longitude":4.39033},{"id":39572,"name":"Auberives-sur-Varèze","latitude":45.4208,"longitude":4.81914},{"id":39585,"name":"Aubière","latitude":45.75082,"longitude":3.11078},{"id":39607,"name":"Aulnat","latitude":45.79929,"longitude":3.16743},{"id":39624,"name":"Aurec-sur-Loire","latitude":45.36908,"longitude":4.20161},{"id":39630,"name":"Aurillac","latitude":44.92539,"longitude":2.43983},{"id":39637,"name":"Autrans","latitude":45.17605,"longitude":5.54271},{"id":39650,"name":"Auzat-la-Combelle","latitude":45.45224,"longitude":3.31825},{"id":39659,"name":"Aveize","latitude":45.68243,"longitude":4.47786},{"id":39660,"name":"Aveizieux","latitude":45.565,"longitude":4.37071},{"id":39663,"name":"Avermes","latitude":46.58774,"longitude":3.3072},{"id":39685,"name":"Aydat","latitude":45.66022,"longitude":2.97316},{"id":39690,"name":"Ayse","latitude":46.08135,"longitude":6.4455},{"id":40409,"name":"Bâgé-la-Ville","latitude":46.31567,"longitude":4.94086},{"id":39734,"name":"Bains","latitude":45.00956,"longitude":3.77503},{"id":39744,"name":"Balan","latitude":45.83416,"longitude":5.0993},{"id":39748,"name":"Balbigny","latitude":45.81913,"longitude":4.1903},{"id":39751,"name":"Ballaison","latitude":46.29842,"longitude":6.32765},{"id":39773,"name":"Barberaz","latitude":45.56179,"longitude":5.94306},{"id":39776,"name":"Barby","latitude":45.5681,"longitude":5.97966},{"id":39791,"name":"Barraux","latitude":45.43176,"longitude":5.97964},{"id":39796,"name":"Bas-en-Basset","latitude":45.30599,"longitude":4.10912},{"id":39800,"name":"Bassens","latitude":45.57555,"longitude":5.939},{"id":39840,"name":"Beauchastel","latitude":44.82587,"longitude":4.80305},{"id":39843,"name":"Beaucroissant","latitude":45.34276,"longitude":5.47102},{"id":39846,"name":"Beaufort","latitude":45.71915,"longitude":6.57331},{"id":39849,"name":"Beaujeu","latitude":46.15428,"longitude":4.58826},{"id":39856,"name":"Beaulon","latitude":46.60156,"longitude":3.67314},{"id":39859,"name":"Beaumont","latitude":45.75165,"longitude":3.08294},{"id":39870,"name":"Beaumont-lès-Valence","latitude":44.86203,"longitude":4.94309},{"id":39862,"name":"Beaumont-Monteux","latitude":45.0198,"longitude":4.91883},{"id":39882,"name":"Beaurepaire","latitude":45.33658,"longitude":5.04878},{"id":39885,"name":"Beausemblant","latitude":45.21706,"longitude":4.83241},{"id":39891,"name":"Beauvallon","latitude":44.85593,"longitude":4.90756},{"id":39892,"name":"Beauvoir-de-Marc","latitude":45.52009,"longitude":5.07906},{"id":39897,"name":"Beauzac","latitude":45.25913,"longitude":4.09874},{"id":40421,"name":"Béligneux","latitude":45.86775,"longitude":5.12747},{"id":39911,"name":"Belle-Plagne","latitude":45.50932,"longitude":6.70685},{"id":39914,"name":"Bellegarde-en-Forez","latitude":45.64469,"longitude":4.29721},{"id":39915,"name":"Bellegarde-sur-Valserine","latitude":46.10787,"longitude":5.82421},{"id":39916,"name":"Bellenaves","latitude":46.20045,"longitude":3.07995},{"id":39919,"name":"Bellerive-sur-Allier","latitude":46.11652,"longitude":3.40406},{"id":39921,"name":"Bellevaux","latitude":46.25875,"longitude":6.53351},{"id":39922,"name":"Belleville","latitude":46.10867,"longitude":4.7492},{"id":39927,"name":"Belley","latitude":45.75917,"longitude":5.68813},{"id":39928,"name":"Bellignat","latitude":46.24237,"longitude":5.62843},{"id":39932,"name":"Belmont-de-la-Loire","latitude":46.16596,"longitude":4.34737},{"id":39955,"name":"Bernin","latitude":45.26772,"longitude":5.86457},{"id":39975,"name":"Bessay-sur-Allier","latitude":46.44199,"longitude":3.36257},{"id":39976,"name":"Besse-et-Saint-Anastaise","latitude":45.51667,"longitude":2.93333},{"id":39978,"name":"Bessenay","latitude":45.77661,"longitude":4.55441},{"id":40000,"name":"Beynost","latitude":45.83569,"longitude":4.9991},{"id":40020,"name":"Bilieu","latitude":45.44809,"longitude":5.54268},{"id":40021,"name":"Billom","latitude":45.72267,"longitude":3.33869},{"id":40028,"name":"Biol","latitude":45.4914,"longitude":5.3855},{"id":40036,"name":"Biviers","latitude":45.23333,"longitude":5.8},{"id":40042,"name":"Blacé","latitude":46.03152,"longitude":4.64448},{"id":40056,"name":"Blanzat","latitude":45.82975,"longitude":3.07794},{"id":40061,"name":"Blavozy","latitude":45.0572,"longitude":3.97993},{"id":40245,"name":"Boëge","latitude":46.20711,"longitude":6.40428},{"id":40246,"name":"Boën-sur-Lignon","latitude":45.75114,"longitude":4.00725},{"id":40117,"name":"Bonne","latitude":46.17207,"longitude":6.32443},{"id":40118,"name":"Bonnefamille","latitude":45.59956,"longitude":5.12489},{"id":40126,"name":"Bonneville","latitude":46.0802,"longitude":6.40726},{"id":40131,"name":"Bons-en-Chablais","latitude":46.26486,"longitude":6.37129},{"id":40132,"name":"Bonson","latitude":45.52291,"longitude":4.2127},{"id":40168,"name":"Boulieu-lès-Annonay","latitude":45.27065,"longitude":4.66645},{"id":40179,"name":"Bourbon-l’Archambault","latitude":46.58324,"longitude":3.05652},{"id":40187,"name":"Bourg-Argental","latitude":45.29899,"longitude":4.5683},{"id":40191,"name":"Bourg-de-Péage","latitude":45.03151,"longitude":5.04993},{"id":40192,"name":"Bourg-de-Thizy","latitude":46.03371,"longitude":4.29904},{"id":40194,"name":"Bourg-en-Bresse","latitude":46.20574,"longitude":5.2258},{"id":40196,"name":"Bourg-lès-Valence","latitude":44.94703,"longitude":4.89463},{"id":40189,"name":"Bourg-Saint-Andéol","latitude":44.37338,"longitude":4.64413},{"id":40190,"name":"Bourg-Saint-Maurice","latitude":45.61463,"longitude":6.76845},{"id":40204,"name":"Bourgoin-Jallieu","latitude":45.58611,"longitude":5.27361},{"id":40210,"name":"Bournoncle-Saint-Pierre","latitude":45.34351,"longitude":3.3183},{"id":40226,"name":"Bouvesse-Quirieu","latitude":45.7931,"longitude":5.41496},{"id":40242,"name":"Bozel","latitude":45.44288,"longitude":6.64896},{"id":40262,"name":"Brassac-les-Mines","latitude":45.41407,"longitude":3.329},{"id":40363,"name":"Brézins","latitude":45.35213,"longitude":5.30539},{"id":40330,"name":"Brié-et-Angonnes","latitude":45.12418,"longitude":5.78374},{"id":40309,"name":"Briennon","latitude":46.15127,"longitude":4.0769},{"id":40312,"name":"Brignais","latitude":45.67383,"longitude":4.75418},{"id":40316,"name":"Brindas","latitude":45.72111,"longitude":4.69349},{"id":40321,"name":"Brioude","latitude":45.29419,"longitude":3.38423},{"id":40325,"name":"Brison-Saint-Innocent","latitude":45.7244,"longitude":5.88895},{"id":40328,"name":"Brives-Charensac","latitude":45.0478,"longitude":3.92878},{"id":40332,"name":"Bron","latitude":45.73865,"longitude":4.91303},{"id":40337,"name":"Broût-Vernet","latitude":46.18756,"longitude":3.27324},{"id":40341,"name":"Brugheas","latitude":46.07676,"longitude":3.3678},{"id":40375,"name":"Buellas","latitude":46.2111,"longitude":5.1322},{"id":40379,"name":"Buis-les-Baronnies","latitude":44.27647,"longitude":5.27187},{"id":40383,"name":"Bully","latitude":45.85113,"longitude":4.58328},{"id":40400,"name":"Bussières","latitude":45.8357,"longitude":4.27123},{"id":40404,"name":"Buxières-les-Mines","latitude":46.46807,"longitude":2.95994},{"id":40465,"name":"Cailloux-sur-Fontaines","latitude":45.85259,"longitude":4.87473},{"id":40477,"name":"Caluire-et-Cuire","latitude":45.79462,"longitude":4.8464},{"id":40516,"name":"Cantal","latitude":45.13985,"longitude":2.64947},{"id":41389,"name":"Cébazat","latitude":45.8314,"longitude":3.09992},{"id":40634,"name":"Celles-sur-Durolle","latitude":45.85829,"longitude":3.6354},{"id":40636,"name":"Cellieu","latitude":45.51866,"longitude":4.54332},{"id":41397,"name":"Cérilly","latitude":46.61791,"longitude":2.8208},{"id":40655,"name":"Certines","latitude":46.13244,"longitude":5.26525},{"id":40659,"name":"Cessieu","latitude":45.56371,"longitude":5.37607},{"id":40662,"name":"Cessy","latitude":46.32032,"longitude":6.07477},{"id":40665,"name":"Ceyrat","latitude":45.73265,"longitude":3.06323},{"id":40667,"name":"Ceyzériat","latitude":46.18126,"longitude":5.31977},{"id":40669,"name":"Chabeuil","latitude":44.89843,"longitude":5.01438},{"id":40931,"name":"Châbons","latitude":45.44282,"longitude":5.42542},{"id":40671,"name":"Chabreloche","latitude":45.879,"longitude":3.69664},{"id":40674,"name":"Chadrac","latitude":45.06181,"longitude":3.90261},{"id":40686,"name":"Chalamont","latitude":45.99734,"longitude":5.16865},{"id":40688,"name":"Chaleins","latitude":46.03165,"longitude":4.80789},{"id":40694,"name":"Challes-les-Eaux","latitude":45.54685,"longitude":5.98098},{"id":40695,"name":"Challex","latitude":46.18458,"longitude":5.97639},{"id":40700,"name":"Chamagnieu","latitude":45.68249,"longitude":5.16947},{"id":40701,"name":"Chamalières","latitude":45.77364,"longitude":3.06703},{"id":40713,"name":"Chambéry","latitude":45.56628,"longitude":5.92079},{"id":40714,"name":"Chambœuf","latitude":45.58333,"longitude":4.31667},{"id":40717,"name":"Chamonix-Mont-Blanc","latitude":45.92375,"longitude":6.86933},{"id":40718,"name":"Champ-sur-Drac","latitude":45.0694,"longitude":5.73151},{"id":40719,"name":"Champagnac","latitude":45.3566,"longitude":2.39942},{"id":40721,"name":"Champagne-au-Mont-d’Or","latitude":45.79475,"longitude":4.79079},{"id":40725,"name":"Champagnier","latitude":45.11155,"longitude":5.72716},{"id":40732,"name":"Champdieu","latitude":45.64533,"longitude":4.04705},{"id":40733,"name":"Champeix","latitude":45.58863,"longitude":3.12878},{"id":40738,"name":"Champier","latitude":45.4554,"longitude":5.29237},{"id":40749,"name":"Champs-sur-Tarentaine-Marchal","latitude":45.4,"longitude":2.56667},{"id":40756,"name":"Chanas","latitude":45.31881,"longitude":4.81849},{"id":40760,"name":"Chandon","latitude":46.14925,"longitude":4.21393},{"id":40765,"name":"Chanonat","latitude":45.69299,"longitude":3.09351},{"id":40766,"name":"Chanos-Curson","latitude":45.06057,"longitude":4.92381},{"id":40769,"name":"Chantelle","latitude":46.23806,"longitude":3.15318},{"id":40781,"name":"Chapareillan","latitude":45.46513,"longitude":5.99171},{"id":40782,"name":"Chapdes-Beaufort","latitude":45.89277,"longitude":2.86362},{"id":40784,"name":"Chaponnay","latitude":45.62762,"longitude":4.93615},{"id":40785,"name":"Chaponost","latitude":45.7102,"longitude":4.74221},{"id":40786,"name":"Chappes","latitude":45.86848,"longitude":3.22068},{"id":40788,"name":"Charantonnay","latitude":45.53705,"longitude":5.11005},{"id":40789,"name":"Charavines","latitude":45.42891,"longitude":5.51492},{"id":40790,"name":"Charbonnières-les-Bains","latitude":45.78053,"longitude":4.74637},{"id":40791,"name":"Charbonnières-les-Varennes","latitude":45.90786,"longitude":2.99976},{"id":40793,"name":"Charentay","latitude":46.08897,"longitude":4.67921},{"id":40803,"name":"Charlieu","latitude":46.16202,"longitude":4.17228},{"id":40804,"name":"Charly","latitude":45.64887,"longitude":4.79461},{"id":40808,"name":"Charmes-sur-Rhône","latitude":44.86367,"longitude":4.83533},{"id":40809,"name":"Charnay","latitude":45.89058,"longitude":4.66821},{"id":40813,"name":"Charnècles","latitude":45.34398,"longitude":5.52799},{"id":40822,"name":"Charvieu-Chavagneux","latitude":45.75,"longitude":5.15},{"id":40824,"name":"Chassagny","latitude":45.6067,"longitude":4.73214},{"id":40825,"name":"Chasse-sur-Rhône","latitude":45.5785,"longitude":4.80985},{"id":40826,"name":"Chasselay","latitude":45.8744,"longitude":4.77237},{"id":40829,"name":"Chassieu","latitude":45.74584,"longitude":4.97088},{"id":40938,"name":"Château-Gaillard","latitude":45.97239,"longitude":5.30436},{"id":40955,"name":"Châteaugay","latitude":45.85117,"longitude":3.08482},{"id":40959,"name":"Châteauneuf","latitude":45.52457,"longitude":4.64044},{"id":40962,"name":"Châteauneuf-de-Galaure","latitude":45.22977,"longitude":4.95777},{"id":40965,"name":"Châteauneuf-du-Rhône","latitude":44.48906,"longitude":4.71706},{"id":40973,"name":"Châteauneuf-sur-Isère","latitude":45.01667,"longitude":4.93333},{"id":40980,"name":"Châtel","latitude":46.26495,"longitude":6.8403},{"id":40981,"name":"Châtel-Guyon","latitude":45.92258,"longitude":3.06423},{"id":40991,"name":"Châtillon","latitude":45.80091,"longitude":5.84352},{"id":40995,"name":"Châtillon-en-Michaille","latitude":46.1432,"longitude":5.7995},{"id":40997,"name":"Châtillon-la-Palud","latitude":45.97171,"longitude":5.2529},{"id":40999,"name":"Châtillon-sur-Chalaronne","latitude":46.11834,"longitude":4.95656},{"id":41001,"name":"Châtillon-sur-Cluses","latitude":46.08765,"longitude":6.58041},{"id":41007,"name":"Châtonnay","latitude":45.48734,"longitude":5.21168},{"id":40832,"name":"Chatte","latitude":45.14248,"longitude":5.28224},{"id":40833,"name":"Chatuzange-le-Goubet","latitude":45.00359,"longitude":5.09079},{"id":40836,"name":"Chaudes-Aigues","latitude":44.85455,"longitude":3.00406},{"id":40851,"name":"Chauriat","latitude":45.75127,"longitude":3.27895},{"id":40857,"name":"Chavanay","latitude":45.41647,"longitude":4.72602},{"id":40858,"name":"Chavanod","latitude":45.89005,"longitude":6.03928},{"id":40859,"name":"Chavanoz","latitude":45.76846,"longitude":5.18808},{"id":40865,"name":"Chazelles-sur-Lyon","latitude":45.63779,"longitude":4.3889},{"id":40866,"name":"Chazey-sur-Ain","latitude":45.893,"longitude":5.25352},{"id":40876,"name":"Chens-sur-Léman","latitude":46.32459,"longitude":6.27075},{"id":40888,"name":"Chessy","latitude":45.88716,"longitude":4.62339},{"id":40903,"name":"Chevry","latitude":46.28136,"longitude":6.03873},{"id":40908,"name":"Chilly","latitude":45.99185,"longitude":5.95477},{"id":40910,"name":"Chimilin","latitude":45.5749,"longitude":5.59569},{"id":40911,"name":"Chindrieux","latitude":45.81948,"longitude":5.85024},{"id":40914,"name":"Chirens","latitude":45.41024,"longitude":5.55634},{"id":40920,"name":"Choisy","latitude":45.99359,"longitude":6.05866},{"id":40925,"name":"Chomérac","latitude":44.70752,"longitude":4.66164},{"id":40930,"name":"Chuzelles","latitude":45.58481,"longitude":4.87703},{"id":41030,"name":"Civens","latitude":45.77964,"longitude":4.2517},{"id":41033,"name":"Civrieux","latitude":45.92086,"longitude":4.88249},{"id":41038,"name":"Claix","latitude":45.11994,"longitude":5.67292},{"id":41073,"name":"Clérieux","latitude":45.07591,"longitude":4.95983},{"id":41049,"name":"Clermont-Ferrand","latitude":45.77969,"longitude":3.08682},{"id":41059,"name":"Clonas-sur-Varèze","latitude":45.41382,"longitude":4.79077},{"id":41064,"name":"Cluses","latitude":46.06251,"longitude":6.57497},{"id":41081,"name":"Cognin","latitude":45.55952,"longitude":5.89113},{"id":41082,"name":"Cogny","latitude":45.98747,"longitude":4.62475},{"id":41086,"name":"Coise","latitude":45.52822,"longitude":6.14389},{"id":41088,"name":"Coligny","latitude":46.38252,"longitude":5.34554},{"id":41093,"name":"Collonges","latitude":46.13819,"longitude":5.90506},{"id":41094,"name":"Collonges-sous-Salève","latitude":46.1416,"longitude":6.15372},{"id":41098,"name":"Colombe","latitude":45.40024,"longitude":5.45441},{"id":41109,"name":"Combloux","latitude":45.8979,"longitude":6.6442},{"id":41113,"name":"Combronde","latitude":45.98099,"longitude":3.08807},{"id":41117,"name":"Commelle","latitude":46.00086,"longitude":4.05794},{"id":41118,"name":"Commentry","latitude":46.28876,"longitude":2.74163},{"id":41122,"name":"Communay","latitude":45.60442,"longitude":4.83488},{"id":41130,"name":"Condat","latitude":45.34093,"longitude":2.75791},{"id":41134,"name":"Condrieu","latitude":45.463,"longitude":4.76765},{"id":41154,"name":"Contamine-sur-Arve","latitude":46.14223,"longitude":6.33215},{"id":41162,"name":"Corbas","latitude":45.66798,"longitude":4.90198},{"id":41166,"name":"Corbelin","latitude":45.60733,"longitude":5.54261},{"id":41175,"name":"Cordon","latitude":45.92099,"longitude":6.60536},{"id":41176,"name":"Corenc","latitude":45.21889,"longitude":5.76497},{"id":41186,"name":"Cornas","latitude":44.96382,"longitude":4.84839},{"id":41192,"name":"Cornier","latitude":46.09304,"longitude":6.29895},{"id":41213,"name":"Coublevie","latitude":45.35856,"longitude":5.61146},{"id":41214,"name":"Coubon","latitude":44.99731,"longitude":3.91783},{"id":41247,"name":"Courchevel","latitude":45.41538,"longitude":6.63643},{"id":41255,"name":"Cournon-d’Auvergne","latitude":45.74123,"longitude":3.19643},{"id":41259,"name":"Courpière","latitude":45.75689,"longitude":3.54216},{"id":41262,"name":"Cours-la-Ville","latitude":46.1,"longitude":4.31667},{"id":41273,"name":"Courzieu","latitude":45.7427,"longitude":4.57084},{"id":41282,"name":"Coutouvre","latitude":46.07303,"longitude":4.20535},{"id":41285,"name":"Coux","latitude":44.73484,"longitude":4.62057},{"id":41287,"name":"Couzon-au-Mont-d’Or","latitude":45.84436,"longitude":4.82883},{"id":41295,"name":"Cran-Gevrier","latitude":45.9,"longitude":6.1},{"id":41297,"name":"Cranves-Sales","latitude":46.18799,"longitude":6.29903},{"id":41299,"name":"Craponne","latitude":45.74526,"longitude":4.72322},{"id":41300,"name":"Craponne-sur-Arzon","latitude":45.33092,"longitude":3.84817},{"id":41347,"name":"Crémieu","latitude":45.72557,"longitude":5.24911},{"id":41309,"name":"Crest","latitude":44.72639,"longitude":5.01517},{"id":41313,"name":"Creuzier-le-Vieux","latitude":46.16253,"longitude":3.43311},{"id":41315,"name":"Creys-Mépieu","latitude":45.73333,"longitude":5.48333},{"id":41326,"name":"Crolles","latitude":45.27724,"longitude":5.87837},{"id":41330,"name":"Crottet","latitude":46.27602,"longitude":4.89388},{"id":41335,"name":"Cruas","latitude":44.65706,"longitude":4.76293},{"id":41336,"name":"Cruet","latitude":45.5289,"longitude":6.0922},{"id":41337,"name":"Cruseilles","latitude":46.0298,"longitude":6.10831},{"id":41355,"name":"Cublize","latitude":46.0181,"longitude":4.37738},{"id":41370,"name":"Cuisiat","latitude":46.30021,"longitude":5.38809},{"id":41371,"name":"Culhat","latitude":45.86259,"longitude":3.33676},{"id":41372,"name":"Culoz","latitude":45.84886,"longitude":5.78537},{"id":41374,"name":"Cunlhat","latitude":45.63198,"longitude":3.55927},{"id":41377,"name":"Curtin","latitude":45.64353,"longitude":5.48982},{"id":41380,"name":"Cussac-sur-Loire","latitude":44.98807,"longitude":3.88416},{"id":41381,"name":"Cusset","latitude":46.13452,"longitude":3.45639},{"id":41383,"name":"Cusy","latitude":45.76603,"longitude":6.02825},{"id":41387,"name":"Cuzieu","latitude":45.60764,"longitude":4.25761},{"id":41404,"name":"Dagneux","latitude":45.8514,"longitude":5.0778},{"id":41407,"name":"Dallet","latitude":45.77047,"longitude":3.23875},{"id":41432,"name":"Dardilly","latitude":45.80558,"longitude":4.75319},{"id":41442,"name":"Davézieux","latitude":45.2552,"longitude":4.70744},{"id":41600,"name":"Décines-Charpieu","latitude":45.76873,"longitude":4.95883},{"id":41452,"name":"Denicé","latitude":46.00158,"longitude":4.64555},{"id":41608,"name":"Département de l'Ain","latitude":46.16667,"longitude":5.33333},{"id":41610,"name":"Département de l'Allier","latitude":46.5,"longitude":3.0},{"id":41611,"name":"Département de l'Ardèche","latitude":44.66667,"longitude":4.33333},{"id":41620,"name":"Département de l'Isère","latitude":45.16667,"longitude":5.83333},{"id":41627,"name":"Département de la Drôme","latitude":44.69971,"longitude":5.16521},{"id":41630,"name":"Département de la Loire","latitude":45.47169,"longitude":4.43298},{"id":41643,"name":"Département du Puy-de-Dôme","latitude":45.70549,"longitude":3.146},{"id":41644,"name":"Département du Rhône","latitude":45.89126,"longitude":4.53039},{"id":41648,"name":"Désaignes","latitude":44.99466,"longitude":4.51695},{"id":41649,"name":"Désertines","latitude":46.35456,"longitude":2.61924},{"id":41466,"name":"Die","latitude":44.7536,"longitude":5.37033},{"id":41499,"name":"Diémoz","latitude":45.59099,"longitude":5.08884},{"id":41473,"name":"Dieulefit","latitude":44.52563,"longitude":5.0618},{"id":41485,"name":"Dingy-Saint-Clair","latitude":45.90664,"longitude":6.22554},{"id":41489,"name":"Diou","latitude":46.53432,"longitude":3.74453},{"id":41497,"name":"Divonne-les-Bains","latitude":46.3571,"longitude":6.13494},{"id":41506,"name":"Dolomieu","latitude":45.6054,"longitude":5.48571},{"id":41511,"name":"Domancy","latitude":45.91205,"longitude":6.65271},{"id":41512,"name":"Domarin","latitude":45.58662,"longitude":5.24599},{"id":41526,"name":"Domène","latitude":45.20289,"longitude":5.83335},{"id":41527,"name":"Domérat","latitude":46.36036,"longitude":2.53455},{"id":41515,"name":"Domessin","latitude":45.54739,"longitude":5.70495},{"id":41522,"name":"Dompierre-sur-Besbre","latitude":46.52214,"longitude":3.68106},{"id":41524,"name":"Dompierre-sur-Veyle","latitude":46.07108,"longitude":5.20232},{"id":41537,"name":"Donzère","latitude":44.44246,"longitude":4.71134},{"id":41543,"name":"Dortan","latitude":46.31973,"longitude":5.66028},{"id":41557,"name":"Doussard","latitude":45.77512,"longitude":6.22553},{"id":41558,"name":"Douvaine","latitude":46.30544,"longitude":6.30375},{"id":41563,"name":"Doyet","latitude":46.33558,"longitude":2.79718},{"id":41580,"name":"Drumettaz","latitude":45.66136,"longitude":5.92191},{"id":41591,"name":"Dunières","latitude":45.21558,"longitude":4.34471},{"id":41597,"name":"Durtol","latitude":45.79621,"longitude":3.05156},{"id":48036,"name":"Ébreuil","latitude":46.11548,"longitude":3.08677},{"id":48038,"name":"Échalas","latitude":45.55203,"longitude":4.71544},{"id":48039,"name":"Échenevex","latitude":46.30923,"longitude":6.03963},{"id":48042,"name":"Échirolles","latitude":45.14603,"longitude":5.71441},{"id":48056,"name":"Écully","latitude":45.77437,"longitude":4.77758},{"id":41675,"name":"Ennezat","latitude":45.89772,"longitude":3.22348},{"id":41682,"name":"Entre-Deux-Guiers","latitude":45.43061,"longitude":5.75209},{"id":41684,"name":"Enval","latitude":45.89921,"longitude":3.04981},{"id":48069,"name":"Épagny","latitude":45.93584,"longitude":6.08302},{"id":48082,"name":"Épinouze","latitude":45.31003,"longitude":4.92936},{"id":41713,"name":"Escoutoux","latitude":45.81942,"longitude":3.56336},{"id":41717,"name":"Espaly-Saint-Marcel","latitude":45.0479,"longitude":3.86557},{"id":41735,"name":"Estivareilles","latitude":46.42526,"longitude":2.61872},{"id":41736,"name":"Estrablin","latitude":45.51546,"longitude":4.96173},{"id":41740,"name":"Etaux","latitude":46.06835,"longitude":6.29533},{"id":48106,"name":"Étoile-sur-Rhône","latitude":44.83883,"longitude":4.8905},{"id":48109,"name":"Étrembières","latitude":46.17923,"longitude":6.22725},{"id":41744,"name":"Eurre","latitude":44.75825,"longitude":4.98843},{"id":48118,"name":"Évian-les-Bains","latitude":46.40111,"longitude":6.58793},{"id":48120,"name":"Évires","latitude":46.03783,"longitude":6.22453},{"id":41751,"name":"Eybens","latitude":45.14771,"longitude":5.75014},{"id":41759,"name":"Eyzin-Pinet","latitude":45.47377,"longitude":4.99845},{"id":41772,"name":"Fareins","latitude":46.01913,"longitude":4.76136},{"id":41775,"name":"Farnay","latitude":45.49622,"longitude":4.58311},{"id":41782,"name":"Faverges","latitude":45.75116,"longitude":6.29151},{"id":41783,"name":"Faverges-de-la-Tour","latitude":45.59068,"longitude":5.52136},{"id":41793,"name":"Feigères","latitude":46.11228,"longitude":6.07937},{"id":41794,"name":"Feillens","latitude":46.33426,"longitude":4.89146},{"id":42002,"name":"Félines","latitude":45.31668,"longitude":4.72836},{"id":41801,"name":"Ferney-Voltaire","latitude":46.25858,"longitude":6.11063},{"id":42008,"name":"Féternes","latitude":46.35582,"longitude":6.54829},{"id":41814,"name":"Feurs","latitude":45.73337,"longitude":4.22755},{"id":41816,"name":"Feyzin","latitude":45.67287,"longitude":4.85894},{"id":41820,"name":"Fillinges","latitude":46.15944,"longitude":6.34237},{"id":41824,"name":"Firminy","latitude":45.38956,"longitude":4.2886},{"id":41826,"name":"Fitilieu","latitude":45.54744,"longitude":5.56194},{"id":41830,"name":"Flaviac","latitude":44.74777,"longitude":4.67434},{"id":41842,"name":"Fleurie","latitude":46.19219,"longitude":4.69747},{"id":41843,"name":"Fleurieu-sur-Saône","latitude":45.86095,"longitude":4.84633},{"id":41866,"name":"Foissiat","latitude":46.3715,"longitude":5.17525},{"id":41876,"name":"Fontaine","latitude":45.19275,"longitude":5.68821},{"id":41889,"name":"Fontaines-Saint-Martin","latitude":45.8442,"longitude":4.85305},{"id":41890,"name":"Fontaines-sur-Saône","latitude":45.83572,"longitude":4.8449},{"id":41891,"name":"Fontanil-Cornillon","latitude":45.2528,"longitude":5.66308},{"id":41892,"name":"Fontannes","latitude":45.30149,"longitude":3.76366},{"id":41944,"name":"Fraisses","latitude":45.38838,"longitude":4.26373},{"id":41946,"name":"Francheleins","latitude":46.0744,"longitude":4.8092},{"id":41947,"name":"Francheville","latitude":45.73637,"longitude":4.76358},{"id":41950,"name":"Frangy","latitude":46.02,"longitude":5.9322},{"id":41952,"name":"Frans","latitude":45.99291,"longitude":4.7782},{"id":41967,"name":"Froges","latitude":45.27377,"longitude":5.92098},{"id":41974,"name":"Frontenex","latitude":45.63335,"longitude":6.31168},{"id":41977,"name":"Frontonas","latitude":45.64487,"longitude":5.19701},{"id":42016,"name":"Gaillard","latitude":46.1853,"longitude":6.20693},{"id":42030,"name":"Gannat","latitude":46.09987,"longitude":3.19842},{"id":42059,"name":"Gelles","latitude":45.76947,"longitude":2.76309},{"id":42061,"name":"Genas","latitude":45.73131,"longitude":5.00211},{"id":42062,"name":"Genay","latitude":45.89681,"longitude":4.84091},{"id":42297,"name":"Génissieux","latitude":45.08413,"longitude":5.08133},{"id":42077,"name":"Gerzat","latitude":45.82581,"longitude":3.14473},{"id":42083,"name":"Gex","latitude":46.33323,"longitude":6.05766},{"id":42111,"name":"Gières","latitude":45.17997,"longitude":5.78935},{"id":42095,"name":"Gillonnay","latitude":45.39251,"longitude":5.29413},{"id":42096,"name":"Gilly-sur-Isère","latitude":45.65917,"longitude":6.35096},{"id":42108,"name":"Givors","latitude":45.59063,"longitude":4.76878},{"id":42113,"name":"Gleizé","latitude":45.98916,"longitude":4.69708},{"id":42123,"name":"Goncelin","latitude":45.34428,"longitude":5.97896},{"id":42179,"name":"Grandris","latitude":46.0378,"longitude":4.47526},{"id":42182,"name":"Grane","latitude":44.73255,"longitude":4.92203},{"id":42197,"name":"Grenay","latitude":45.66347,"longitude":5.08031},{"id":42200,"name":"Grenoble","latitude":45.17869,"longitude":5.71479},{"id":42235,"name":"Grésy-sur-Aix","latitude":45.72311,"longitude":5.92522},{"id":42236,"name":"Grésy-sur-Isère","latitude":45.59898,"longitude":6.25358},{"id":42237,"name":"Grézieu-la-Varenne","latitude":45.74736,"longitude":4.69037},{"id":42217,"name":"Grièges","latitude":46.25619,"longitude":4.84856},{"id":42208,"name":"Grignan","latitude":44.41967,"longitude":4.90785},{"id":42210,"name":"Grignon","latitude":45.65122,"longitude":6.37795},{"id":42211,"name":"Grigny","latitude":45.60843,"longitude":4.78976},{"id":42219,"name":"Groissiat","latitude":46.22213,"longitude":5.60775},{"id":42220,"name":"Groisy","latitude":46.01008,"longitude":6.16983},{"id":42229,"name":"Gruffy","latitude":45.78897,"longitude":6.05648},{"id":42286,"name":"Guéreins","latitude":46.10346,"longitude":4.77275},{"id":42259,"name":"Guilherand-Granges","latitude":44.93278,"longitude":4.87372},{"id":42343,"name":"Haute-Loire","latitude":45.11001,"longitude":3.8394},{"id":42345,"name":"Haute-Rivoire","latitude":45.71559,"longitude":4.39633},{"id":42346,"name":"Haute-Savoie","latitude":46.06143,"longitude":6.45374},{"id":42349,"name":"Hauterive","latitude":46.08834,"longitude":3.44626},{"id":42350,"name":"Hauterives","latitude":45.25565,"longitude":5.01904},{"id":42352,"name":"Hauteville-Lompnes","latitude":45.97794,"longitude":5.60114},{"id":42372,"name":"Herbeys","latitude":45.14012,"longitude":5.79289},{"id":42393,"name":"Heyrieux","latitude":45.63186,"longitude":5.06284},{"id":42405,"name":"Hières-sur-Amby","latitude":45.79654,"longitude":5.29333},{"id":42436,"name":"Huez","latitude":45.0824,"longitude":6.05878},{"id":42443,"name":"Huriel","latitude":46.37299,"longitude":2.47679},{"id":42493,"name":"Irigny","latitude":45.67313,"longitude":4.82243},{"id":42505,"name":"Issoire","latitude":45.54422,"longitude":3.24901},{"id":42519,"name":"Izeaux","latitude":45.33473,"longitude":5.42486},{"id":42520,"name":"Izernore","latitude":46.21352,"longitude":5.552},{"id":42522,"name":"Jacob-Bellecombette","latitude":45.55763,"longitude":5.91484},{"id":42525,"name":"Janneyrias","latitude":45.75221,"longitude":5.11277},{"id":42531,"name":"Jardin","latitude":45.49638,"longitude":4.90847},{"id":42535,"name":"Jarrie","latitude":45.11732,"longitude":5.75957},{"id":42538,"name":"Jassans-Riottier","latitude":45.98134,"longitude":4.7614},{"id":42539,"name":"Jasseron","latitude":46.21316,"longitude":5.32579},{"id":42540,"name":"Jaujac","latitude":44.63695,"longitude":4.25638},{"id":42551,"name":"Job","latitude":45.61607,"longitude":3.74542},{"id":42555,"name":"Jonage","latitude":45.79638,"longitude":5.04664},{"id":42561,"name":"Jons","latitude":45.80823,"longitude":5.0807},{"id":42563,"name":"Jonzieux","latitude":45.31355,"longitude":4.36158},{"id":42580,"name":"Joyeuse","latitude":44.47951,"longitude":4.23778},{"id":42588,"name":"Jujurieux","latitude":46.04122,"longitude":5.40855},{"id":42595,"name":"Jussac","latitude":44.98764,"longitude":2.42308},{"id":43709,"name":"L’Étrat","latitude":45.4861,"longitude":4.37586},{"id":43705,"name":"L’Isle-d’Abeau","latitude":45.6196,"longitude":5.22466},{"id":42631,"name":"La Balme-de-Sillingy","latitude":45.9689,"longitude":6.04187},{"id":42658,"name":"La Bâthie","latitude":45.62829,"longitude":6.449},{"id":42659,"name":"La Bâtie-Montgascon","latitude":45.57745,"longitude":5.52873},{"id":42661,"name":"La Bégude-de-Mazenc","latitude":44.54298,"longitude":4.93403},{"id":42642,"name":"La Biolle","latitude":45.75846,"longitude":5.92866},{"id":42645,"name":"La Boisse","latitude":45.84278,"longitude":5.03639},{"id":42650,"name":"La Bourboule","latitude":45.58829,"longitude":2.7392},{"id":42654,"name":"La Bridoire","latitude":45.52504,"longitude":5.74073},{"id":42657,"name":"La Buisse","latitude":45.34644,"longitude":5.61435},{"id":42676,"name":"La Chambre","latitude":45.35862,"longitude":6.29978},{"id":42692,"name":"La Chapelle-de-la-Tour","latitude":45.58484,"longitude":5.4636},{"id":42710,"name":"La Clusaz","latitude":45.90675,"longitude":6.43445},{"id":42726,"name":"La Côte-Saint-André","latitude":45.39447,"longitude":5.25908},{"id":42754,"name":"La Fouillouse","latitude":45.50462,"longitude":4.31524},{"id":42762,"name":"La Garde-Adhémar","latitude":44.39699,"longitude":4.75759},{"id":42771,"name":"La Grand-Croix","latitude":45.50383,"longitude":4.55915},{"id":42808,"name":"La Monnerie-le-Montel","latitude":45.87106,"longitude":3.6011},{"id":42817,"name":"La Motte-d’Aveillans","latitude":44.96015,"longitude":5.74409},{"id":42815,"name":"La Motte-Saint-Martin","latitude":44.95131,"longitude":5.71814},{"id":42816,"name":"La Motte-Servolex","latitude":45.59702,"longitude":5.86724},{"id":42818,"name":"La Mulatière","latitude":45.72818,"longitude":4.81213},{"id":42819,"name":"La Mure","latitude":44.90145,"longitude":5.78874},{"id":42820,"name":"La Murette","latitude":45.37891,"longitude":5.542},{"id":42825,"name":"La Pacaudière","latitude":46.17879,"longitude":3.86252},{"id":42841,"name":"La Ravoire","latitude":45.56266,"longitude":5.95826},{"id":42845,"name":"La Ricamarie","latitude":45.40536,"longitude":4.36944},{"id":42850,"name":"La Roche-Blanche","latitude":45.70062,"longitude":3.12629},{"id":42856,"name":"La Roche-de-Glun","latitude":45.01336,"longitude":4.84488},{"id":42858,"name":"La Roche-sur-Foron","latitude":46.07111,"longitude":6.3045},{"id":42862,"name":"La Rochette","latitude":45.45758,"longitude":6.11356},{"id":42881,"name":"La Séauve-sur-Semène","latitude":45.29554,"longitude":4.25023},{"id":42883,"name":"La Talaudière","latitude":45.47603,"longitude":4.42607},{"id":42885,"name":"La Terrasse","latitude":45.32052,"longitude":5.92761},{"id":42889,"name":"La Tour","latitude":46.13312,"longitude":6.43109},{"id":42890,"name":"La Tour-de-Salvagny","latitude":45.81374,"longitude":4.7167},{"id":42892,"name":"La Tour-du-Pin","latitude":45.566,"longitude":5.44487},{"id":42893,"name":"La Tour-en-Jarez","latitude":45.48347,"longitude":4.39064},{"id":42900,"name":"La Tronche","latitude":45.20507,"longitude":5.74629},{"id":42908,"name":"La Verpillière","latitude":45.63417,"longitude":5.1456},{"id":42918,"name":"La Voulte-sur-Rhône","latitude":44.79958,"longitude":4.77925},{"id":42940,"name":"Labégude","latitude":44.64496,"longitude":4.36939},{"id":42933,"name":"Lablachère","latitude":44.46355,"longitude":4.21439},{"id":42946,"name":"Lachapelle-sous-Aubenas","latitude":44.56421,"longitude":4.36393},{"id":42957,"name":"Lagnieu","latitude":45.90237,"longitude":5.34399},{"id":42972,"name":"Laiz","latitude":46.25054,"longitude":4.88955},{"id":42974,"name":"Lalevade-d’Ardèche","latitude":44.6478,"longitude":4.32303},{"id":42984,"name":"Lamastre","latitude":44.98672,"longitude":4.57975},{"id":42996,"name":"Lamure-sur-Azergues","latitude":46.06255,"longitude":4.49195},{"id":42998,"name":"Lancrans","latitude":46.12729,"longitude":5.83277},{"id":43021,"name":"Langeac","latitude":45.10028,"longitude":3.4942},{"id":43039,"name":"Lanobre","latitude":45.43889,"longitude":2.53443},{"id":43045,"name":"Lans-en-Vercors","latitude":45.12852,"longitude":5.58599},{"id":43051,"name":"Lantriac","latitude":45.0005,"longitude":4.00444},{"id":43058,"name":"Lapalisse","latitude":46.24835,"longitude":3.63605},{"id":43063,"name":"Lapte","latitude":45.18593,"longitude":4.21699},{"id":43066,"name":"Larajasse","latitude":45.61399,"longitude":4.50113},{"id":43070,"name":"Larequille","latitude":46.25189,"longitude":2.70163},{"id":43071,"name":"Largentière","latitude":44.54272,"longitude":4.29342},{"id":43078,"name":"Laroquebrou","latitude":44.96855,"longitude":2.19158},{"id":43080,"name":"Larringes","latitude":46.36919,"longitude":6.57125},{"id":43100,"name":"Laussonne","latitude":44.9699,"longitude":4.05204},{"id":43112,"name":"Lavault-Sainte-Anne","latitude":46.30999,"longitude":2.60027},{"id":43117,"name":"Lavilledieu","latitude":44.57545,"longitude":4.45314},{"id":43133,"name":"Le Bois-d'Oingt","latitude":45.91718,"longitude":4.58259},{"id":43137,"name":"Le Bourg-d’Oisans","latitude":45.05483,"longitude":6.03366},{"id":43139,"name":"Le Bourget-du-Lac","latitude":45.65362,"longitude":5.8549},{"id":43145,"name":"Le Breuil-sur-Couze","latitude":45.4686,"longitude":3.2631},{"id":43159,"name":"Le Cendre","latitude":45.7224,"longitude":3.18711},{"id":43160,"name":"Le Chambon-Feugerolles","latitude":45.39145,"longitude":4.32149},{"id":43161,"name":"Le Chambon-sur-Lignon","latitude":45.06097,"longitude":4.30241},{"id":43163,"name":"Le Champ-près-Froges","latitude":45.28045,"longitude":5.93977},{"id":43166,"name":"Le Cheylard","latitude":44.90623,"longitude":4.42406},{"id":43167,"name":"Le Cheylas","latitude":45.37064,"longitude":5.99277},{"id":43171,"name":"Le Coteau","latitude":46.01919,"longitude":4.0923},{"id":43174,"name":"Le Crest","latitude":45.68666,"longitude":3.12735},{"id":43179,"name":"Le Donjon","latitude":46.35058,"longitude":3.79269},{"id":43194,"name":"Le Grand-Bornand","latitude":45.94211,"longitude":6.43077},{"id":43196,"name":"Le Grand-Lemps","latitude":45.39646,"longitude":5.4201},{"id":43202,"name":"Le Gua","latitude":45.01667,"longitude":5.61667},{"id":43224,"name":"Le Mayet-de-Montagne","latitude":46.07091,"longitude":3.66665},{"id":43235,"name":"Le Monastier-sur-Gazeille","latitude":44.93333,"longitude":4.0},{"id":43288,"name":"Le Péage-de-Roussillon","latitude":45.3738,"longitude":4.79727},{"id":43252,"name":"Le Perréon","latitude":46.06316,"longitude":4.60045},{"id":43258,"name":"Le Pin","latitude":45.45582,"longitude":5.50497},{"id":43273,"name":"Le Pont-de-Beauvoisin","latitude":45.53694,"longitude":5.67333},{"id":43274,"name":"Le Pont-de-Claix","latitude":45.12321,"longitude":5.69782},{"id":43282,"name":"Le Pouzin","latitude":44.75173,"longitude":4.74798},{"id":43287,"name":"Le Puy-en-Velay","latitude":45.04366,"longitude":3.88523},{"id":43299,"name":"Le Sappey-en-Chartreuse","latitude":45.26235,"longitude":5.77476},{"id":43307,"name":"Le Teil","latitude":44.54531,"longitude":4.68223},{"id":43322,"name":"Le Touvet","latitude":45.35909,"longitude":5.95283},{"id":43331,"name":"Le Versoud","latitude":45.21988,"longitude":5.86502},{"id":43348,"name":"Lempdes-sur-Allagnon","latitude":45.38333,"longitude":3.28333},{"id":43351,"name":"Lent","latitude":46.12027,"longitude":5.19352},{"id":43352,"name":"Lentigny","latitude":45.99391,"longitude":3.97918},{"id":43353,"name":"Lentilly","latitude":45.81873,"longitude":4.66304},{"id":43355,"name":"Les Abrets","latitude":45.54466,"longitude":5.58021},{"id":43359,"name":"Les Allues","latitude":45.43255,"longitude":6.55558},{"id":43361,"name":"Les Ancizes","latitude":45.92524,"longitude":2.81265},{"id":43369,"name":"Les Avenières","latitude":45.63632,"longitude":5.56144},{"id":43377,"name":"Les Chères","latitude":45.8896,"longitude":4.74261},{"id":43380,"name":"Les Contamines-Montjoie","latitude":45.82164,"longitude":6.72865},{"id":43382,"name":"Les Côtes-d'Arey","latitude":45.4564,"longitude":4.8666},{"id":43383,"name":"Les Deux Alpes","latitude":45.0116,"longitude":6.12548},{"id":43434,"name":"Les Échelles","latitude":45.44058,"longitude":5.74866},{"id":43390,"name":"Les Gets","latitude":46.15522,"longitude":6.66492},{"id":43396,"name":"Les Houches","latitude":45.89267,"longitude":6.80637},{"id":43405,"name":"Les Marches","latitude":45.50042,"longitude":6.00381},{"id":43406,"name":"Les Martres-d'Artière","latitude":45.83333,"longitude":3.26667},{"id":43424,"name":"Les Roches-de-Condrieu","latitude":45.45281,"longitude":4.76718},{"id":43433,"name":"Les Vans","latitude":44.40522,"longitude":4.13198},{"id":43458,"name":"Leyment","latitude":45.9239,"longitude":5.29241},{"id":43700,"name":"Lézigneux","latitude":45.56589,"longitude":4.06542},{"id":43461,"name":"Lezoux","latitude":45.82689,"longitude":3.37924},{"id":43467,"name":"Liergues","latitude":45.97138,"longitude":4.66231},{"id":43488,"name":"Limas","latitude":45.97558,"longitude":4.7055},{"id":43494,"name":"Limonest","latitude":45.83702,"longitude":4.77188},{"id":43511,"name":"Lissieu","latitude":45.86487,"longitude":4.74221},{"id":43517,"name":"Livet-et-Gavet","latitude":45.10782,"longitude":5.93333},{"id":43519,"name":"Livron-sur-Drôme","latitude":44.77689,"longitude":4.8418},{"id":43541,"name":"Loire-sur-Rhône","latitude":45.55,"longitude":4.8},{"id":43544,"name":"Loisin","latitude":46.29227,"longitude":6.3101},{"id":43584,"name":"Lorette","latitude":45.51105,"longitude":4.58242},{"id":43589,"name":"Loriol-sur-Drôme","latitude":44.74703,"longitude":4.81719},{"id":43622,"name":"Lovagny","latitude":45.90377,"longitude":6.03281},{"id":43624,"name":"Loyettes","latitude":45.77663,"longitude":5.20687},{"id":43625,"name":"Lozanne","latitude":45.85733,"longitude":4.6807},{"id":43633,"name":"Lucenay","latitude":45.91274,"longitude":4.70287},{"id":43636,"name":"Lucinges","latitude":46.19181,"longitude":6.31511},{"id":43643,"name":"Lugrin","latitude":46.40208,"longitude":6.65283},{"id":43646,"name":"Lumbin","latitude":45.30954,"longitude":5.91505},{"id":43658,"name":"Lurcy-Lévis","latitude":46.72981,"longitude":2.93829},{"id":43662,"name":"Lusigny","latitude":46.58776,"longitude":3.49142},{"id":43673,"name":"Luzinay","latitude":45.58996,"longitude":4.95891},{"id":43677,"name":"Lyaud","latitude":46.33972,"longitude":6.52595},{"id":43678,"name":"Lyon","latitude":45.74846,"longitude":4.84671},{"id":43710,"name":"Mably","latitude":46.06484,"longitude":4.06014},{"id":43715,"name":"Maclas","latitude":45.36289,"longitude":4.682},{"id":44452,"name":"Mâcot-la-Plagne","latitude":45.55,"longitude":6.66667},{"id":43720,"name":"Magland","latitude":46.02064,"longitude":6.62089},{"id":43750,"name":"Malataverne","latitude":44.48525,"longitude":4.75326},{"id":43761,"name":"Malintrat","latitude":45.81509,"longitude":3.18603},{"id":43762,"name":"Malissard","latitude":44.89969,"longitude":4.95384},{"id":43787,"name":"Manzat","latitude":45.9616,"longitude":2.9414},{"id":43788,"name":"Manziat","latitude":46.36125,"longitude":4.9058},{"id":43795,"name":"Marboz","latitude":46.3429,"longitude":5.25722},{"id":43797,"name":"Marcellaz-Albanais","latitude":45.87546,"longitude":5.9988},{"id":43806,"name":"Marcilly-le-Châtel","latitude":45.6959,"longitude":4.03082},{"id":43822,"name":"Marennes","latitude":45.62089,"longitude":4.91236},{"id":43833,"name":"Margencel","latitude":46.3414,"longitude":6.41416},{"id":43839,"name":"Marignier","latitude":46.09014,"longitude":6.50004},{"id":43845,"name":"Marin","latitude":46.37941,"longitude":6.52559},{"id":43847,"name":"Maringues","latitude":45.92164,"longitude":3.33029},{"id":43852,"name":"Marlhes","latitude":45.28307,"longitude":4.39616},{"id":43862,"name":"Marnaz","latitude":46.06356,"longitude":6.52653},{"id":43877,"name":"Marsac-en-Livradois","latitude":45.47886,"longitude":3.72783},{"id":43880,"name":"Marsanne","latitude":44.64204,"longitude":4.87529},{"id":43881,"name":"Marsat","latitude":45.87645,"longitude":3.08173},{"id":43910,"name":"Marthod","latitude":45.72714,"longitude":6.40299},{"id":43912,"name":"Martignat","latitude":46.20972,"longitude":5.61049},{"id":43933,"name":"Massiac","latitude":45.25146,"longitude":3.19735},{"id":43934,"name":"Massieux","latitude":45.90984,"longitude":4.83265},{"id":43935,"name":"Massongy","latitude":46.31807,"longitude":6.33148},{"id":43944,"name":"Maubec","latitude":45.56739,"longitude":5.26371},{"id":43956,"name":"Mauriac","latitude":45.21899,"longitude":2.33353},{"id":43958,"name":"Maurs","latitude":44.71065,"longitude":2.19797},{"id":43960,"name":"Mauves","latitude":45.03833,"longitude":4.82934},{"id":43966,"name":"Maxilly-sur-Léman","latitude":46.39828,"longitude":6.63113},{"id":43974,"name":"Mazet-Saint-Voy","latitude":45.04696,"longitude":4.24414},{"id":44454,"name":"Méaudre","latitude":45.1302,"longitude":5.52853},{"id":43984,"name":"Megève","latitude":45.85687,"longitude":6.61775},{"id":43989,"name":"Meillonnas","latitude":46.24367,"longitude":5.35019},{"id":44467,"name":"Ménétrol","latitude":45.87155,"longitude":3.12422},{"id":44004,"name":"Mens","latitude":44.81557,"longitude":5.75146},{"id":44006,"name":"Menthon-Saint-Bernard","latitude":45.85995,"longitude":6.19552},{"id":44011,"name":"Mercurol-Veaunes","latitude":45.07437,"longitude":4.89279},{"id":44012,"name":"Mercury","latitude":45.67452,"longitude":6.33688},{"id":44470,"name":"Méribel","latitude":45.41497,"longitude":6.565},{"id":44477,"name":"Méry","latitude":45.64139,"longitude":5.9355},{"id":44035,"name":"Messeix","latitude":45.61702,"longitude":2.54157},{"id":44036,"name":"Messery","latitude":46.35036,"longitude":6.29099},{"id":44038,"name":"Messimy","latitude":45.69816,"longitude":4.67429},{"id":44040,"name":"Metz","latitude":45.93343,"longitude":6.10973},{"id":44053,"name":"Meximieux","latitude":45.90823,"longitude":5.1992},{"id":44056,"name":"Meylan","latitude":45.20978,"longitude":5.77762},{"id":44063,"name":"Meysse","latitude":44.61028,"longitude":4.72306},{"id":44064,"name":"Meythet","latitude":45.91836,"longitude":6.09422},{"id":44065,"name":"Meyzieu","latitude":45.76637,"longitude":5.00277},{"id":44066,"name":"Mezel","latitude":45.75508,"longitude":3.24225},{"id":44492,"name":"Mézériat","latitude":46.23701,"longitude":5.04615},{"id":44067,"name":"Mieussy","latitude":46.13369,"longitude":6.52416},{"id":44075,"name":"Millery","latitude":45.63232,"longitude":4.78207},{"id":44083,"name":"Mionnay","latitude":45.89824,"longitude":4.92808},{"id":44084,"name":"Mions","latitude":45.66302,"longitude":4.95292},{"id":44086,"name":"Mirabel-aux-Baronnies","latitude":44.31002,"longitude":5.09962},{"id":44095,"name":"Mirefleurs","latitude":45.69319,"longitude":3.2237},{"id":44100,"name":"Miribel","latitude":45.8258,"longitude":4.9544},{"id":44101,"name":"Miribel-les-Échelles","latitude":45.43155,"longitude":5.7081},{"id":44105,"name":"Misérieux","latitude":45.97433,"longitude":4.8134},{"id":44109,"name":"Modane","latitude":45.20032,"longitude":6.66871},{"id":44111,"name":"Moidieu","latitude":45.5168,"longitude":5.00749},{"id":44113,"name":"Moirans","latitude":45.3314,"longitude":5.55432},{"id":44122,"name":"Molinet","latitude":46.46576,"longitude":3.93589},{"id":44143,"name":"Monistrol-sur-Loire","latitude":45.29263,"longitude":4.17233},{"id":44145,"name":"Monnetier-Mornex","latitude":46.1603,"longitude":6.20667},{"id":44160,"name":"Mont-de-Lans","latitude":45.03626,"longitude":6.13141},{"id":44155,"name":"Mont-Dore","latitude":45.57641,"longitude":2.80889},{"id":44159,"name":"Mont-Saxonnex","latitude":46.0508,"longitude":6.47429},{"id":44166,"name":"Montagnat","latitude":46.16761,"longitude":5.28791},{"id":44168,"name":"Montagny","latitude":45.62801,"longitude":4.74778},{"id":44171,"name":"Montaigut","latitude":45.61499,"longitude":3.44896},{"id":44173,"name":"Montalieu","latitude":45.81245,"longitude":5.40221},{"id":44175,"name":"Montanay","latitude":45.87908,"longitude":4.86308},{"id":44199,"name":"Montbonnot-Saint-Martin","latitude":45.22537,"longitude":5.8017},{"id":44200,"name":"Montboucher-sur-Jabron","latitude":44.5505,"longitude":4.802},{"id":44201,"name":"Montbrison","latitude":45.60752,"longitude":4.06525},{"id":44334,"name":"Montéléger","latitude":44.85296,"longitude":4.93598},{"id":44332,"name":"Montélier","latitude":44.93441,"longitude":5.03126},{"id":44333,"name":"Montélimar","latitude":44.55468,"longitude":4.75469},{"id":44233,"name":"Montfaucon-en-Velay","latitude":45.18561,"longitude":4.31376},{"id":44237,"name":"Montferrat","latitude":45.48481,"longitude":5.5902},{"id":44277,"name":"Montluçon","latitude":46.34015,"longitude":2.60254},{"id":44276,"name":"Montluel","latitude":45.8519,"longitude":5.0578},{"id":44281,"name":"Montmarault","latitude":46.31738,"longitude":2.95472},{"id":44291,"name":"Montmélian","latitude":45.50509,"longitude":6.05634},{"id":44283,"name":"Montmerle-sur-Saône","latitude":46.08333,"longitude":4.76667},{"id":44284,"name":"Montmeyran","latitude":44.83389,"longitude":4.97181},{"id":44295,"name":"Montoison","latitude":44.79608,"longitude":4.94118},{"id":44325,"name":"Montréal-la-Cluse","latitude":46.18333,"longitude":5.58333},{"id":44316,"name":"Montrevel-en-Bresse","latitude":46.33527,"longitude":5.12269},{"id":44320,"name":"Montrond-les-Bains","latitude":45.64374,"longitude":4.23752},{"id":44321,"name":"Montrottier","latitude":45.7901,"longitude":4.4666},{"id":44329,"name":"Montségur-sur-Lauzon","latitude":44.36098,"longitude":4.85468},{"id":44340,"name":"Morancé","latitude":45.89815,"longitude":4.70051},{"id":44348,"name":"Morestel","latitude":45.679,"longitude":5.46479},{"id":44361,"name":"Mornant","latitude":45.61885,"longitude":4.67231},{"id":44377,"name":"Morzine","latitude":46.18149,"longitude":6.70664},{"id":44394,"name":"Moulins","latitude":46.56459,"longitude":3.33243},{"id":44405,"name":"Mours-Saint-Eusèbe","latitude":45.06513,"longitude":5.05776},{"id":44428,"name":"Moûtiers","latitude":45.48459,"longitude":6.53146},{"id":44415,"name":"Mouxy","latitude":45.68399,"longitude":5.93538},{"id":44421,"name":"Moye","latitude":45.87566,"longitude":5.91289},{"id":44425,"name":"Mozac","latitude":45.89393,"longitude":3.09512},{"id":44439,"name":"Murat","latitude":45.11011,"longitude":2.86859},{"id":44512,"name":"Nantua","latitude":46.15343,"longitude":5.60601},{"id":44519,"name":"Naucelles","latitude":44.95898,"longitude":2.41884},{"id":44695,"name":"Néris-les-Bains","latitude":46.28688,"longitude":2.65869},{"id":44549,"name":"Neuilly-le-Réal","latitude":46.46413,"longitude":3.43197},{"id":44555,"name":"Neulise","latitude":45.89811,"longitude":4.18134},{"id":44558,"name":"Neussargues","latitude":45.12826,"longitude":2.97627},{"id":44559,"name":"Neuvecelle","latitude":46.39502,"longitude":6.61257},{"id":44581,"name":"Neuvéglise","latitude":44.92809,"longitude":2.98328},{"id":44568,"name":"Neuville-les-Dames","latitude":46.1623,"longitude":5.00667},{"id":44569,"name":"Neuville-sur-Ain","latitude":46.07144,"longitude":5.37491},{"id":44573,"name":"Neuville-sur-Saône","latitude":45.87615,"longitude":4.84099},{"id":44574,"name":"Neuvy","latitude":46.56191,"longitude":3.29038},{"id":44586,"name":"Neydens","latitude":46.12162,"longitude":6.10436},{"id":44605,"name":"Niévroz","latitude":45.82576,"longitude":5.06108},{"id":44604,"name":"Nivolas-Vermelle","latitude":45.55885,"longitude":5.30578},{"id":44620,"name":"Nohanent","latitude":45.80815,"longitude":3.05507},{"id":44625,"name":"Noirétable","latitude":45.81671,"longitude":3.76247},{"id":44653,"name":"Notre-Dame-de-Mésage","latitude":45.06241,"longitude":5.7588},{"id":44665,"name":"Novalaise","latitude":45.5948,"longitude":5.77767},{"id":44674,"name":"Noyarey","latitude":45.24421,"longitude":5.63366},{"id":44690,"name":"Nyons","latitude":44.36082,"longitude":5.14052},{"id":44756,"name":"Orcet","latitude":45.70355,"longitude":3.16884},{"id":44760,"name":"Orcines","latitude":45.78246,"longitude":3.01234},{"id":44775,"name":"Orléat","latitude":45.86059,"longitude":3.42083},{"id":44772,"name":"Orliénas","latitude":45.65886,"longitude":4.71832},{"id":44781,"name":"Ornex","latitude":46.2727,"longitude":6.09982},{"id":44801,"name":"Ouches","latitude":46.01582,"longitude":3.98828},{"id":44807,"name":"Oullins","latitude":45.71404,"longitude":4.80755},{"id":44819,"name":"Oyonnax","latitude":46.25917,"longitude":5.65727},{"id":44820,"name":"Oytier-Saint-Oblas","latitude":45.55757,"longitude":5.03083},{"id":44842,"name":"Panissières","latitude":45.79185,"longitude":4.34163},{"id":44863,"name":"Paslières","latitude":45.92889,"longitude":3.49736},{"id":44865,"name":"Passy","latitude":45.92341,"longitude":6.69562},{"id":44870,"name":"Paulhaguet","latitude":45.20795,"longitude":3.51331},{"id":44878,"name":"Peaugres","latitude":45.28651,"longitude":4.72845},{"id":44884,"name":"Peillonnex","latitude":46.12861,"longitude":6.37715},{"id":45347,"name":"Pélussin","latitude":45.41951,"longitude":4.68365},{"id":45354,"name":"Pérignat-lès-Sarliève","latitude":45.73657,"longitude":3.1396},{"id":45355,"name":"Pérignat-sur-Allier","latitude":45.72843,"longitude":3.23184},{"id":45356,"name":"Périgneux","latitude":45.44077,"longitude":4.15569},{"id":45361,"name":"Péron","latitude":46.19053,"longitude":5.92524},{"id":45362,"name":"Péronnas","latitude":46.18338,"longitude":5.21052},{"id":45364,"name":"Pérouges","latitude":45.9044,"longitude":5.17695},{"id":44901,"name":"Perreux","latitude":46.04004,"longitude":4.12663},{"id":44903,"name":"Perrignier","latitude":46.30558,"longitude":6.43928},{"id":44908,"name":"Pers-Jussy","latitude":46.10594,"longitude":6.26955},{"id":44912,"name":"Peschadoires","latitude":45.82622,"longitude":3.49255},{"id":44933,"name":"Peyrins","latitude":45.09331,"longitude":5.04513},{"id":44950,"name":"Pierre-Bénite","latitude":45.70359,"longitude":4.82424},{"id":44951,"name":"Pierre-Châtel","latitude":44.95735,"longitude":5.77454},{"id":44958,"name":"Pierrefort","latitude":44.92175,"longitude":2.83811},{"id":44959,"name":"Pierrelatte","latitude":44.37549,"longitude":4.70314},{"id":44975,"name":"Pionsat","latitude":46.10963,"longitude":2.69319},{"id":45004,"name":"Plauzat","latitude":45.62157,"longitude":3.14896},{"id":45005,"name":"Pleaux","latitude":45.13479,"longitude":2.22652},{"id":45135,"name":"Poisat","latitude":45.15852,"longitude":5.76051},{"id":45137,"name":"Poisy","latitude":45.92142,"longitude":6.06356},{"id":45141,"name":"Polignac","latitude":45.0709,"longitude":3.86031},{"id":45144,"name":"Polliat","latitude":46.24849,"longitude":5.12658},{"id":45145,"name":"Pollionnay","latitude":45.76459,"longitude":4.66112},{"id":45146,"name":"Polminhac","latitude":44.95177,"longitude":2.57751},{"id":45152,"name":"Pommiers","latitude":45.9554,"longitude":4.69251},{"id":45161,"name":"Poncin","latitude":46.08531,"longitude":5.4112},{"id":45187,"name":"Pont-d’Ain","latitude":46.05583,"longitude":5.33974},{"id":45178,"name":"Pont-de-Chéruy","latitude":45.75344,"longitude":5.17245},{"id":45183,"name":"Pont-de-Vaux","latitude":46.43326,"longitude":4.94473},{"id":45184,"name":"Pont-de-Veyle","latitude":46.26166,"longitude":4.88612},{"id":45186,"name":"Pont-du-Château","latitude":45.7983,"longitude":3.24839},{"id":45188,"name":"Pont-en-Royans","latitude":45.0625,"longitude":5.34094},{"id":45195,"name":"Pont-Évêque","latitude":45.53217,"longitude":4.90922},{"id":45175,"name":"Pont-Salomon","latitude":45.33777,"longitude":4.24781},{"id":45204,"name":"Pontcharra","latitude":45.43588,"longitude":6.01782},{"id":45205,"name":"Pontcharra-sur-Turdine","latitude":45.87413,"longitude":4.48989},{"id":45221,"name":"Porcieu","latitude":45.83416,"longitude":5.40168},{"id":45240,"name":"Portes-lès-Valence","latitude":44.87585,"longitude":4.87415},{"id":45255,"name":"Pouilly-lès-Feurs","latitude":45.7976,"longitude":4.23289},{"id":45254,"name":"Pouilly-les-Nonains","latitude":46.04508,"longitude":3.98247},{"id":45256,"name":"Pouilly-sous-Charlieu","latitude":46.14551,"longitude":4.11287},{"id":45275,"name":"Pragoulin","latitude":46.05425,"longitude":3.39346},{"id":45280,"name":"Praz-sur-Arly","latitude":45.83731,"longitude":6.57259},{"id":45305,"name":"Précieux","latitude":45.58702,"longitude":4.15152},{"id":45311,"name":"Prémilhat","latitude":46.31341,"longitude":2.53559},{"id":45285,"name":"Priay","latitude":46.00183,"longitude":5.28684},{"id":45287,"name":"Pringy","latitude":45.94622,"longitude":6.12608},{"id":45291,"name":"Privas","latitude":44.735,"longitude":4.59918},{"id":45313,"name":"Publier","latitude":46.38773,"longitude":6.54356},{"id":45331,"name":"Pusignan","latitude":45.75558,"longitude":5.06722},{"id":45335,"name":"Puy-Guillaume","latitude":45.96036,"longitude":3.47405},{"id":45394,"name":"Quincié-en-Beaujolais","latitude":46.11898,"longitude":4.61635},{"id":45393,"name":"Quincieux","latitude":45.91374,"longitude":4.77698},{"id":45399,"name":"Quinssaines","latitude":46.32721,"longitude":2.5104},{"id":45400,"name":"Quintenas","latitude":45.18892,"longitude":4.68743},{"id":45427,"name":"Randan","latitude":46.01767,"longitude":3.35478},{"id":45687,"name":"Régny","latitude":45.99087,"longitude":4.21655},{"id":45448,"name":"Reignier-Ésery","latitude":46.13333,"longitude":6.26667},{"id":45456,"name":"Renage","latitude":45.33346,"longitude":5.48881},{"id":45457,"name":"Renaison","latitude":46.04955,"longitude":3.9244},{"id":45462,"name":"Replonges","latitude":46.30098,"longitude":4.88317},{"id":45470,"name":"Retournac","latitude":45.2039,"longitude":4.0333},{"id":45474,"name":"Revel","latitude":45.18618,"longitude":5.87208},{"id":45476,"name":"Reventin-Vaugris","latitude":45.46638,"longitude":4.84244},{"id":45481,"name":"Reyrieux","latitude":45.93577,"longitude":4.81453},{"id":45512,"name":"Rillieux-la-Pape","latitude":45.81667,"longitude":4.9},{"id":45516,"name":"Riom","latitude":45.89362,"longitude":3.11264},{"id":45517,"name":"Riom-ès-Montagnes","latitude":45.28206,"longitude":2.65973},{"id":45520,"name":"Riorges","latitude":46.04378,"longitude":4.04255},{"id":45521,"name":"Riotord","latitude":45.23159,"longitude":4.40208},{"id":45526,"name":"Rive-de-Gier","latitude":45.52755,"longitude":4.61589},{"id":45529,"name":"Rives","latitude":45.35326,"longitude":5.50084},{"id":45535,"name":"Roanne","latitude":46.03624,"longitude":4.06802},{"id":45539,"name":"Roche","latitude":45.58723,"longitude":5.16223},{"id":45540,"name":"Roche-la-Molière","latitude":45.43088,"longitude":4.3282},{"id":45547,"name":"Rochegude","latitude":44.24414,"longitude":4.82719},{"id":45548,"name":"Rochemaure","latitude":44.58747,"longitude":4.70391},{"id":45551,"name":"Rochetaillée-sur-Saône","latitude":45.85,"longitude":4.85},{"id":45563,"name":"Roiffieux","latitude":45.22655,"longitude":4.65441},{"id":45569,"name":"Romagnat","latitude":45.72955,"longitude":3.10061},{"id":45570,"name":"Romagnieu","latitude":45.57061,"longitude":5.64096},{"id":45574,"name":"Romans-sur-Isère","latitude":45.0496,"longitude":5.06602},{"id":45602,"name":"Rosières","latitude":45.13287,"longitude":3.98826},{"id":45639,"name":"Roussillon","latitude":45.37388,"longitude":4.81496},{"id":45646,"name":"Royat","latitude":45.76497,"longitude":3.05013},{"id":45647,"name":"Roybon","latitude":45.25851,"longitude":5.24502},{"id":45653,"name":"Rozier-en-Donzy","latitude":45.80069,"longitude":4.27736},{"id":45672,"name":"Rumilly","latitude":45.86116,"longitude":5.94513},{"id":45676,"name":"Ruoms","latitude":44.45294,"longitude":4.34202},{"id":45681,"name":"Ruy","latitude":45.5864,"longitude":5.32143},{"id":45702,"name":"Sablons","latitude":45.32104,"longitude":4.77449},{"id":45716,"name":"Sail-sous-Couzan","latitude":45.73482,"longitude":3.96898},{"id":45721,"name":"Sain-Bel","latitude":45.81017,"longitude":4.59797},{"id":45731,"name":"Saint-Agrève","latitude":45.01003,"longitude":4.39612},{"id":45737,"name":"Saint-Alban-de-Roche","latitude":45.5949,"longitude":5.2263},{"id":45736,"name":"Saint-Alban-Leysse","latitude":45.58333,"longitude":5.95},{"id":45748,"name":"Saint-Amant-Tallende","latitude":45.669,"longitude":3.10788},{"id":45769,"name":"Saint-Andéol-le-Château","latitude":45.58597,"longitude":4.69504},{"id":45757,"name":"Saint-André-de-Corcy","latitude":45.9259,"longitude":4.95166},{"id":45763,"name":"Saint-André-le-Gaz","latitude":45.54546,"longitude":5.52886},{"id":45764,"name":"Saint-André-le-Puy","latitude":45.64763,"longitude":4.25887},{"id":45768,"name":"Saint-André-sur-Vieux-Jonc","latitude":46.15855,"longitude":5.14776},{"id":45773,"name":"Saint-Antoine-l'Abbaye","latitude":45.16667,"longitude":5.21667},{"id":45796,"name":"Saint-Aupre","latitude":45.40296,"longitude":5.66682},{"id":45801,"name":"Saint-Baldoph","latitude":45.5312,"longitude":5.95217},{"id":45804,"name":"Saint-Barthélemy-de-Vals","latitude":45.16938,"longitude":4.8716},{"id":45808,"name":"Saint-Beauzire","latitude":45.84964,"longitude":3.17947},{"id":45835,"name":"Saint-Béron","latitude":45.50308,"longitude":5.7279},{"id":45815,"name":"Saint-Bon-Tarentaise","latitude":45.43373,"longitude":6.63686},{"id":45816,"name":"Saint-Bonnet-de-Mure","latitude":45.69042,"longitude":5.02912},{"id":45818,"name":"Saint-Bonnet-le-Château","latitude":45.42402,"longitude":4.06706},{"id":45819,"name":"Saint-Bonnet-les-Oules","latitude":45.54946,"longitude":4.32522},{"id":45820,"name":"Saint-Bonnet-près-Riom","latitude":45.92972,"longitude":3.1131},{"id":45841,"name":"Saint-Cassien","latitude":45.3571,"longitude":5.54793},{"id":45843,"name":"Saint-Cergues","latitude":46.23005,"longitude":6.31924},{"id":45844,"name":"Saint-Cernin","latitude":45.0585,"longitude":2.42081},{"id":45847,"name":"Saint-Chamond","latitude":45.4759,"longitude":4.51294},{"id":45850,"name":"Saint-Chef","latitude":45.63585,"longitude":5.36465},{"id":45852,"name":"Saint-Christo-en-Jarez","latitude":45.54508,"longitude":4.48826},{"id":45863,"name":"Saint-Clair-de-la-Tour","latitude":45.57345,"longitude":5.47741},{"id":45864,"name":"Saint-Clair-du-Rhône","latitude":45.44186,"longitude":4.77123},{"id":45879,"name":"Saint-Cyprien","latitude":45.5345,"longitude":4.23428},{"id":45882,"name":"Saint-Cyr","latitude":45.25183,"longitude":4.73045},{"id":45891,"name":"Saint-Cyr-sur-le-Rhône","latitude":45.51585,"longitude":4.8525},{"id":45888,"name":"Saint-Cyr-sur-Menthon","latitude":46.27502,"longitude":4.97246},{"id":45895,"name":"Saint-Denis-de-Cabanne","latitude":46.17249,"longitude":4.21447},{"id":45899,"name":"Saint-Denis-en-Bugey","latitude":45.94963,"longitude":5.32773},{"id":45903,"name":"Saint-Denis-lès-Bourg","latitude":46.20217,"longitude":5.18924},{"id":45907,"name":"Saint-Didier-de-Formans","latitude":45.95969,"longitude":4.78406},{"id":45908,"name":"Saint-Didier-de-la-Tour","latitude":45.55755,"longitude":5.48026},{"id":45909,"name":"Saint-Didier-en-Velay","latitude":45.30265,"longitude":4.27514},{"id":45910,"name":"Saint-Didier-sous-Riverie","latitude":45.59627,"longitude":4.6065},{"id":45911,"name":"Saint-Didier-sur-Chalaronne","latitude":46.17714,"longitude":4.81626},{"id":46635,"name":"Saint-Égrève","latitude":45.23313,"longitude":5.68154},{"id":46638,"name":"Saint-Éloy-les-Mines","latitude":46.16051,"longitude":2.83379},{"id":46641,"name":"Saint-Étienne","latitude":45.43389,"longitude":4.39},{"id":46645,"name":"Saint-Étienne-de-Crossey","latitude":45.38027,"longitude":5.64365},{"id":45925,"name":"Saint-Etienne-de-Cuines","latitude":45.35,"longitude":6.28333},{"id":46646,"name":"Saint-Étienne-de-Fontbellon","latitude":44.60077,"longitude":4.38635},{"id":46649,"name":"Saint-Étienne-de-Saint-Geoirs","latitude":45.33909,"longitude":5.3465},{"id":46651,"name":"Saint-Étienne-des-Oullières","latitude":46.06731,"longitude":4.64945},{"id":46653,"name":"Saint-Étienne-du-Bois","latitude":46.2899,"longitude":5.29471},{"id":46658,"name":"Saint-Étienne-sur-Chalaronne","latitude":46.14778,"longitude":4.87129},{"id":45945,"name":"Saint-Félicien","latitude":45.086,"longitude":4.62738},{"id":45947,"name":"Saint-Félix","latitude":45.80269,"longitude":5.97714},{"id":45938,"name":"Saint-Flour","latitude":45.03374,"longitude":3.09297},{"id":45940,"name":"Saint-Fons","latitude":45.70875,"longitude":4.85325},{"id":45941,"name":"Saint-Forgeux","latitude":45.85895,"longitude":4.4748},{"id":45943,"name":"Saint-François","latitude":46.41537,"longitude":3.90542},{"id":45949,"name":"Saint-Galmier","latitude":45.59787,"longitude":4.31086},{"id":45969,"name":"Saint-Genès-Champanelle","latitude":45.72037,"longitude":3.01883},{"id":45955,"name":"Saint-Genest-Lerpt","latitude":45.44347,"longitude":4.33968},{"id":45956,"name":"Saint-Genest-Malifaux","latitude":45.34064,"longitude":4.41652},{"id":45959,"name":"Saint-Genis-Laval","latitude":45.69542,"longitude":4.79316},{"id":45962,"name":"Saint-Genis-les-Ollières","latitude":45.7571,"longitude":4.72625},{"id":45960,"name":"Saint-Genis-Pouilly","latitude":46.24356,"longitude":6.02119},{"id":45963,"name":"Saint-Genix-sur-Guiers","latitude":45.59864,"longitude":5.63559},{"id":45970,"name":"Saint-Geoire-en-Valdaine","latitude":45.45668,"longitude":5.63515},{"id":45973,"name":"Saint-Georges-de-Commiers","latitude":45.04546,"longitude":5.70628},{"id":45976,"name":"Saint-Georges-de-Mons","latitude":45.93941,"longitude":2.83866},{"id":45980,"name":"Saint-Georges-de-Reneins","latitude":46.06185,"longitude":4.72169},{"id":45972,"name":"Saint-Georges-Haute-Ville","latitude":45.55701,"longitude":4.09801},{"id":45985,"name":"Saint-Georges-les-Bains","latitude":44.861,"longitude":4.80924},{"id":45987,"name":"Saint-Georges-sur-Allier","latitude":45.71015,"longitude":3.24261},{"id":46045,"name":"Saint-Gérand-le-Puy","latitude":46.2579,"longitude":3.5121},{"id":46006,"name":"Saint-Germain-des-Fossés","latitude":46.20682,"longitude":3.43374},{"id":45995,"name":"Saint-Germain-Laprade","latitude":45.03862,"longitude":3.97004},{"id":45997,"name":"Saint-Germain-Laval","latitude":45.83249,"longitude":4.01444},{"id":45998,"name":"Saint-Germain-Lembron","latitude":45.45793,"longitude":3.23973},{"id":45999,"name":"Saint-Germain-Lespinasse","latitude":46.10342,"longitude":3.96503},{"id":46000,"name":"Saint-Germain-Nuelles","latitude":45.85242,"longitude":4.61182},{"id":46026,"name":"Saint-Gervais-d’Auvergne","latitude":46.02916,"longitude":2.81901},{"id":46029,"name":"Saint-Gervais-les-Bains","latitude":45.89126,"longitude":6.71678},{"id":46072,"name":"Saint-Héand","latitude":45.5274,"longitude":4.37077},{"id":46050,"name":"Saint-Hilaire","latitude":45.3,"longitude":5.88333},{"id":46061,"name":"Saint-Hilaire-de-la-Côte","latitude":45.39162,"longitude":5.3159},{"id":46064,"name":"Saint-Hilaire-du-Rosier","latitude":45.09942,"longitude":5.24946},{"id":46074,"name":"Saint-Ismier","latitude":45.25227,"longitude":5.83073},{"id":46083,"name":"Saint-Jean-Bonnefonds","latitude":45.45609,"longitude":4.44223},{"id":46112,"name":"Saint-Jean-d’Aulps","latitude":46.23438,"longitude":6.65327},{"id":46088,"name":"Saint-Jean-de-Bournay","latitude":45.50093,"longitude":5.13818},{"id":46091,"name":"Saint-Jean-de-Gonville","latitude":46.21298,"longitude":5.95047},{"id":46095,"name":"Saint-Jean-de-Maurienne","latitude":45.27534,"longitude":6.35293},{"id":46096,"name":"Saint-Jean-de-Moirans","latitude":45.34506,"longitude":5.58536},{"id":46098,"name":"Saint-Jean-de-Muzols","latitude":45.08179,"longitude":4.81396},{"id":46099,"name":"Saint-Jean-de-Niost","latitude":45.83333,"longitude":5.21667},{"id":46101,"name":"Saint-Jean-de-Sixt","latitude":45.92312,"longitude":6.4118},{"id":46102,"name":"Saint-Jean-de-Soudain","latitude":45.5677,"longitude":5.4288},{"id":46114,"name":"Saint-Jean-en-Royans","latitude":45.01968,"longitude":5.29223},{"id":46117,"name":"Saint-Jean-le-Vieux","latitude":46.03005,"longitude":5.38798},{"id":46121,"name":"Saint-Jean-sur-Veyle","latitude":46.25902,"longitude":4.91712},{"id":46123,"name":"Saint-Jeoire","latitude":46.13733,"longitude":6.46172},{"id":46125,"name":"Saint-Jorioz","latitude":45.83074,"longitude":6.15792},{"id":46127,"name":"Saint-Joseph","latitude":45.55757,"longitude":4.62076},{"id":46129,"name":"Saint-Joseph-de-Rivière","latitude":45.37572,"longitude":5.69643},{"id":46137,"name":"Saint-Julien-Chapteuil","latitude":45.03486,"longitude":4.0611},{"id":46144,"name":"Saint-Julien-en-Genevois","latitude":46.14434,"longitude":6.08256},{"id":46145,"name":"Saint-Julien-en-Saint-Alban","latitude":44.75417,"longitude":4.69678},{"id":46138,"name":"Saint-Julien-Molin-Molette","latitude":45.32148,"longitude":4.61692},{"id":46154,"name":"Saint-Just-Chaleyssin","latitude":45.59421,"longitude":4.99852},{"id":46159,"name":"Saint-Just-d'Ardèche","latitude":44.3,"longitude":4.61667},{"id":46160,"name":"Saint-Just-de-Claix","latitude":45.07562,"longitude":5.28309},{"id":46162,"name":"Saint-Just-en-Chevalet","latitude":45.91477,"longitude":3.84234},{"id":46163,"name":"Saint-Just-la-Pendue","latitude":45.89423,"longitude":4.24129},{"id":46156,"name":"Saint-Just-Malmont","latitude":45.33932,"longitude":4.31275},{"id":46157,"name":"Saint-Just-Saint-Rambert","latitude":45.49973,"longitude":4.24141},{"id":46171,"name":"Saint-Lattier","latitude":45.08815,"longitude":5.20352},{"id":46176,"name":"Saint-Laurent-de-Chamousset","latitude":45.73827,"longitude":4.46415},{"id":46177,"name":"Saint-Laurent-de-Mure","latitude":45.68563,"longitude":5.04484},{"id":46183,"name":"Saint-Laurent-du-Pape","latitude":44.82328,"longitude":4.76679},{"id":46184,"name":"Saint-Laurent-du-Pont","latitude":45.3924,"longitude":5.73312},{"id":46187,"name":"Saint-Laurent-en-Royans","latitude":45.02653,"longitude":5.32669},{"id":46189,"name":"Saint-Laurent-sur-Saône","latitude":46.30532,"longitude":4.84119},{"id":46219,"name":"Saint-Léger-sur-Roanne","latitude":46.04174,"longitude":3.99644},{"id":46233,"name":"Saint-Mamet-la-Salvetat","latitude":44.85813,"longitude":2.30688},{"id":46245,"name":"Saint-Marcel-d'Ardèche","latitude":44.32726,"longitude":4.61769},{"id":46246,"name":"Saint-Marcel-lès-Annonay","latitude":45.28613,"longitude":4.62616},{"id":46247,"name":"Saint-Marcel-lès-Sauzet","latitude":44.59752,"longitude":4.80541},{"id":46248,"name":"Saint-Marcel-lès-Valence","latitude":44.97132,"longitude":4.95316},{"id":46250,"name":"Saint-Marcellin","latitude":45.14914,"longitude":5.31673},{"id":46251,"name":"Saint-Marcellin-en-Forez","latitude":45.49676,"longitude":4.17233},{"id":46260,"name":"Saint-Martin-Bellevue","latitude":45.96262,"longitude":6.15763},{"id":46295,"name":"Saint-Martin-d’Hères","latitude":45.1787,"longitude":5.76281},{"id":46268,"name":"Saint-Martin-de-Belleville","latitude":45.38175,"longitude":6.50519},{"id":46279,"name":"Saint-Martin-de-Valamas","latitude":44.93718,"longitude":4.36865},{"id":46287,"name":"Saint-Martin-du-Frêne","latitude":46.13591,"longitude":5.55049},{"id":46289,"name":"Saint-Martin-du-Mont","latitude":46.098,"longitude":5.31706},{"id":46298,"name":"Saint-Martin-en-Haut","latitude":45.65984,"longitude":4.5618},{"id":46299,"name":"Saint-Martin-la-Plaine","latitude":45.54635,"longitude":4.59749},{"id":46301,"name":"Saint-Martin-le-Vinoux","latitude":45.20297,"longitude":5.7163},{"id":46313,"name":"Saint-Maurice-de-Beynost","latitude":45.8344,"longitude":4.9775},{"id":46314,"name":"Saint-Maurice-de-Gourdans","latitude":45.82248,"longitude":5.1945},{"id":46315,"name":"Saint-Maurice-de-Lignon","latitude":45.2243,"longitude":4.1388},{"id":46316,"name":"Saint-Maurice-en-Gourgois","latitude":45.40127,"longitude":4.18253},{"id":46319,"name":"Saint-Maurice-sur-Dargoire","latitude":45.58224,"longitude":4.6312},{"id":46337,"name":"Saint-Michel-de-Maurienne","latitude":45.22011,"longitude":6.46868},{"id":46361,"name":"Saint-Nazaire-les-Eymes","latitude":45.24921,"longitude":5.85254},{"id":46370,"name":"Saint-Nizier-sous-Charlieu","latitude":46.1529,"longitude":4.12399},{"id":46384,"name":"Saint-Ours","latitude":45.85024,"longitude":2.89163},{"id":46388,"name":"Saint-Pal-de-Mons","latitude":45.24634,"longitude":4.27416},{"id":46402,"name":"Saint-Paul","latitude":45.3984,"longitude":4.22617},{"id":46408,"name":"Saint-Paul-de-Varax","latitude":46.09692,"longitude":5.12959},{"id":46409,"name":"Saint-Paul-de-Varces","latitude":45.07175,"longitude":5.64247},{"id":46411,"name":"Saint-Paul-des-Landes","latitude":44.94356,"longitude":2.31439},{"id":46412,"name":"Saint-Paul-en-Chablais","latitude":46.37958,"longitude":6.62483},{"id":46414,"name":"Saint-Paul-en-Jarez","latitude":45.48512,"longitude":4.57113},{"id":46417,"name":"Saint-Paul-lès-Romans","latitude":45.06725,"longitude":5.13213},{"id":46405,"name":"Saint-Paul-Trois-Châteaux","latitude":44.34594,"longitude":4.76356},{"id":46419,"name":"Saint-Paulien","latitude":45.13629,"longitude":3.8129},{"id":46482,"name":"Saint-Péray","latitude":44.94866,"longitude":4.8451},{"id":46431,"name":"Saint-Pierre-de-Bœuf","latitude":45.36667,"longitude":4.75},{"id":46432,"name":"Saint-Pierre-de-Chandieu","latitude":45.64625,"longitude":5.01481},{"id":46448,"name":"Saint-Pierre-la-Palud","latitude":45.79092,"longitude":4.61177},{"id":46462,"name":"Saint-Pourçain-sur-Sioule","latitude":46.30748,"longitude":3.28931},{"id":46464,"name":"Saint-Priest","latitude":45.69651,"longitude":4.94385},{"id":46466,"name":"Saint-Priest-en-Jarez","latitude":45.4739,"longitude":4.37678},{"id":46468,"name":"Saint-Privat","latitude":44.62859,"longitude":4.41489},{"id":46486,"name":"Saint-Quentin-Fallavier","latitude":45.64335,"longitude":5.11266},{"id":46491,"name":"Saint-Quentin-sur-Isère","latitude":45.27843,"longitude":5.54463},{"id":46493,"name":"Saint-Rambert-en-Bugey","latitude":45.94734,"longitude":5.4363},{"id":46510,"name":"Saint-Rémy-de-Maurienne","latitude":45.4,"longitude":6.26667},{"id":46513,"name":"Saint-Rémy-en-Rollat","latitude":46.1833,"longitude":3.39106},{"id":46516,"name":"Saint-Rémy-sur-Durolle","latitude":45.88815,"longitude":3.59257},{"id":46496,"name":"Saint-Restitut","latitude":44.32446,"longitude":4.79282},{"id":46501,"name":"Saint-Romain-de-Jalionas","latitude":45.75677,"longitude":5.21741},{"id":46502,"name":"Saint-Romain-de-Popey","latitude":45.84725,"longitude":4.53118},{"id":46503,"name":"Saint-Romain-en-Gal","latitude":45.53255,"longitude":4.8619},{"id":46504,"name":"Saint-Romain-la-Motte","latitude":46.0815,"longitude":3.99076},{"id":46505,"name":"Saint-Romain-le-Puy","latitude":45.55837,"longitude":4.12296},{"id":46507,"name":"Saint-Romans","latitude":45.11278,"longitude":5.32239},{"id":46521,"name":"Saint-Saturnin","latitude":45.65956,"longitude":3.09232},{"id":46527,"name":"Saint-Sauves-d'Auvergne","latitude":45.6,"longitude":2.68333},{"id":46529,"name":"Saint-Sauveur","latitude":45.15335,"longitude":5.3528},{"id":46534,"name":"Saint-Sauveur-de-Montagut","latitude":44.82142,"longitude":4.57993},{"id":46537,"name":"Saint-Sauveur-en-Rue","latitude":45.26981,"longitude":4.49512},{"id":46540,"name":"Saint-Savin","latitude":45.62776,"longitude":5.30856},{"id":46548,"name":"Saint-Sernin","latitude":44.57147,"longitude":4.39186},{"id":46554,"name":"Saint-Siméon-de-Bressieux","latitude":45.3385,"longitude":5.26591},{"id":46553,"name":"Saint-Simon","latitude":44.9632,"longitude":2.48994},{"id":46555,"name":"Saint-Sorlin-en-Bugey","latitude":45.88576,"longitude":5.36688},{"id":46556,"name":"Saint-Sorlin-en-Valloire","latitude":45.28774,"longitude":4.94903},{"id":46575,"name":"Saint-Symphorien-de-Lay","latitude":45.94772,"longitude":4.21318},{"id":46576,"name":"Saint-Symphorien-sur-Coise","latitude":45.6322,"longitude":4.45709},{"id":46585,"name":"Saint-Trivier-de-Courtes","latitude":46.4598,"longitude":5.07762},{"id":46586,"name":"Saint-Trivier-sur-Moignans","latitude":46.07233,"longitude":4.89721},{"id":46594,"name":"Saint-Uze","latitude":45.18409,"longitude":4.86},{"id":46599,"name":"Saint-Vallier","latitude":45.17154,"longitude":4.81758},{"id":46624,"name":"Saint-Vérand","latitude":45.17344,"longitude":5.33261},{"id":46607,"name":"Saint-Victor","latitude":46.39506,"longitude":2.60819},{"id":46608,"name":"Saint-Victor-de-Cessieu","latitude":45.54113,"longitude":5.39098},{"id":46613,"name":"Saint-Vincent-de-Mercuze","latitude":45.37215,"longitude":5.95424},{"id":46629,"name":"Saint-Yorre","latitude":46.06598,"longitude":3.4643},{"id":46669,"name":"Sainte-Colombe","latitude":45.52531,"longitude":4.86664},{"id":46671,"name":"Sainte-Consorce","latitude":45.77585,"longitude":4.69033},{"id":46677,"name":"Sainte-Euphémie","latitude":45.97101,"longitude":4.79853},{"id":46680,"name":"Sainte-Florine","latitude":45.40519,"longitude":3.31732},{"id":46686,"name":"Sainte-Foy-l’Argentière","latitude":45.70823,"longitude":4.47025},{"id":46685,"name":"Sainte-Foy-lès-Lyon","latitude":45.73375,"longitude":4.80259},{"id":46699,"name":"Sainte-Hélène-sur-Isère","latitude":45.61434,"longitude":6.32052},{"id":46726,"name":"Sainte-Sigolène","latitude":45.24329,"longitude":4.23343},{"id":46740,"name":"Salagnon","latitude":45.66863,"longitude":5.36325},{"id":46741,"name":"Salaise-sur-Sanne","latitude":45.35126,"longitude":4.8107},{"id":46746,"name":"Sales","latitude":45.87441,"longitude":5.95996},{"id":46756,"name":"Salins-les-Thermes","latitude":45.47169,"longitude":6.53051},{"id":46757,"name":"Sallanches","latitude":45.94423,"longitude":6.63162},{"id":46776,"name":"Samoëns","latitude":46.08282,"longitude":6.72647},{"id":46791,"name":"Sansac-de-Marmiesse","latitude":44.88376,"longitude":2.34768},{"id":46810,"name":"Sarras","latitude":45.18679,"longitude":4.80004},{"id":46825,"name":"Sassenage","latitude":45.21266,"longitude":5.6629},{"id":46827,"name":"Sathonay-Camp","latitude":45.82462,"longitude":4.87453},{"id":46828,"name":"Sathonay-Village","latitude":45.83337,"longitude":4.87821},{"id":46829,"name":"Satillieu","latitude":45.15041,"longitude":4.6141},{"id":46830,"name":"Satolas-et-Bonce","latitude":45.69368,"longitude":5.13032},{"id":46836,"name":"Saugues","latitude":44.96008,"longitude":3.54737},{"id":46838,"name":"Saulce-sur-Rhône","latitude":44.7043,"longitude":4.80061},{"id":46845,"name":"Sault-Brénaz","latitude":45.86132,"longitude":5.39954},{"id":46860,"name":"Sauverny","latitude":46.31514,"longitude":6.11827},{"id":46867,"name":"Sauxillanges","latitude":45.55109,"longitude":3.37147},{"id":46868,"name":"Sauzet","latitude":44.60397,"longitude":4.82091},{"id":46870,"name":"Savasse","latitude":44.60428,"longitude":4.77653},{"id":46875,"name":"Savigneux","latitude":45.6167,"longitude":4.0833},{"id":46876,"name":"Savigny","latitude":45.81595,"longitude":4.5741},{"id":46886,"name":"Savoie","latitude":45.46805,"longitude":6.48547},{"id":46889,"name":"Sayat","latitude":45.8264,"longitude":3.0525},{"id":46905,"name":"Sciez","latitude":46.33251,"longitude":6.38413},{"id":46906,"name":"Scionzier","latitude":46.0601,"longitude":6.55271},{"id":47134,"name":"Séez","latitude":45.62368,"longitude":6.80149},{"id":47135,"name":"Ségny","latitude":46.29571,"longitude":6.07257},{"id":46950,"name":"Septème","latitude":45.55294,"longitude":5.00596},{"id":47147,"name":"Sérézin-du-Rhône","latitude":45.62871,"longitude":4.824},{"id":46955,"name":"Sergy","latitude":46.25069,"longitude":6.00183},{"id":46959,"name":"Sermérieu","latitude":45.66995,"longitude":5.4111},{"id":46961,"name":"Serpaize","latitude":45.55824,"longitude":4.91764},{"id":46969,"name":"Serrières","latitude":45.31799,"longitude":4.76327},{"id":46970,"name":"Serrières-de-Briord","latitude":45.80706,"longitude":5.44795},{"id":46971,"name":"Servas","latitude":46.13317,"longitude":5.1651},{"id":46981,"name":"Sevrier","latitude":45.86442,"longitude":6.1399},{"id":46983,"name":"Seynod","latitude":45.88549,"longitude":6.08831},{"id":46985,"name":"Seyssinet-Pariset","latitude":45.17675,"longitude":5.69387},{"id":46986,"name":"Seyssins","latitude":45.16224,"longitude":5.68673},{"id":46987,"name":"Seyssuel","latitude":45.55826,"longitude":4.84313},{"id":46995,"name":"Sillans","latitude":45.34261,"longitude":5.38864},{"id":46997,"name":"Sillingy","latitude":45.94781,"longitude":6.04415},{"id":47001,"name":"Simandres","latitude":45.61955,"longitude":4.87314},{"id":47022,"name":"Solaize","latitude":45.6397,"longitude":4.84038},{"id":47029,"name":"Solignac-sur-Loire","latitude":44.96833,"longitude":3.88635},{"id":47039,"name":"Sonnay","latitude":45.35809,"longitude":4.90479},{"id":47040,"name":"Sonnaz","latitude":45.61765,"longitude":5.91505},{"id":47043,"name":"Sorbiers","latitude":45.49111,"longitude":4.44163},{"id":47060,"name":"Soucieu-en-Jarrest","latitude":45.67771,"longitude":4.70379},{"id":47082,"name":"Sourcieux-les-Mines","latitude":45.80606,"longitude":4.62254},{"id":47089,"name":"Souvigny","latitude":46.5348,"longitude":3.19205},{"id":47091,"name":"Soyons","latitude":44.88914,"longitude":4.85026},{"id":47124,"name":"Sury-le-Comtal","latitude":45.53735,"longitude":4.18573},{"id":47127,"name":"Suze-la-Rousse","latitude":44.28761,"longitude":4.84161},{"id":47157,"name":"Tain-l’Hermitage","latitude":45.06672,"longitude":4.8559},{"id":47165,"name":"Tallende","latitude":45.6704,"longitude":3.1246},{"id":47166,"name":"Talloires","latitude":45.84098,"longitude":6.21374},{"id":47168,"name":"Taluyers","latitude":45.63973,"longitude":4.72203},{"id":47170,"name":"Taninges","latitude":46.10883,"longitude":6.59231},{"id":47175,"name":"Tarare","latitude":45.89614,"longitude":4.433},{"id":47183,"name":"Tassin-la-Demi-Lune","latitude":45.75499,"longitude":4.78812},{"id":47185,"name":"Taulignan","latitude":44.44419,"longitude":4.97057},{"id":47199,"name":"Tenay","latitude":45.91884,"longitude":5.50797},{"id":47200,"name":"Tence","latitude":45.11423,"longitude":4.29097},{"id":47201,"name":"Tencin","latitude":45.31105,"longitude":5.95752},{"id":47208,"name":"Ternay","latitude":45.60234,"longitude":4.81064},{"id":47222,"name":"Theizé","latitude":45.93963,"longitude":4.61634},{"id":47224,"name":"Theys","latitude":45.30132,"longitude":5.99848},{"id":47228,"name":"Thiers","latitude":45.85654,"longitude":3.54758},{"id":47233,"name":"Thil","latitude":45.81368,"longitude":5.02323},{"id":47242,"name":"Thizy-les-Bourgs","latitude":46.02995,"longitude":4.31299},{"id":47243,"name":"Thoiry","latitude":46.23762,"longitude":5.98111},{"id":47245,"name":"Thoissey","latitude":46.17222,"longitude":4.80251},{"id":47275,"name":"Thônes","latitude":45.88123,"longitude":6.32572},{"id":47247,"name":"Thonon-les-Bains","latitude":46.37049,"longitude":6.47985},{"id":47248,"name":"Thorens-Glières","latitude":45.9951,"longitude":6.24557},{"id":47257,"name":"Thuellin","latitude":45.63964,"longitude":5.5084},{"id":47258,"name":"Thueyts","latitude":44.67628,"longitude":4.22146},{"id":47262,"name":"Thurins","latitude":45.68179,"longitude":4.64079},{"id":47265,"name":"Thyez","latitude":46.08249,"longitude":6.53777},{"id":47279,"name":"Tignes","latitude":45.49604,"longitude":6.92463},{"id":47280,"name":"Tignieu","latitude":45.75164,"longitude":5.18911},{"id":47306,"name":"Tossiat","latitude":46.13965,"longitude":5.31158},{"id":47310,"name":"Toulaud","latitude":44.89773,"longitude":4.81639},{"id":47313,"name":"Toulon-sur-Allier","latitude":46.51845,"longitude":3.35989},{"id":47328,"name":"Tournon-sur-Rhône","latitude":45.06667,"longitude":4.83333},{"id":47340,"name":"Toussieu","latitude":45.65443,"longitude":4.98495},{"id":47346,"name":"Tramoyes","latitude":45.87599,"longitude":4.96502},{"id":47353,"name":"Treffort-Cuisiat","latitude":46.26667,"longitude":5.36667},{"id":47359,"name":"Trept","latitude":45.68742,"longitude":5.31843},{"id":47363,"name":"Tresserve","latitude":45.6761,"longitude":5.89906},{"id":47406,"name":"Trévol","latitude":46.62924,"longitude":3.30599},{"id":47408,"name":"Trévoux","latitude":45.94281,"longitude":4.77143},{"id":47412,"name":"Tulette","latitude":44.28656,"longitude":4.93122},{"id":47414,"name":"Tullins","latitude":45.30239,"longitude":5.49077},{"id":47424,"name":"Ugine","latitude":45.75571,"longitude":6.41503},{"id":47427,"name":"Unieux","latitude":45.40395,"longitude":4.27094},{"id":47429,"name":"Upie","latitude":44.8025,"longitude":4.97673},{"id":47441,"name":"Usson-en-Forez","latitude":45.39174,"longitude":3.94142},{"id":47461,"name":"Val Thorens","latitude":45.29777,"longitude":6.58377},{"id":47465,"name":"Val-d’Isère","latitude":45.45142,"longitude":6.97455},{"id":47471,"name":"Valence","latitude":44.9256,"longitude":4.90956},{"id":47475,"name":"Valencin","latitude":45.61109,"longitude":5.02935},{"id":47486,"name":"Valleiry","latitude":46.11106,"longitude":5.97037},{"id":47491,"name":"Vallières","latitude":45.90043,"longitude":5.93863},{"id":47492,"name":"Valloire","latitude":45.16542,"longitude":6.42998},{"id":47494,"name":"Vallon-en-Sully","latitude":46.53629,"longitude":2.60804},{"id":47493,"name":"Vallon-Pont-d’Arc","latitude":44.40685,"longitude":4.39374},{"id":47501,"name":"Vals-les-Bains","latitude":44.66561,"longitude":4.36615},{"id":47502,"name":"Vals-près-le-Puy","latitude":45.03155,"longitude":3.87787},{"id":47514,"name":"Varennes-sur-Allier","latitude":46.31318,"longitude":3.40147},{"id":47533,"name":"Vaugneray","latitude":45.73791,"longitude":4.65645},{"id":47537,"name":"Vaulnaveys-le-Bas","latitude":45.1002,"longitude":5.82532},{"id":47538,"name":"Vaulnaveys-le-Haut","latitude":45.12524,"longitude":5.81723},{"id":47541,"name":"Vaulx-en-Velin","latitude":45.78693,"longitude":4.9251},{"id":47539,"name":"Vaulx-Milieu","latitude":45.61329,"longitude":5.18371},{"id":47545,"name":"Vaux-en-Bugey","latitude":45.92671,"longitude":5.35141},{"id":47552,"name":"Veauche","latitude":45.56326,"longitude":4.29192},{"id":47556,"name":"Veigy","latitude":46.26787,"longitude":6.26304},{"id":47567,"name":"Vendat","latitude":46.16387,"longitude":3.35366},{"id":47926,"name":"Vénissieux","latitude":45.69706,"longitude":4.88593},{"id":47599,"name":"Vergongheon","latitude":45.37107,"longitude":3.31981},{"id":47608,"name":"Vernaison","latitude":45.64781,"longitude":4.8114},{"id":47617,"name":"Vernioz","latitude":45.42672,"longitude":4.88267},{"id":47620,"name":"Vernosc-lès-Annonay","latitude":45.21596,"longitude":4.7131},{"id":47625,"name":"Vernoux-en-Vivarais","latitude":44.89577,"longitude":4.64524},{"id":47634,"name":"Versonnex","latitude":45.92914,"longitude":5.92586},{"id":47639,"name":"Vertaizon","latitude":45.76983,"longitude":3.2865},{"id":47649,"name":"Vesseaux","latitude":44.65152,"longitude":4.44025},{"id":47931,"name":"Vétraz-Monthoux","latitude":46.1743,"longitude":6.25852},{"id":47651,"name":"Veurey-Voroize","latitude":45.27268,"longitude":5.61372},{"id":47654,"name":"Veyras","latitude":44.73518,"longitude":4.56254},{"id":47655,"name":"Veyre-Monton","latitude":45.66866,"longitude":3.17144},{"id":47656,"name":"Veyrier-du-Lac","latitude":45.88234,"longitude":6.17709},{"id":47666,"name":"Vic-le-Comte","latitude":45.64296,"longitude":3.24607},{"id":47668,"name":"Vic-sur-Cère","latitude":44.98011,"longitude":2.62505},{"id":47670,"name":"Vichy","latitude":46.12709,"longitude":3.42577},{"id":47675,"name":"Vieille-Brioude","latitude":45.2647,"longitude":3.40479},{"id":47682,"name":"Vienne","latitude":45.52569,"longitude":4.87484},{"id":47692,"name":"Vif","latitude":45.05654,"longitude":5.67204},{"id":47710,"name":"Villard-Bonnot","latitude":45.2346,"longitude":5.88323},{"id":47711,"name":"Villard-de-Lans","latitude":45.07156,"longitude":5.55637},{"id":47712,"name":"Villargondran","latitude":45.26427,"longitude":6.37668},{"id":47713,"name":"Villars","latitude":45.46785,"longitude":4.35539},{"id":47714,"name":"Villars-les-Dombes","latitude":46.00208,"longitude":5.03248},{"id":47716,"name":"Villaz","latitude":45.95127,"longitude":6.19447},{"id":47718,"name":"Ville-la-Grand","latitude":46.203,"longitude":6.2501},{"id":47719,"name":"Ville-sous-Anjou","latitude":45.37274,"longitude":4.85081},{"id":47724,"name":"Villebois","latitude":45.84822,"longitude":5.4331},{"id":47726,"name":"Villebret","latitude":46.26683,"longitude":2.63862},{"id":47734,"name":"Villefontaine","latitude":45.61278,"longitude":5.15058},{"id":47738,"name":"Villefranche-d’Allier","latitude":46.39652,"longitude":2.85717},{"id":47741,"name":"Villefranche-sur-Saône","latitude":45.98967,"longitude":4.71961},{"id":47751,"name":"Villemoirieu","latitude":45.71884,"longitude":5.22586},{"id":47759,"name":"Villeneuve","latitude":46.02096,"longitude":4.83591},{"id":47767,"name":"Villeneuve-de-Berg","latitude":44.55699,"longitude":4.50215},{"id":47793,"name":"Villerest","latitude":45.99539,"longitude":4.03463},{"id":47794,"name":"Villereversure","latitude":46.18521,"longitude":5.38262},{"id":47817,"name":"Villette-de-Vienne","latitude":45.59049,"longitude":4.91528},{"id":47818,"name":"Villeurbanne","latitude":45.76601,"longitude":4.8795},{"id":47822,"name":"Villevocance","latitude":45.22481,"longitude":4.58827},{"id":47836,"name":"Villié-Morgon","latitude":46.16227,"longitude":4.68069},{"id":47838,"name":"Vimines","latitude":45.5464,"longitude":5.86523},{"id":47843,"name":"Vinay","latitude":45.20832,"longitude":5.40646},{"id":47850,"name":"Vinsobres","latitude":44.33328,"longitude":5.06204},{"id":47853,"name":"Violay","latitude":45.85335,"longitude":4.35951},{"id":47861,"name":"Viriat","latitude":46.25484,"longitude":5.21567},{"id":47862,"name":"Virieu","latitude":45.48404,"longitude":5.47586},{"id":47863,"name":"Virieu-le-Grand","latitude":45.84766,"longitude":5.65146},{"id":47864,"name":"Viriville","latitude":45.31579,"longitude":5.20376},{"id":47866,"name":"Viry","latitude":46.11291,"longitude":6.03808},{"id":47879,"name":"Viuz-en-Sallaz","latitude":46.14673,"longitude":6.40781},{"id":47880,"name":"Viuz-la-Chiésaz","latitude":45.81203,"longitude":6.06645},{"id":47882,"name":"Viviers","latitude":44.4828,"longitude":4.68895},{"id":47883,"name":"Viviers-du-Lac","latitude":45.65,"longitude":5.9},{"id":47889,"name":"Vizille","latitude":45.07819,"longitude":5.77074},{"id":47890,"name":"Voglans","latitude":45.61868,"longitude":5.88798},{"id":47892,"name":"Voiron","latitude":45.36471,"longitude":5.5856},{"id":47899,"name":"Volvic","latitude":45.87196,"longitude":3.03832},{"id":47901,"name":"Vonnas","latitude":46.21727,"longitude":4.99246},{"id":47902,"name":"Voreppe","latitude":45.29484,"longitude":5.63192},{"id":47903,"name":"Vorey","latitude":45.18638,"longitude":3.90991},{"id":47905,"name":"Vougy","latitude":46.10435,"longitude":4.11771},{"id":47912,"name":"Vourey","latitude":45.3218,"longitude":5.51931},{"id":47913,"name":"Vourles","latitude":45.65878,"longitude":4.77325},{"id":48002,"name":"Ydes","latitude":45.34722,"longitude":2.43727},{"id":48003,"name":"Yenne","latitude":45.7042,"longitude":5.75795},{"id":48009,"name":"Youx","latitude":46.14467,"longitude":2.79903},{"id":48011,"name":"Yssingeaux","latitude":45.14282,"longitude":4.12372},{"id":48012,"name":"Ytrac","latitude":44.912,"longitude":2.36248},{"id":48021,"name":"Yzeure","latitude":46.56596,"longitude":3.35446}]