[{"id":110965,"name":"Abbeville","latitude":31.99212,"longitude":-83.30682},{"id":111004,"name":"Acworth","latitude":34.06635,"longitude":-84.67837},{"id":111012,"name":"Adairsville","latitude":34.3687,"longitude":-84.93411},{"id":111041,"name":"Adel","latitude":31.13727,"longitude":-83.42408},{"id":111090,"name":"Alamo","latitude":32.14712,"longitude":-82.77792},{"id":111101,"name":"Albany","latitude":31.57851,"longitude":-84.15574},{"id":111207,"name":"Alma","latitude":31.53937,"longitude":-82.46236},{"id":111221,"name":"Alpharetta","latitude":34.07538,"longitude":-84.29409},{"id":111239,"name":"Alto","latitude":34.46732,"longitude":-83.57378},{"id":111274,"name":"Americus","latitude":32.07239,"longitude":-84.23269},{"id":111400,"name":"Appling County","latitude":31.74928,"longitude":-82.28898},{"id":111409,"name":"Aragon","latitude":34.04565,"longitude":-85.05606},{"id":111418,"name":"Arcade","latitude":34.07789,"longitude":-83.56155},{"id":111460,"name":"Arlington","latitude":31.4399,"longitude":-84.72492},{"id":111513,"name":"Ashburn","latitude":31.70601,"longitude":-83.65322},{"id":111573,"name":"Athens","latitude":33.96095,"longitude":-83.37794},{"id":111589,"name":"Atkinson County","latitude":31.29711,"longitude":-82.87999},{"id":111590,"name":"Atlanta","latitude":33.749,"longitude":-84.38798},{"id":111619,"name":"Auburn","latitude":34.01372,"longitude":-83.82768},{"id":111646,"name":"Augusta","latitude":33.47097,"longitude":-81.97484},{"id":111665,"name":"Austell","latitude":33.81261,"longitude":-84.63438},{"id":111702,"name":"Avondale Estates","latitude":33.77149,"longitude":-84.26714},{"id":111720,"name":"Bacon County","latitude":31.55367,"longitude":-82.45269},{"id":111732,"name":"Bainbridge","latitude":30.9038,"longitude":-84.57547},{"id":111742,"name":"Baker County","latitude":31.32618,"longitude":-84.44467},{"id":111752,"name":"Baldwin","latitude":34.49177,"longitude":-83.53739},{"id":111760,"name":"Baldwin County","latitude":33.06928,"longitude":-83.24959},{"id":111769,"name":"Ball Ground","latitude":34.33815,"longitude":-84.37659},{"id":111798,"name":"Banks County","latitude":34.35413,"longitude":-83.49737},{"id":111829,"name":"Barnesville","latitude":33.05457,"longitude":-84.15575},{"id":111853,"name":"Barrow County","latitude":33.9932,"longitude":-83.71276},{"id":111873,"name":"Bartow County","latitude":34.23786,"longitude":-84.8405},{"id":111913,"name":"Baxley","latitude":31.77825,"longitude":-82.34846},{"id":112154,"name":"Belvedere Park","latitude":33.75483,"longitude":-84.26742},{"id":112162,"name":"Ben Hill County","latitude":31.75978,"longitude":-83.22046},{"id":112227,"name":"Berkeley Lake","latitude":33.98371,"longitude":-84.18658},{"id":112249,"name":"Berrien County","latitude":31.27606,"longitude":-83.22962},{"id":112310,"name":"Bibb County","latitude":32.80659,"longitude":-83.69776},{"id":112391,"name":"Blackshear","latitude":31.30605,"longitude":-82.24207},{"id":112412,"name":"Blairsville","latitude":34.8762,"longitude":-83.95824},{"id":112414,"name":"Blakely","latitude":31.37768,"longitude":-84.93409},{"id":112427,"name":"Bleckley County","latitude":32.43444,"longitude":-83.32784},{"id":112443,"name":"Bloomingdale","latitude":32.13242,"longitude":-81.299},{"id":112475,"name":"Blue Ridge","latitude":34.86397,"longitude":-84.32409},{"id":112499,"name":"Bogart","latitude":33.94928,"longitude":-83.53461},{"id":112530,"name":"Bonanza","latitude":33.46567,"longitude":-84.33659},{"id":112588,"name":"Boston","latitude":30.79186,"longitude":-83.78989},{"id":112622,"name":"Bowdon","latitude":33.53789,"longitude":-85.25328},{"id":112696,"name":"Brantley County","latitude":31.19688,"longitude":-81.9819},{"id":112697,"name":"Braselton","latitude":34.10927,"longitude":-83.76267},{"id":112720,"name":"Bremen","latitude":33.72122,"longitude":-85.1455},{"id":112856,"name":"Brookhaven","latitude":33.85844,"longitude":-84.3402},{"id":112866,"name":"Brooklet","latitude":32.37963,"longitude":-81.66317},{"id":112883,"name":"Brooks County","latitude":30.84197,"longitude":-83.58021},{"id":112941,"name":"Broxton","latitude":31.62519,"longitude":-82.88681},{"id":112947,"name":"Brunswick","latitude":31.14995,"longitude":-81.49149},{"id":112960,"name":"Bryan County","latitude":32.01322,"longitude":-81.44247},{"id":112969,"name":"Buchanan","latitude":33.8026,"longitude":-85.18856},{"id":113000,"name":"Buena Vista","latitude":32.31904,"longitude":-84.51714},{"id":113022,"name":"Buford","latitude":34.12066,"longitude":-84.00435},{"id":113033,"name":"Bulloch County","latitude":32.39681,"longitude":-81.74318},{"id":113056,"name":"Burke County","latitude":33.06115,"longitude":-82.00078},{"id":113107,"name":"Butler","latitude":32.55709,"longitude":-84.23825},{"id":113130,"name":"Butts County","latitude":33.28785,"longitude":-83.95717},{"id":113143,"name":"Byron","latitude":32.65376,"longitude":-83.75963},{"id":113169,"name":"Cairo","latitude":30.87751,"longitude":-84.20214},{"id":113197,"name":"Calhoun","latitude":34.50259,"longitude":-84.95105},{"id":113203,"name":"Calhoun County","latitude":31.5292,"longitude":-84.62451},{"id":113268,"name":"Camden County","latitude":30.92249,"longitude":-81.63639},{"id":113283,"name":"Camilla","latitude":31.23129,"longitude":-84.21046},{"id":113324,"name":"Candler County","latitude":32.40344,"longitude":-82.07367},{"id":113325,"name":"Candler-McAfee","latitude":33.72672,"longitude":-84.27246},{"id":113339,"name":"Canton","latitude":34.23676,"longitude":-84.49076},{"id":113427,"name":"Carnesville","latitude":34.36983,"longitude":-83.23516},{"id":113451,"name":"Carroll County","latitude":33.58282,"longitude":-85.07974},{"id":113464,"name":"Carrollton","latitude":33.58011,"longitude":-85.07661},{"id":113488,"name":"Cartersville","latitude":34.16533,"longitude":-84.80231},{"id":113577,"name":"Catoosa County","latitude":34.90366,"longitude":-85.13825},{"id":113587,"name":"Cave Spring","latitude":34.1076,"longitude":-85.33634},{"id":113627,"name":"Cedartown","latitude":34.01123,"longitude":-85.25593},{"id":113652,"name":"Centerville","latitude":32.63014,"longitude":-83.68963},{"id":113723,"name":"Chamblee","latitude":33.89205,"longitude":-84.29881},{"id":113789,"name":"Charlton County","latitude":30.78172,"longitude":-82.13769},{"id":113801,"name":"Chatham County","latitude":31.97402,"longitude":-81.09243},{"id":113805,"name":"Chatsworth","latitude":34.76591,"longitude":-84.76994},{"id":113809,"name":"Chattahoochee County","latitude":32.34697,"longitude":-84.78705},{"id":113810,"name":"Chattahoochee Hills","latitude":33.55063,"longitude":-84.76049},{"id":113812,"name":"Chattanooga Valley","latitude":34.93285,"longitude":-85.35551},{"id":113813,"name":"Chattooga County","latitude":34.47502,"longitude":-85.34529},{"id":113850,"name":"Cherokee County","latitude":34.24393,"longitude":-84.4762},{"id":113881,"name":"Chester","latitude":32.39378,"longitude":-83.15293},{"id":113937,"name":"Chickamauga","latitude":34.87119,"longitude":-85.29079},{"id":114135,"name":"Clarke County","latitude":33.95117,"longitude":-83.36733},{"id":114139,"name":"Clarkesville","latitude":34.6126,"longitude":-83.52489},{"id":114148,"name":"Clarkston","latitude":33.80955,"longitude":-84.23964},{"id":114164,"name":"Claxton","latitude":32.16158,"longitude":-81.904},{"id":114176,"name":"Clay County","latitude":31.62628,"longitude":-84.9801},{"id":114198,"name":"Clayton","latitude":34.87815,"longitude":-83.40099},{"id":114205,"name":"Clayton County","latitude":33.54189,"longitude":-84.35769},{"id":114242,"name":"Cleveland","latitude":34.59704,"longitude":-83.76324},{"id":114265,"name":"Clinch County","latitude":30.91495,"longitude":-82.70624},{"id":114344,"name":"Cobb County","latitude":33.94147,"longitude":-84.57667},{"id":114351,"name":"Cochran","latitude":32.38683,"longitude":-83.35461},{"id":114368,"name":"Coffee County","latitude":31.54927,"longitude":-82.8492},{"id":114413,"name":"College Park","latitude":33.65344,"longitude":-84.44937},{"id":114459,"name":"Colquitt","latitude":31.17129,"longitude":-84.73325},{"id":114460,"name":"Colquitt County","latitude":31.18839,"longitude":-83.76885},{"id":114479,"name":"Columbia County","latitude":33.54412,"longitude":-82.26406},{"id":114491,"name":"Columbus","latitude":32.46098,"longitude":-84.98771},{"id":114519,"name":"Comer","latitude":34.06372,"longitude":-83.12543},{"id":114522,"name":"Commerce","latitude":34.204,"longitude":-83.45711},{"id":114559,"name":"Conley","latitude":33.64483,"longitude":-84.32576},{"id":114589,"name":"Conyers","latitude":33.66761,"longitude":-84.01769},{"id":114591,"name":"Cook County","latitude":31.15399,"longitude":-83.43047},{"id":114635,"name":"Cordele","latitude":31.96351,"longitude":-83.78239},{"id":114646,"name":"Cornelia","latitude":34.51149,"longitude":-83.52712},{"id":114716,"name":"Country Club Estates","latitude":31.21273,"longitude":-81.46427},{"id":114735,"name":"Covington","latitude":33.59678,"longitude":-83.86018},{"id":114747,"name":"Coweta County","latitude":33.35346,"longitude":-84.76337},{"id":114775,"name":"Crawford County","latitude":32.7145,"longitude":-83.98634},{"id":114786,"name":"Crawfordville","latitude":33.55402,"longitude":-82.89598},{"id":114823,"name":"Crisp County","latitude":31.92293,"longitude":-83.7681},{"id":114923,"name":"Cumming","latitude":34.20732,"longitude":-84.14019},{"id":114933,"name":"Cusseta","latitude":32.30543,"longitude":-84.7727},{"id":114945,"name":"Cuthbert","latitude":31.77127,"longitude":-84.78937},{"id":114963,"name":"Dacula","latitude":33.98872,"longitude":-83.89796},{"id":114966,"name":"Dade County","latitude":34.85452,"longitude":-85.50453},{"id":114971,"name":"Dahlonega","latitude":34.53259,"longitude":-83.98491},{"id":114988,"name":"Dallas","latitude":33.92371,"longitude":-84.84077},{"id":115001,"name":"Dalton","latitude":34.7698,"longitude":-84.97022},{"id":115026,"name":"Danielsville","latitude":34.12428,"longitude":-83.22126},{"id":115045,"name":"Darien","latitude":31.37023,"longitude":-81.43399},{"id":115077,"name":"Davisboro","latitude":32.97904,"longitude":-82.60791},{"id":115081,"name":"Dawson","latitude":31.77382,"longitude":-84.448},{"id":115083,"name":"Dawson County","latitude":34.4443,"longitude":-84.17064},{"id":115088,"name":"Dawsonville","latitude":34.42121,"longitude":-84.11908},{"id":115152,"name":"Decatur","latitude":33.77483,"longitude":-84.29631},{"id":115159,"name":"Decatur County","latitude":30.87834,"longitude":-84.57907},{"id":115169,"name":"Deenwood","latitude":31.22201,"longitude":-82.38725},{"id":115129,"name":"DeKalb County","latitude":33.77153,"longitude":-84.22641},{"id":115233,"name":"Demorest","latitude":34.5651,"longitude":-83.54517},{"id":115372,"name":"Dock Junction","latitude":31.20245,"longitude":-81.51677},{"id":115377,"name":"Dodge County","latitude":32.17218,"longitude":-83.1684},{"id":115395,"name":"Donalsonville","latitude":31.04046,"longitude":-84.87909},{"id":115404,"name":"Dooly County","latitude":32.15718,"longitude":-83.79875},{"id":115409,"name":"Doraville","latitude":33.89816,"longitude":-84.28326},{"id":115418,"name":"Dougherty County","latitude":31.53337,"longitude":-84.21625},{"id":115419,"name":"Douglas","latitude":31.50881,"longitude":-82.84987},{"id":115425,"name":"Douglas County","latitude":33.70182,"longitude":-84.76793},{"id":115440,"name":"Douglasville","latitude":33.7515,"longitude":-84.74771},{"id":115480,"name":"Druid Hills","latitude":33.78038,"longitude":-84.33604},{"id":115491,"name":"Dublin","latitude":32.54044,"longitude":-82.90375},{"id":115512,"name":"Duluth","latitude":34.00288,"longitude":-84.14464},{"id":115555,"name":"Dunwoody","latitude":33.94621,"longitude":-84.33465},{"id":115623,"name":"Early County","latitude":31.32283,"longitude":-84.90364},{"id":115651,"name":"East Dublin","latitude":32.54822,"longitude":-82.87181},{"id":115675,"name":"East Griffin","latitude":33.24373,"longitude":-84.22881},{"id":115721,"name":"East Newnan","latitude":33.35067,"longitude":-84.7766},{"id":115737,"name":"East Point","latitude":33.67955,"longitude":-84.43937},{"id":115783,"name":"Eastman","latitude":32.19767,"longitude":-83.17765},{"id":115806,"name":"Eatonton","latitude":33.3268,"longitude":-83.3885},{"id":115815,"name":"Echols County","latitude":30.71009,"longitude":-82.89394},{"id":115874,"name":"Edison","latitude":31.55823,"longitude":-84.73825},{"id":115898,"name":"Effingham County","latitude":32.36731,"longitude":-81.34134},{"id":115942,"name":"Elbert County","latitude":34.11679,"longitude":-82.8401},{"id":115945,"name":"Elberton","latitude":34.11159,"longitude":-82.86863},{"id":116016,"name":"Ellaville","latitude":32.23821,"longitude":-84.30908},{"id":116025,"name":"Ellijay","latitude":34.69481,"longitude":-84.48215},{"id":116088,"name":"Emanuel County","latitude":32.58976,"longitude":-82.30171},{"id":116093,"name":"Emerson","latitude":34.12704,"longitude":-84.75549},{"id":116139,"name":"Enigma","latitude":31.41297,"longitude":-83.32905},{"id":116227,"name":"Euharlee","latitude":34.14482,"longitude":-84.933},{"id":116245,"name":"Evans","latitude":33.53375,"longitude":-82.13067},{"id":116248,"name":"Evans County","latitude":32.15676,"longitude":-81.88688},{"id":116276,"name":"Experiment","latitude":33.26539,"longitude":-84.28159},{"id":116285,"name":"Fair Oaks","latitude":33.91649,"longitude":-84.54465},{"id":116293,"name":"Fairburn","latitude":33.56706,"longitude":-84.58104},{"id":116347,"name":"Fairview","latitude":34.94563,"longitude":-85.2844},{"id":116392,"name":"Fannin County","latitude":34.86411,"longitude":-84.31985},{"id":116444,"name":"Fayette County","latitude":33.41394,"longitude":-84.49419},{"id":116455,"name":"Fayetteville","latitude":33.44873,"longitude":-84.45493},{"id":116522,"name":"Firing Range","latitude":33.43752,"longitude":-82.69068},{"id":116536,"name":"Fitzgerald","latitude":31.71491,"longitude":-83.25265},{"id":116602,"name":"Flowery Branch","latitude":34.1851,"longitude":-83.92518},{"id":116606,"name":"Floyd County","latitude":34.26316,"longitude":-85.21428},{"id":116621,"name":"Folkston","latitude":30.83095,"longitude":-82.01131},{"id":116664,"name":"Forest Park","latitude":33.62205,"longitude":-84.36909},{"id":116683,"name":"Forsyth","latitude":33.0343,"longitude":-83.93824},{"id":116686,"name":"Forsyth County","latitude":34.22551,"longitude":-84.12502},{"id":116711,"name":"Fort Gaines","latitude":31.60924,"longitude":-85.04933},{"id":116737,"name":"Fort Oglethorpe","latitude":34.94896,"longitude":-85.2569},{"id":116751,"name":"Fort Stewart","latitude":31.87217,"longitude":-81.61001},{"id":116757,"name":"Fort Valley","latitude":32.55376,"longitude":-83.88741},{"id":116826,"name":"Franklin","latitude":33.27762,"longitude":-85.098},{"id":116846,"name":"Franklin County","latitude":34.37544,"longitude":-83.22918},{"id":116871,"name":"Franklin Springs","latitude":34.28483,"longitude":-83.14432},{"id":116993,"name":"Fulton County","latitude":33.79025,"longitude":-84.46702},{"id":117015,"name":"Gainesville","latitude":34.29788,"longitude":-83.82407},{"id":117054,"name":"Garden City","latitude":32.11437,"longitude":-81.154},{"id":117156,"name":"Georgetown","latitude":31.98326,"longitude":-81.22733},{"id":117187,"name":"Gibson","latitude":33.23348,"longitude":-82.59541},{"id":117222,"name":"Gilmer County","latitude":34.69121,"longitude":-84.45559},{"id":117243,"name":"Glascock County","latitude":33.22928,"longitude":-82.6107},{"id":117300,"name":"Glennville","latitude":31.93659,"longitude":-81.92845},{"id":117331,"name":"Glynn County","latitude":31.21324,"longitude":-81.4937},{"id":117396,"name":"Gordon","latitude":32.88209,"longitude":-83.33238},{"id":117398,"name":"Gordon County","latitude":34.50336,"longitude":-84.87575},{"id":117426,"name":"Grady County","latitude":30.87467,"longitude":-84.23443},{"id":117532,"name":"Grantville","latitude":33.23484,"longitude":-84.83577},{"id":117550,"name":"Gray","latitude":33.00958,"longitude":-83.53378},{"id":117560,"name":"Grayson","latitude":33.89427,"longitude":-83.95574},{"id":117633,"name":"Greene County","latitude":33.57878,"longitude":-83.16666},{"id":117665,"name":"Greensboro","latitude":33.57568,"longitude":-83.18238},{"id":117684,"name":"Greenville","latitude":33.02874,"longitude":-84.71298},{"id":117723,"name":"Gresham Park","latitude":33.70344,"longitude":-84.31437},{"id":117731,"name":"Griffin","latitude":33.24678,"longitude":-84.26409},{"id":117765,"name":"Grovetown","latitude":33.45042,"longitude":-82.19818},{"id":117799,"name":"Gumlog","latitude":34.49177,"longitude":-83.09654},{"id":117819,"name":"Guyton","latitude":32.3363,"longitude":-81.3915},{"id":117821,"name":"Gwinnett County","latitude":33.96173,"longitude":-84.02363},{"id":117824,"name":"Habersham County","latitude":34.63102,"longitude":-83.53112},{"id":117839,"name":"Hahira","latitude":30.99131,"longitude":-83.37266},{"id":117864,"name":"Hall County","latitude":34.31689,"longitude":-83.81968},{"id":117888,"name":"Hamilton","latitude":32.75791,"longitude":-84.87493},{"id":117927,"name":"Hampton","latitude":33.38706,"longitude":-84.28298},{"id":117950,"name":"Hancock County","latitude":33.27043,"longitude":-83.00069},{"id":117963,"name":"Hannahs Mill","latitude":32.93291,"longitude":-84.34936},{"id":117981,"name":"Hapeville","latitude":33.66011,"longitude":-84.4102},{"id":117985,"name":"Haralson County","latitude":33.79423,"longitude":-85.21103},{"id":118007,"name":"Hardwick","latitude":33.0682,"longitude":-83.22349},{"id":118022,"name":"Harlem","latitude":33.41458,"longitude":-82.31262},{"id":118044,"name":"Harris County","latitude":32.736,"longitude":-84.90899},{"id":118082,"name":"Hart County","latitude":34.3509,"longitude":-82.96425},{"id":118107,"name":"Hartwell","latitude":34.35288,"longitude":-82.93209},{"id":118167,"name":"Hawkinsville","latitude":32.28377,"longitude":-83.47212},{"id":118211,"name":"Hazlehurst","latitude":31.86963,"longitude":-82.5943},{"id":118220,"name":"Heard County","latitude":33.29703,"longitude":-85.12827},{"id":118248,"name":"Helena","latitude":32.07379,"longitude":-82.91459},{"id":118279,"name":"Henderson","latitude":32.00813,"longitude":-81.25887},{"id":118298,"name":"Henry County","latitude":33.453,"longitude":-84.1542},{"id":118309,"name":"Hephzibah","latitude":33.31403,"longitude":-82.09679},{"id":118356,"name":"Hiawassee","latitude":34.94926,"longitude":-83.75739},{"id":118482,"name":"Hinesville","latitude":31.84688,"longitude":-81.59595},{"id":118490,"name":"Hiram","latitude":33.87566,"longitude":-84.76216},{"id":118511,"name":"Hogansville","latitude":33.17318,"longitude":-84.91494},{"id":118561,"name":"Holly Springs","latitude":34.17399,"longitude":-84.50132},{"id":118592,"name":"Homer","latitude":34.33372,"longitude":-83.49905},{"id":118600,"name":"Homerville","latitude":31.0366,"longitude":-82.74708},{"id":118680,"name":"Hoschton","latitude":34.0965,"longitude":-83.76128},{"id":118703,"name":"Houston County","latitude":32.45901,"longitude":-83.66624},{"id":118918,"name":"Indian Springs","latitude":34.95785,"longitude":-85.1644},{"id":118995,"name":"Irondale","latitude":33.48067,"longitude":-84.35881},{"id":119013,"name":"Irwin County","latitude":31.60228,"longitude":-83.27638},{"id":119015,"name":"Irwinton","latitude":32.81126,"longitude":-83.17265},{"id":119030,"name":"Isle of Hope","latitude":31.98188,"longitude":-81.06094},{"id":119061,"name":"Jackson","latitude":33.29457,"longitude":-83.96602},{"id":119078,"name":"Jackson County","latitude":34.13388,"longitude":-83.56635},{"id":119142,"name":"Jasper","latitude":34.46787,"longitude":-84.42909},{"id":119145,"name":"Jasper County","latitude":33.31643,"longitude":-83.68809},{"id":119160,"name":"Jeff Davis County","latitude":31.8056,"longitude":-82.63694},{"id":119162,"name":"Jefferson","latitude":34.11705,"longitude":-83.57239},{"id":119178,"name":"Jefferson County","latitude":33.05484,"longitude":-82.41815},{"id":119207,"name":"Jeffersonville","latitude":32.68765,"longitude":-83.34656},{"id":119215,"name":"Jenkins County","latitude":32.79247,"longitude":-81.96353},{"id":119239,"name":"Jesup","latitude":31.60785,"longitude":-81.88634},{"id":119252,"name":"Johns Creek","latitude":34.02893,"longitude":-84.19858},{"id":119261,"name":"Johnson County","latitude":32.70146,"longitude":-82.66008},{"id":119292,"name":"Jones County","latitude":33.02513,"longitude":-83.56052},{"id":119300,"name":"Jonesboro","latitude":33.5215,"longitude":-84.35381},{"id":119471,"name":"Kennesaw","latitude":34.02343,"longitude":-84.61549},{"id":119597,"name":"Kings Bay Base","latitude":30.79836,"longitude":-81.56589},{"id":119615,"name":"Kingsland","latitude":30.79996,"longitude":-81.68983},{"id":119693,"name":"Knoxville","latitude":32.72431,"longitude":-83.99769},{"id":119799,"name":"LaFayette","latitude":34.7048,"longitude":-85.2819},{"id":119801,"name":"LaGrange","latitude":33.03929,"longitude":-85.03133},{"id":119880,"name":"Lake City","latitude":33.6065,"longitude":-84.3352},{"id":120013,"name":"Lakeland","latitude":31.04104,"longitude":-83.07515},{"id":120037,"name":"Lakeview","latitude":34.97924,"longitude":-85.25884},{"id":120042,"name":"Lakeview Estates","latitude":33.70678,"longitude":-84.03158},{"id":120062,"name":"Lamar County","latitude":33.07654,"longitude":-84.13946},{"id":120119,"name":"Lanier County","latitude":31.03789,"longitude":-83.06265},{"id":120208,"name":"Laurens County","latitude":32.46366,"longitude":-82.92224},{"id":120220,"name":"Lavonia","latitude":34.43594,"longitude":-83.10682},{"id":120243,"name":"Lawrenceville","latitude":33.95621,"longitude":-83.98796},{"id":120309,"name":"Lee County","latitude":31.77951,"longitude":-84.14113},{"id":120325,"name":"Leesburg","latitude":31.73212,"longitude":-84.17074},{"id":120438,"name":"Lexington","latitude":33.86984,"longitude":-83.11182},{"id":120471,"name":"Liberty County","latitude":31.80723,"longitude":-81.45626},{"id":120485,"name":"Lilburn","latitude":33.8901,"longitude":-84.14297},{"id":120517,"name":"Lincoln County","latitude":33.79366,"longitude":-82.45121},{"id":120551,"name":"Lincolnton","latitude":33.79235,"longitude":-82.47902},{"id":120558,"name":"Lindale","latitude":34.18676,"longitude":-85.17467},{"id":120610,"name":"Lithia Springs","latitude":33.794,"longitude":-84.66049},{"id":120611,"name":"Lithonia","latitude":33.71233,"longitude":-84.10519},{"id":120686,"name":"Locust Grove","latitude":33.34595,"longitude":-84.10908},{"id":120708,"name":"Loganville","latitude":33.839,"longitude":-83.90074},{"id":120741,"name":"Long County","latitude":31.75258,"longitude":-81.74577},{"id":120765,"name":"Lookout Mountain","latitude":34.97758,"longitude":-85.35774},{"id":120811,"name":"Louisville","latitude":33.00154,"longitude":-82.41124},{"id":120821,"name":"Lovejoy","latitude":33.43622,"longitude":-84.31437},{"id":120847,"name":"Lowndes County","latitude":30.83386,"longitude":-83.26771},{"id":120871,"name":"Ludowici","latitude":31.70799,"longitude":-81.74234},{"id":120875,"name":"Lula","latitude":34.3876,"longitude":-83.66629},{"id":120878,"name":"Lumber City","latitude":31.92935,"longitude":-82.67958},{"id":120882,"name":"Lumpkin","latitude":32.05099,"longitude":-84.79909},{"id":120883,"name":"Lumpkin County","latitude":34.57219,"longitude":-84.00265},{"id":120940,"name":"Lyons","latitude":32.20435,"longitude":-82.32179},{"id":120949,"name":"Mableton","latitude":33.81872,"longitude":-84.58243},{"id":120964,"name":"Macon","latitude":32.84069,"longitude":-83.6324},{"id":120968,"name":"Macon County","latitude":32.35839,"longitude":-84.04248},{"id":120986,"name":"Madison","latitude":33.59568,"longitude":-83.46794},{"id":121005,"name":"Madison County","latitude":34.12778,"longitude":-83.20904},{"id":121089,"name":"Manchester","latitude":32.85985,"longitude":-84.61993},{"id":121216,"name":"Marietta","latitude":33.9526,"longitude":-84.54993},{"id":121250,"name":"Marion County","latitude":32.35338,"longitude":-84.52464},{"id":121324,"name":"Marshallville","latitude":32.45626,"longitude":-83.94019},{"id":121344,"name":"Martinez","latitude":33.51736,"longitude":-82.07567},{"id":121448,"name":"Maysville","latitude":34.25288,"longitude":-83.56155},{"id":121467,"name":"McCaysville","latitude":34.98619,"longitude":-84.37131},{"id":121493,"name":"McDonough","latitude":33.44734,"longitude":-84.14686},{"id":121497,"name":"McDuffie County","latitude":33.48285,"longitude":-82.48137},{"id":121513,"name":"McIntosh County","latitude":31.48381,"longitude":-81.37557},{"id":121550,"name":"McRae","latitude":32.06795,"longitude":-82.9007},{"id":121617,"name":"Meigs","latitude":31.07241,"longitude":-84.08907},{"id":121699,"name":"Meriwether County","latitude":33.04066,"longitude":-84.68831},{"id":121737,"name":"Metter","latitude":32.39712,"longitude":-82.06012},{"id":121813,"name":"Midway","latitude":31.80577,"longitude":-81.43066},{"id":121877,"name":"Milledgeville","latitude":33.08014,"longitude":-83.2321},{"id":121878,"name":"Millen","latitude":32.80405,"longitude":-81.94928},{"id":121881,"name":"Miller County","latitude":31.16399,"longitude":-84.73072},{"id":121920,"name":"Milton","latitude":34.13216,"longitude":-84.30067},{"id":121999,"name":"Mitchell County","latitude":31.22532,"longitude":-84.19431},{"id":122057,"name":"Monroe","latitude":33.79484,"longitude":-83.71323},{"id":122070,"name":"Monroe County","latitude":33.01408,"longitude":-83.91872},{"id":122127,"name":"Montezuma","latitude":32.30516,"longitude":-84.02741},{"id":122131,"name":"Montgomery","latitude":31.94049,"longitude":-81.12205},{"id":122141,"name":"Montgomery County","latitude":32.17336,"longitude":-82.53482},{"id":122160,"name":"Monticello","latitude":33.30485,"longitude":-83.68323},{"id":122233,"name":"Morgan","latitude":31.53767,"longitude":-84.59936},{"id":122237,"name":"Morgan County","latitude":33.59083,"longitude":-83.49238},{"id":122289,"name":"Morrow","latitude":33.58317,"longitude":-84.33937},{"id":122316,"name":"Moultrie","latitude":31.17991,"longitude":-83.78906},{"id":122329,"name":"Mount Airy","latitude":34.51871,"longitude":-83.50073},{"id":122395,"name":"Mount Vernon","latitude":32.17851,"longitude":-82.59458},{"id":122408,"name":"Mount Zion","latitude":33.63428,"longitude":-85.18717},{"id":122411,"name":"Mountain City","latitude":34.91815,"longitude":-83.38544},{"id":122424,"name":"Mountain Park","latitude":33.84427,"longitude":-84.12936},{"id":122493,"name":"Murray County","latitude":34.78845,"longitude":-84.74809},{"id":122505,"name":"Muscogee County","latitude":32.50996,"longitude":-84.87704},{"id":122536,"name":"Nahunta","latitude":31.20439,"longitude":-81.98123},{"id":122575,"name":"Nashville","latitude":31.20742,"longitude":-83.25015},{"id":122624,"name":"Nelson","latitude":34.38204,"longitude":-84.37103},{"id":122837,"name":"Newnan","latitude":33.38067,"longitude":-84.79966},{"id":122859,"name":"Newton","latitude":31.31296,"longitude":-84.33574},{"id":122869,"name":"Newton County","latitude":33.55505,"longitude":-83.85019},{"id":122890,"name":"Nicholls","latitude":31.51742,"longitude":-82.63486},{"id":122892,"name":"Nicholson","latitude":34.114,"longitude":-83.43155},{"id":122940,"name":"Norcross","latitude":33.94121,"longitude":-84.21353},{"id":122966,"name":"North Atlanta","latitude":33.8651,"longitude":-84.33659},{"id":123014,"name":"North Decatur","latitude":33.79038,"longitude":-84.30603},{"id":123015,"name":"North Druid Hills","latitude":33.81677,"longitude":-84.31326},{"id":123308,"name":"Oakwood","latitude":34.2276,"longitude":-83.88435},{"id":123346,"name":"Ocilla","latitude":31.59447,"longitude":-83.2513},{"id":123348,"name":"Oconee County","latitude":33.83494,"longitude":-83.43705},{"id":123378,"name":"Oglethorpe","latitude":32.29377,"longitude":-84.06102},{"id":123379,"name":"Oglethorpe County","latitude":33.88065,"longitude":-83.0807},{"id":123465,"name":"Omega","latitude":31.34102,"longitude":-83.5935},{"id":123676,"name":"Oxford","latitude":33.619,"longitude":-83.86741},{"id":123765,"name":"Palmetto","latitude":33.51789,"longitude":-84.66965},{"id":123808,"name":"Panthersville","latitude":33.70733,"longitude":-84.27187},{"id":123922,"name":"Paulding County","latitude":33.92055,"longitude":-84.86729},{"id":123956,"name":"Peach County","latitude":32.56878,"longitude":-83.82688},{"id":123959,"name":"Peachtree City","latitude":33.39678,"longitude":-84.59576},{"id":123960,"name":"Peachtree Corners","latitude":33.9701,"longitude":-84.22159},{"id":123973,"name":"Pearson","latitude":31.2977,"longitude":-82.85237},{"id":123989,"name":"Pelham","latitude":31.12802,"longitude":-84.15304},{"id":124004,"name":"Pembroke","latitude":32.13634,"longitude":-81.62348},{"id":124068,"name":"Perry","latitude":32.45821,"longitude":-83.73157},{"id":124157,"name":"Pickens County","latitude":34.46432,"longitude":-84.46564},{"id":124171,"name":"Pierce County","latitude":31.35876,"longitude":-82.21274},{"id":124187,"name":"Pike County","latitude":33.09227,"longitude":-84.38923},{"id":124238,"name":"Pine Mountain","latitude":32.86485,"longitude":-84.8541},{"id":124442,"name":"Polk County","latitude":34.00178,"longitude":-85.18815},{"id":124479,"name":"Pooler","latitude":32.11548,"longitude":-81.24706},{"id":124542,"name":"Port Wentworth","latitude":32.14909,"longitude":-81.16317},{"id":124555,"name":"Porterdale","latitude":33.57511,"longitude":-83.8938},{"id":124608,"name":"Powder Springs","latitude":33.85955,"longitude":-84.68382},{"id":124653,"name":"Preston","latitude":32.06599,"longitude":-84.53742},{"id":124738,"name":"Pulaski County","latitude":32.2323,"longitude":-83.47596},{"id":124762,"name":"Putnam County","latitude":33.32177,"longitude":-83.37284},{"id":124770,"name":"Putney","latitude":31.47018,"longitude":-84.11768},{"id":124805,"name":"Quitman","latitude":30.78492,"longitude":-83.55988},{"id":124808,"name":"Quitman County","latitude":31.86733,"longitude":-85.01878},{"id":124810,"name":"Rabun County","latitude":34.88168,"longitude":-83.40214},{"id":124874,"name":"Randolph County","latitude":31.76262,"longitude":-84.75419},{"id":124892,"name":"Raoul","latitude":34.44954,"longitude":-83.59434},{"id":124915,"name":"Ray City","latitude":31.07464,"longitude":-83.19932},{"id":124964,"name":"Redan","latitude":33.74538,"longitude":-84.13158},{"id":124992,"name":"Reed Creek","latitude":34.44594,"longitude":-82.92487},{"id":125007,"name":"Reidsville","latitude":32.08686,"longitude":-82.1179},{"id":125013,"name":"Remerton","latitude":30.84409,"longitude":-83.31043},{"id":125039,"name":"Reynolds","latitude":32.55987,"longitude":-84.0963},{"id":125067,"name":"Richland","latitude":32.08793,"longitude":-84.66742},{"id":125098,"name":"Richmond County","latitude":33.35963,"longitude":-82.07355},{"id":125104,"name":"Richmond Hill","latitude":31.93827,"longitude":-81.30344},{"id":125139,"name":"Rincon","latitude":32.29603,"longitude":-81.23539},{"id":125141,"name":"Ringgold","latitude":34.91591,"longitude":-85.10912},{"id":125192,"name":"Riverdale","latitude":33.57261,"longitude":-84.41326},{"id":125252,"name":"Robins Air Force Base","latitude":32.60911,"longitude":-83.58444},{"id":125258,"name":"Rochelle","latitude":31.95101,"longitude":-83.45627},{"id":125297,"name":"Rockdale County","latitude":33.65424,"longitude":-84.02661},{"id":125314,"name":"Rockmart","latitude":34.0026,"longitude":-85.04161},{"id":125375,"name":"Rome","latitude":34.25704,"longitude":-85.16467},{"id":125456,"name":"Rossville","latitude":34.98313,"longitude":-85.28607},{"id":125462,"name":"Roswell","latitude":34.02316,"longitude":-84.36159},{"id":125500,"name":"Royston","latitude":34.28705,"longitude":-83.11015},{"id":125532,"name":"Russell","latitude":33.97872,"longitude":-83.70017},{"id":125560,"name":"Rydal","latitude":34.33537,"longitude":-84.71549},{"id":125714,"name":"Saint Simon Mills","latitude":31.17079,"longitude":-81.40732},{"id":125715,"name":"Saint Simons Island","latitude":31.15051,"longitude":-81.36954},{"id":125865,"name":"Sandersville","latitude":32.98154,"longitude":-82.81014},{"id":125884,"name":"Sandy Springs","latitude":33.92427,"longitude":-84.37854},{"id":125947,"name":"Sardis","latitude":32.79652,"longitude":-84.63881},{"id":125974,"name":"Savannah","latitude":32.08354,"longitude":-81.09983},{"id":126009,"name":"Schley County","latitude":32.26169,"longitude":-84.31472},{"id":126055,"name":"Scottdale","latitude":33.78983,"longitude":-84.26409},{"id":126068,"name":"Screven County","latitude":32.75059,"longitude":-81.61193},{"id":126148,"name":"Seminole County","latitude":30.93878,"longitude":-84.86887},{"id":126162,"name":"Senoia","latitude":33.30234,"longitude":-84.55382},{"id":126218,"name":"Shannon","latitude":34.33676,"longitude":-85.07134},{"id":126479,"name":"Skidaway Island","latitude":31.93494,"longitude":-81.04705},{"id":126535,"name":"Smyrna","latitude":33.88399,"longitude":-84.51438},{"id":126541,"name":"Snellville","latitude":33.85733,"longitude":-84.01991},{"id":126555,"name":"Social Circle","latitude":33.65623,"longitude":-83.71823},{"id":126602,"name":"Soperton","latitude":32.37712,"longitude":-82.59236},{"id":126795,"name":"Spalding County","latitude":33.26087,"longitude":-84.28416},{"id":126803,"name":"Sparks","latitude":31.16686,"longitude":-83.43738},{"id":126807,"name":"Sparta","latitude":33.2757,"longitude":-82.97626},{"id":126891,"name":"Springfield","latitude":32.37241,"longitude":-81.3115},{"id":126929,"name":"St. Marys","latitude":30.73051,"longitude":-81.54649},{"id":126996,"name":"Statenville","latitude":30.70327,"longitude":-83.02764},{"id":126997,"name":"Statesboro","latitude":32.44879,"longitude":-81.78317},{"id":126999,"name":"Statham","latitude":33.96511,"longitude":-83.59655},{"id":127021,"name":"Stephens County","latitude":34.55394,"longitude":-83.29343},{"id":127050,"name":"Stewart County","latitude":32.07846,"longitude":-84.8352},{"id":127067,"name":"Stockbridge","latitude":33.54428,"longitude":-84.23381},{"id":127083,"name":"Stone Mountain","latitude":33.80816,"longitude":-84.1702},{"id":127087,"name":"Stonecrest","latitude":33.70849,"longitude":-84.13485},{"id":127172,"name":"Sugar Hill","latitude":34.10649,"longitude":-84.03352},{"id":127209,"name":"Summerville","latitude":34.48064,"longitude":-85.34773},{"id":127230,"name":"Sumter County","latitude":32.03997,"longitude":-84.19704},{"id":127257,"name":"Sunnyside","latitude":31.23938,"longitude":-82.34207},{"id":127317,"name":"Suwanee","latitude":34.05149,"longitude":-84.0713},{"id":127320,"name":"Swainsboro","latitude":32.59739,"longitude":-82.33374},{"id":127360,"name":"Sylvania","latitude":32.75044,"longitude":-81.63678},{"id":127361,"name":"Sylvester","latitude":31.53092,"longitude":-83.83693},{"id":127383,"name":"Talbot County","latitude":32.69949,"longitude":-84.53301},{"id":127385,"name":"Talbotton","latitude":32.67764,"longitude":-84.53937},{"id":127387,"name":"Taliaferro County","latitude":33.56609,"longitude":-82.87876},{"id":127393,"name":"Tallapoosa","latitude":33.74455,"longitude":-85.28801},{"id":127439,"name":"Tattnall County","latitude":32.04575,"longitude":-82.05818},{"id":127452,"name":"Taylor County","latitude":32.55546,"longitude":-84.25046},{"id":127486,"name":"Telfair County","latitude":31.9298,"longitude":-82.93899},{"id":127497,"name":"Temple","latitude":33.73705,"longitude":-85.03244},{"id":127511,"name":"Tennille","latitude":32.93599,"longitude":-82.81153},{"id":127527,"name":"Terrell County","latitude":31.77688,"longitude":-84.43692},{"id":127579,"name":"Thomas County","latitude":30.86368,"longitude":-83.91931},{"id":127583,"name":"Thomaston","latitude":32.88819,"longitude":-84.32659},{"id":127588,"name":"Thomasville","latitude":30.83658,"longitude":-83.97878},{"id":127596,"name":"Thomson","latitude":33.47069,"longitude":-82.50457},{"id":127627,"name":"Thunderbolt","latitude":32.03354,"longitude":-81.04983},{"id":127641,"name":"Tift County","latitude":31.45744,"longitude":-83.52659},{"id":127642,"name":"Tifton","latitude":31.45046,"longitude":-83.5085},{"id":127691,"name":"Toccoa","latitude":34.57732,"longitude":-83.33239},{"id":127729,"name":"Toombs County","latitude":32.12172,"longitude":-82.33129},{"id":127763,"name":"Towns County","latitude":34.91665,"longitude":-83.73728},{"id":127802,"name":"Trenton","latitude":34.87202,"longitude":-85.50913},{"id":127812,"name":"Treutlen County","latitude":32.40388,"longitude":-82.56728},{"id":127830,"name":"Trion","latitude":34.54397,"longitude":-85.31051},{"id":127836,"name":"Troup County","latitude":33.03351,"longitude":-85.02834},{"id":127870,"name":"Tucker","latitude":33.85455,"longitude":-84.21714},{"id":127903,"name":"Turner County","latitude":31.71638,"longitude":-83.62409},{"id":127922,"name":"Twiggs County","latitude":32.6672,"longitude":-83.42708},{"id":127923,"name":"Twin City","latitude":32.58294,"longitude":-82.15512},{"id":127937,"name":"Tybee Island","latitude":32.00022,"longitude":-80.84567},{"id":127949,"name":"Tyrone","latitude":33.47123,"longitude":-84.59715},{"id":127964,"name":"Unadilla","latitude":32.26155,"longitude":-83.73657},{"id":127980,"name":"Union City","latitude":33.58706,"longitude":-84.54243},{"id":127990,"name":"Union County","latitude":34.83401,"longitude":-83.99076},{"id":128010,"name":"Union Point","latitude":33.61568,"longitude":-83.0746},{"id":128017,"name":"Unionville","latitude":31.43491,"longitude":-83.50961},{"id":128054,"name":"Upson County","latitude":32.88127,"longitude":-84.29934},{"id":128085,"name":"Valdosta","latitude":30.83334,"longitude":-83.28032},{"id":128155,"name":"Varnell","latitude":34.90119,"longitude":-84.97383},{"id":128227,"name":"Vidalia","latitude":32.21769,"longitude":-82.41346},{"id":128230,"name":"Vienna","latitude":32.09156,"longitude":-83.79545},{"id":128245,"name":"Villa Rica","latitude":33.73205,"longitude":-84.91911},{"id":128276,"name":"Vinings","latitude":33.86483,"longitude":-84.46437},{"id":128325,"name":"Wadley","latitude":32.86682,"longitude":-82.40402},{"id":128387,"name":"Walker County","latitude":34.73566,"longitude":-85.30098},{"id":128417,"name":"Walnut Grove","latitude":33.74261,"longitude":-83.8524},{"id":128433,"name":"Walthourville","latitude":31.7741,"longitude":-81.63261},{"id":128438,"name":"Walton County","latitude":33.78156,"longitude":-83.73385},{"id":128463,"name":"Ware County","latitude":31.05363,"longitude":-82.42368},{"id":128474,"name":"Warner Robins","latitude":32.61574,"longitude":-83.62664},{"id":128486,"name":"Warren County","latitude":33.40896,"longitude":-82.67676},{"id":128504,"name":"Warrenton","latitude":33.40708,"longitude":-82.66208},{"id":128539,"name":"Washington","latitude":33.73679,"longitude":-82.73931},{"id":128555,"name":"Washington County","latitude":32.96954,"longitude":-82.7959},{"id":128635,"name":"Watkinsville","latitude":33.8629,"longitude":-83.40877},{"id":128676,"name":"Waycross","latitude":31.21368,"longitude":-82.3557},{"id":128689,"name":"Wayne County","latitude":31.55143,"longitude":-81.91676},{"id":128705,"name":"Waynesboro","latitude":33.08987,"longitude":-82.01567},{"id":128736,"name":"Webster County","latitude":32.04665,"longitude":-84.55105},{"id":128958,"name":"West Point","latitude":32.87791,"longitude":-85.18327},{"id":129001,"name":"West Warrenton","latitude":33.41217,"longitude":-82.67517},{"id":129116,"name":"Wheeler County","latitude":32.11707,"longitude":-82.72459},{"id":129135,"name":"White County","latitude":34.64636,"longitude":-83.74711},{"id":129178,"name":"Whitemarsh Island","latitude":32.02882,"longitude":-81.01678},{"id":129195,"name":"Whitfield County","latitude":34.80561,"longitude":-84.96722},{"id":129229,"name":"Wilcox County","latitude":31.9729,"longitude":-83.43236},{"id":129244,"name":"Wilkes County","latitude":33.78195,"longitude":-82.74323},{"id":129250,"name":"Wilkinson County","latitude":32.80241,"longitude":-83.17125},{"id":129254,"name":"Willacoochee","latitude":31.34076,"longitude":-83.04598},{"id":129325,"name":"Wilmington Island","latitude":32.00355,"longitude":-80.97372},{"id":129369,"name":"Winder","latitude":33.99261,"longitude":-83.72017},{"id":129447,"name":"Winterville","latitude":33.96706,"longitude":-83.27821},{"id":129494,"name":"Woodbine","latitude":30.96396,"longitude":-81.72416},{"id":129561,"name":"Woodstock","latitude":34.10149,"longitude":-84.51938},{"id":129592,"name":"Worth County","latitude":31.55151,"longitude":-83.85088},{"id":129603,"name":"Wrens","latitude":33.20765,"longitude":-82.39179},{"id":129614,"name":"Wrightsville","latitude":32.72933,"longitude":-82.71986},{"id":129715,"name":"Young Harris","latitude":34.93315,"longitude":-83.84712},{"id":129742,"name":"Zebulon","latitude":33.10235,"longitude":-84.3427}]