[{"id":105198,"name":"Amphoe Ban Laem","latitude":13.16968,"longitude":99.98771},{"id":105199,"name":"Amphoe Ban Lat","latitude":13.04533,"longitude":99.83788},{"id":105266,"name":"Amphoe Cha-am","latitude":12.75374,"longitude":99.89828},{"id":105366,"name":"Amphoe Kaeng Krachan","latitude":12.85919,"longitude":99.46339},{"id":105400,"name":"Amphoe Khao Yoi","latitude":13.2424,"longitude":99.80753},{"id":105571,"name":"Amphoe Mueang Phetchaburi","latitude":13.08173,"longitude":99.96721},{"id":105685,"name":"Amphoe Nong Ya Plong","latitude":13.1259,"longitude":99.4688},{"id":106292,"name":"Amphoe Tha Yang","latitude":12.81743,"longitude":99.78738},{"id":106459,"name":"Cha-am","latitude":12.8,"longitude":99.96667},{"id":106521,"name":"Khao Yoi","latitude":13.24025,"longitude":99.82428},{"id":106632,"name":"Phetchaburi","latitude":13.11189,"longitude":99.94467},{"id":106725,"name":"Tha Yang","latitude":12.95772,"longitude":99.90555}]