[{"id":57063,"name":"Abbeyleix","latitude":52.91331,"longitude":-7.34456},{"id":57068,"name":"An Iarmhí","latitude":53.5,"longitude":-7.5},{"id":57069,"name":"An Longfort","latitude":53.66667,"longitude":-7.75},{"id":57070,"name":"An Mhí","latitude":53.66667,"longitude":-6.66667},{"id":57071,"name":"An Muileann gCearr","latitude":53.53333,"longitude":-7.35},{"id":57072,"name":"An Ros","latitude":53.52424,"longitude":-6.10497},{"id":57074,"name":"Ardee","latitude":53.85972,"longitude":-6.54056},{"id":57076,"name":"Arklow","latitude":52.79306,"longitude":-6.14139},{"id":57077,"name":"Artane","latitude":53.38712,"longitude":-6.2138},{"id":57078,"name":"Ashbourne","latitude":53.51163,"longitude":-6.39821},{"id":57079,"name":"Ashford","latitude":53.00833,"longitude":-6.11139},{"id":57081,"name":"Athboy","latitude":53.62327,"longitude":-6.91434},{"id":57083,"name":"Athgarvan","latitude":53.15229,"longitude":-6.78173},{"id":57084,"name":"Athlone","latitude":53.43333,"longitude":-7.95},{"id":57085,"name":"Athy","latitude":52.99139,"longitude":-6.98028},{"id":57086,"name":"Aughrim","latitude":52.85333,"longitude":-6.3275},{"id":57087,"name":"Bagenalstown","latitude":52.70031,"longitude":-6.96181},{"id":57089,"name":"Balally","latitude":53.27504,"longitude":-6.23594},{"id":57090,"name":"Balbriggan","latitude":53.60846,"longitude":-6.1831},{"id":57091,"name":"Baldoyle","latitude":53.39972,"longitude":-6.12583},{"id":57096,"name":"Ballinroad","latitude":52.51789,"longitude":-6.40619},{"id":57098,"name":"Ballinteer","latitude":53.27409,"longitude":-6.25397},{"id":57100,"name":"Ballivor","latitude":53.53167,"longitude":-6.96111},{"id":57101,"name":"Ballyboden","latitude":53.28056,"longitude":-6.31639},{"id":57105,"name":"Ballyfermot","latitude":53.34283,"longitude":-6.3548},{"id":57106,"name":"Ballygerry","latitude":52.24917,"longitude":-6.35739},{"id":57109,"name":"Ballylinan","latitude":52.94497,"longitude":-7.04073},{"id":57110,"name":"Ballymahon","latitude":53.56667,"longitude":-7.76667},{"id":57112,"name":"Ballymun","latitude":53.39807,"longitude":-6.26693},{"id":57113,"name":"Ballyragget","latitude":52.78889,"longitude":-7.33028},{"id":57115,"name":"Balrothery","latitude":53.58828,"longitude":-6.18728},{"id":57116,"name":"Baltinglass","latitude":52.93722,"longitude":-6.70917},{"id":57117,"name":"Banagher","latitude":53.18861,"longitude":-7.98667},{"id":57120,"name":"Bayside","latitude":53.38895,"longitude":-6.14041},{"id":57122,"name":"Beaumont","latitude":53.38721,"longitude":-6.22713},{"id":57125,"name":"Birr","latitude":53.09139,"longitude":-7.91333},{"id":57126,"name":"Blackrock","latitude":53.3015,"longitude":-6.1778},{"id":57127,"name":"Blanchardstown","latitude":53.38806,"longitude":-6.37556},{"id":57129,"name":"Blessington","latitude":53.17,"longitude":-6.5325},{"id":57130,"name":"Bonnybrook","latitude":53.39835,"longitude":-6.20749},{"id":57131,"name":"Booterstown","latitude":53.30447,"longitude":-6.19985},{"id":57133,"name":"Bray","latitude":53.20278,"longitude":-6.09833},{"id":57134,"name":"Bunclody","latitude":52.6553,"longitude":-6.65359},{"id":57137,"name":"Cabinteely","latitude":53.26973,"longitude":-6.16058},{"id":57138,"name":"Cabra","latitude":53.36694,"longitude":-6.29444},{"id":57142,"name":"Callan","latitude":52.545,"longitude":-7.39111},{"id":57143,"name":"Carlingford","latitude":54.04,"longitude":-6.18833},{"id":57144,"name":"Carlow","latitude":52.84083,"longitude":-6.92611},{"id":57146,"name":"Carnew","latitude":52.70806,"longitude":-6.49444},{"id":57154,"name":"Castlebellingham","latitude":53.90083,"longitude":-6.39028},{"id":57156,"name":"Castlebridge","latitude":52.38639,"longitude":-6.44944},{"id":57157,"name":"Castlecomer","latitude":52.80611,"longitude":-7.21056},{"id":57159,"name":"Castledermot","latitude":52.90889,"longitude":-6.84222},{"id":57161,"name":"Castleknock","latitude":53.37483,"longitude":-6.36336},{"id":57163,"name":"Castlepollard","latitude":53.67935,"longitude":-7.29736},{"id":57165,"name":"Castletown","latitude":52.72306,"longitude":-6.18944},{"id":57167,"name":"Celbridge","latitude":53.34165,"longitude":-6.54419},{"id":57168,"name":"Chapelizod","latitude":53.34846,"longitude":-6.34301},{"id":57169,"name":"Charlesland","latitude":53.12771,"longitude":-6.06347},{"id":57170,"name":"Cherry Orchard","latitude":53.33605,"longitude":-6.37799},{"id":57171,"name":"Cherryville","latitude":53.15694,"longitude":-6.96667},{"id":57174,"name":"Clane","latitude":53.29139,"longitude":-6.68917},{"id":57175,"name":"Clara","latitude":53.3425,"longitude":-7.61389},{"id":57179,"name":"Clogherhead","latitude":53.79361,"longitude":-6.2375},{"id":57181,"name":"Clondalkin","latitude":53.32444,"longitude":-6.39722},{"id":57183,"name":"Clonskeagh","latitude":53.31467,"longitude":-6.23148},{"id":57188,"name":"Confey","latitude":53.37923,"longitude":-6.49052},{"id":57190,"name":"Coolock","latitude":53.3887,"longitude":-6.19998},{"id":57194,"name":"County Carlow","latitude":52.66667,"longitude":-6.83333},{"id":57201,"name":"Courtown","latitude":52.64424,"longitude":-6.22899},{"id":57205,"name":"Crumlin","latitude":53.32154,"longitude":-6.31439},{"id":57206,"name":"Daingean","latitude":53.29611,"longitude":-7.28944},{"id":57207,"name":"Dalkey","latitude":53.27833,"longitude":-6.10028},{"id":57208,"name":"Darndale","latitude":53.39948,"longitude":-6.18886},{"id":57209,"name":"Derrinturn","latitude":53.34167,"longitude":-6.94111},{"id":57213,"name":"Dollymount","latitude":53.36489,"longitude":-6.18032},{"id":57214,"name":"Donabate","latitude":53.48722,"longitude":-6.15194},{"id":57215,"name":"Donaghmede","latitude":53.39845,"longitude":-6.16179},{"id":57217,"name":"Donnybrook","latitude":53.31375,"longitude":-6.22274},{"id":57218,"name":"Donnycarney","latitude":53.3735,"longitude":-6.20976},{"id":57219,"name":"Drogheda","latitude":53.71889,"longitude":-6.34778},{"id":57220,"name":"Droichead Nua","latitude":53.18194,"longitude":-6.79667},{"id":57221,"name":"Dromiskin","latitude":53.92538,"longitude":-6.40292},{"id":57222,"name":"Drumcondra","latitude":53.37058,"longitude":-6.25298},{"id":57223,"name":"Dublin","latitude":53.33306,"longitude":-6.24889},{"id":57224,"name":"Dublin City","latitude":53.35512,"longitude":-6.24922},{"id":57225,"name":"Duleek","latitude":53.65667,"longitude":-6.41917},{"id":57236,"name":"Dún Laoghaire","latitude":53.29395,"longitude":-6.13586},{"id":57237,"name":"Dún Laoghaire-Rathdown","latitude":53.29436,"longitude":-6.13489},{"id":57226,"name":"Dunboyne","latitude":53.41901,"longitude":-6.47375},{"id":57227,"name":"Dundalk","latitude":54.0,"longitude":-6.41667},{"id":57228,"name":"Dundrum","latitude":53.29067,"longitude":-6.25714},{"id":57231,"name":"Dunleer","latitude":53.835,"longitude":-6.39611},{"id":57235,"name":"Dunshaughlin","latitude":53.5125,"longitude":-6.54},{"id":57238,"name":"Eadestown","latitude":53.20278,"longitude":-6.57806},{"id":57239,"name":"Edenderry","latitude":53.33948,"longitude":-7.04752},{"id":57240,"name":"Edgeworthstown","latitude":53.7,"longitude":-7.61667},{"id":57241,"name":"Enfield","latitude":53.41419,"longitude":-6.83229},{"id":57243,"name":"Enniscorthy","latitude":52.50083,"longitude":-6.55778},{"id":57244,"name":"Enniskerry","latitude":53.1925,"longitude":-6.16917},{"id":57245,"name":"Fairview","latitude":53.36597,"longitude":-6.23985},{"id":57246,"name":"Ferbane","latitude":53.26944,"longitude":-7.82694},{"id":57248,"name":"Ferns","latitude":52.58833,"longitude":-6.49972},{"id":57250,"name":"Fingal County","latitude":53.45909,"longitude":-6.21942},{"id":57251,"name":"Finglas","latitude":53.38917,"longitude":-6.29694},{"id":57252,"name":"Firhouse","latitude":53.28167,"longitude":-6.33917},{"id":57254,"name":"Foxrock","latitude":53.26667,"longitude":-6.17417},{"id":57257,"name":"Glasnevin","latitude":53.37851,"longitude":-6.28028},{"id":57258,"name":"Gorey","latitude":52.67472,"longitude":-6.2925},{"id":57260,"name":"Graiguenamanagh","latitude":52.54028,"longitude":-6.95472},{"id":57261,"name":"Granard","latitude":53.77928,"longitude":-7.49429},{"id":57262,"name":"Greenhills","latitude":53.33467,"longitude":-6.30302},{"id":57263,"name":"Greystones","latitude":53.14083,"longitude":-6.06306},{"id":57265,"name":"Hartstown","latitude":53.39306,"longitude":-6.42694},{"id":57266,"name":"Howth","latitude":53.38778,"longitude":-6.06528},{"id":57268,"name":"Jobstown","latitude":53.27866,"longitude":-6.40803},{"id":57269,"name":"Johnstown","latitude":53.23833,"longitude":-6.62222},{"id":57271,"name":"Kells","latitude":53.72639,"longitude":-6.87917},{"id":57273,"name":"Kentstown","latitude":53.62754,"longitude":-6.52674},{"id":57274,"name":"Kilbeggan","latitude":53.36944,"longitude":-7.50333},{"id":57275,"name":"Kilcock","latitude":53.40222,"longitude":-6.67083},{"id":57276,"name":"Kilcoole","latitude":53.10278,"longitude":-6.065},{"id":57277,"name":"Kilcullen","latitude":53.13028,"longitude":-6.74444},{"id":57278,"name":"Kildare","latitude":53.16667,"longitude":-6.75},{"id":57279,"name":"Kilkenny","latitude":52.58333,"longitude":-7.25},{"id":57280,"name":"Kill","latitude":53.25139,"longitude":-6.59167},{"id":57282,"name":"Killester","latitude":53.37322,"longitude":-6.20431},{"id":57286,"name":"Kilmacanoge","latitude":53.16722,"longitude":-6.13361},{"id":57288,"name":"Kilpedder","latitude":53.10917,"longitude":-6.10667},{"id":57289,"name":"Kilquade","latitude":53.09743,"longitude":-6.08411},{"id":57294,"name":"Kinnegad","latitude":53.45222,"longitude":-7.09972},{"id":57296,"name":"Kinsealy-Drinan","latitude":53.44395,"longitude":-6.20334},{"id":57297,"name":"Knocklyon","latitude":53.2803,"longitude":-6.3313},{"id":57298,"name":"Lanesborough","latitude":53.66667,"longitude":-7.98333},{"id":57299,"name":"Laois","latitude":53.0,"longitude":-7.4},{"id":57300,"name":"Laytown","latitude":53.68194,"longitude":-6.23917},{"id":57302,"name":"Leixlip","latitude":53.36583,"longitude":-6.49556},{"id":57305,"name":"Little Bray","latitude":53.20444,"longitude":-6.12083},{"id":57306,"name":"Loch Garman","latitude":52.5,"longitude":-6.66667},{"id":57307,"name":"Longford","latitude":53.72536,"longitude":-7.79823},{"id":57308,"name":"Longwood","latitude":53.45389,"longitude":-6.92194},{"id":57309,"name":"Loughlinstown","latitude":53.24389,"longitude":-6.13306},{"id":57314,"name":"Lú","latitude":53.83333,"longitude":-6.5},{"id":57311,"name":"Lucan","latitude":53.35736,"longitude":-6.44859},{"id":57313,"name":"Lusk","latitude":53.52743,"longitude":-6.16423},{"id":57316,"name":"Malahide","latitude":53.45083,"longitude":-6.15444},{"id":57319,"name":"Marino","latitude":53.37022,"longitude":-6.23646},{"id":57320,"name":"Maynooth","latitude":53.385,"longitude":-6.59361},{"id":57324,"name":"Milltown","latitude":53.31301,"longitude":-6.2453},{"id":57326,"name":"Moate","latitude":53.39389,"longitude":-7.71722},{"id":57328,"name":"Monasterevin","latitude":53.14056,"longitude":-7.06639},{"id":57329,"name":"Monkstown","latitude":53.29308,"longitude":-6.15312},{"id":57330,"name":"Mooncoin","latitude":52.28944,"longitude":-7.24833},{"id":57331,"name":"Moone","latitude":52.97556,"longitude":-6.815},{"id":57333,"name":"Mount Merrion","latitude":53.30008,"longitude":-6.21504},{"id":57334,"name":"Mountmellick","latitude":53.11361,"longitude":-7.32},{"id":57335,"name":"Mountrath","latitude":52.99889,"longitude":-7.47278},{"id":57341,"name":"Naas","latitude":53.21583,"longitude":-6.66694},{"id":57342,"name":"Navan","latitude":53.65278,"longitude":-6.68139},{"id":57345,"name":"New Ross","latitude":52.39667,"longitude":-6.93667},{"id":57346,"name":"Newcastle","latitude":53.30111,"longitude":-6.50222},{"id":57351,"name":"Newtown Trim","latitude":53.55611,"longitude":-6.77},{"id":57352,"name":"Newtownmountkennedy","latitude":53.09052,"longitude":-6.11149},{"id":57353,"name":"Old Kilcullen","latitude":53.10639,"longitude":-6.76528},{"id":57354,"name":"Oldbawn","latitude":53.27556,"longitude":-6.3675},{"id":57355,"name":"Oldcastle","latitude":53.76648,"longitude":-7.16284},{"id":57358,"name":"Palmerstown","latitude":53.35019,"longitude":-6.37778},{"id":57360,"name":"Piltown","latitude":52.35333,"longitude":-7.34028},{"id":57361,"name":"Portarlington","latitude":53.16222,"longitude":-7.19111},{"id":57362,"name":"Portlaoise","latitude":53.03441,"longitude":-7.29979},{"id":57364,"name":"Portmarnock","latitude":53.42306,"longitude":-6.1375},{"id":57365,"name":"Portraine","latitude":53.49667,"longitude":-6.11111},{"id":57367,"name":"Prosperous","latitude":53.29028,"longitude":-6.75389},{"id":57368,"name":"Raheny","latitude":53.38681,"longitude":-6.18067},{"id":57371,"name":"Rathangan","latitude":53.22139,"longitude":-6.995},{"id":57372,"name":"Rathcoole","latitude":53.28278,"longitude":-6.47278},{"id":57374,"name":"Rathdowney","latitude":52.85472,"longitude":-7.58028},{"id":57375,"name":"Rathdrum","latitude":52.92639,"longitude":-6.23556},{"id":57376,"name":"Rathgar","latitude":53.31457,"longitude":-6.275},{"id":57378,"name":"Rathmines","latitude":53.32028,"longitude":-6.26333},{"id":57379,"name":"Rathnew","latitude":52.99056,"longitude":-6.08528},{"id":57380,"name":"Rathwire","latitude":53.50767,"longitude":-7.1351},{"id":57381,"name":"Ratoath","latitude":53.50806,"longitude":-6.4625},{"id":57382,"name":"Rialto","latitude":53.33625,"longitude":-6.29718},{"id":57383,"name":"Ringsend","latitude":53.34194,"longitude":-6.22639},{"id":57384,"name":"Rochfortbridge","latitude":53.41417,"longitude":-7.29611},{"id":57387,"name":"Rosslare","latitude":52.27583,"longitude":-6.38444},{"id":57389,"name":"Saggart","latitude":53.28028,"longitude":-6.44444},{"id":57390,"name":"Sallins","latitude":53.24889,"longitude":-6.66611},{"id":57391,"name":"Sallynoggin","latitude":53.27917,"longitude":-6.14058},{"id":57392,"name":"Sandyford","latitude":53.2747,"longitude":-6.2253},{"id":57393,"name":"Sandymount","latitude":53.32815,"longitude":-6.22224},{"id":57394,"name":"Shankill","latitude":53.22611,"longitude":-6.12444},{"id":57397,"name":"Skerries","latitude":53.58278,"longitude":-6.10833},{"id":57399,"name":"Slane","latitude":53.71,"longitude":-6.54333},{"id":57401,"name":"South Dublin","latitude":53.28595,"longitude":-6.37739},{"id":57402,"name":"Stamullin","latitude":53.62889,"longitude":-6.26833},{"id":57403,"name":"Stradbally","latitude":53.01556,"longitude":-7.15278},{"id":57405,"name":"Sutton","latitude":53.38947,"longitude":-6.11059},{"id":57407,"name":"Swords","latitude":53.45972,"longitude":-6.21806},{"id":57408,"name":"Tallaght","latitude":53.2859,"longitude":-6.37344},{"id":57410,"name":"Templeogue","latitude":53.29528,"longitude":-6.30889},{"id":57411,"name":"Terenure","latitude":53.30972,"longitude":-6.28528},{"id":57412,"name":"Termonfeckin","latitude":53.76333,"longitude":-6.26778},{"id":57413,"name":"Thomastown","latitude":52.52667,"longitude":-7.13722},{"id":57419,"name":"Trim","latitude":53.555,"longitude":-6.79167},{"id":57422,"name":"Tullamore","latitude":53.27389,"longitude":-7.48889},{"id":57423,"name":"Tullow","latitude":52.80028,"longitude":-6.73694},{"id":57424,"name":"Tullyallen","latitude":53.73611,"longitude":-6.42278},{"id":57425,"name":"Uíbh Fhailí","latitude":53.25,"longitude":-7.5},{"id":57426,"name":"Valleymount","latitude":53.10389,"longitude":-6.55361},{"id":57432,"name":"Wicklow","latitude":53.0,"longitude":-6.41667}]