[{"id":58064,"name":"Bishnupur","latitude":24.60769,"longitude":93.77998},{"id":131585,"name":"Churachandpur","latitude":24.33333,"longitude":93.68333},{"id":132162,"name":"Imphal","latitude":24.80805,"longitude":93.9442},{"id":132341,"name":"Kakching","latitude":24.4982,"longitude":93.98126},{"id":132953,"name":"Mayang Imphal","latitude":24.60998,"longitude":93.88873},{"id":132987,"name":"Moirang","latitude":24.4975,"longitude":93.77791},{"id":133437,"name":"Phek","latitude":25.66667,"longitude":94.5},{"id":133837,"name":"Senapati","latitude":25.26705,"longitude":94.02237},{"id":134109,"name":"Tamenglong","latitude":24.97548,"longitude":93.51563},{"id":134159,"name":"Thoubal","latitude":24.62205,"longitude":94.01001},{"id":134264,"name":"Ukhrul","latitude":25.04828,"longitude":94.35883},{"id":134415,"name":"Wangjing","latitude":24.58921,"longitude":94.06386},{"id":134421,"name":"Yairipok","latitude":24.67792,"longitude":94.04767}]