[{"id":31911,"name":"Abezames","latitude":41.62642,"longitude":-5.42577},{"id":32093,"name":"Alcañices","latitude":41.6994,"longitude":-6.34647},{"id":32126,"name":"Alcubilla de Nogales","latitude":42.12787,"longitude":-5.92184},{"id":152651,"name":"Alfaraz de Sayago","latitude":0.0,"longitude":0.0},{"id":32224,"name":"Algodre","latitude":41.56631,"longitude":-5.60406},{"id":32269,"name":"Almaraz de Duero","latitude":41.47505,"longitude":-5.91654},{"id":152652,"name":"Almeida de Sayago","latitude":0.0,"longitude":0.0},{"id":152653,"name":"Andavías","latitude":0.0,"longitude":0.0},{"id":32429,"name":"Arcenillas","latitude":41.45641,"longitude":-5.68512},{"id":32438,"name":"Arcos de la Polvorosa","latitude":41.94389,"longitude":-5.69731},{"id":32466,"name":"Argañín","latitude":41.43948,"longitude":-6.20827},{"id":32476,"name":"Argujillo","latitude":41.31156,"longitude":-5.58763},{"id":32498,"name":"Arquillinos","latitude":41.7099,"longitude":-5.65708},{"id":32500,"name":"Arrabalde","latitude":42.1076,"longitude":-5.89441},{"id":32536,"name":"Aspariegos","latitude":41.67458,"longitude":-5.59955},{"id":32542,"name":"Asturianos","latitude":42.05201,"longitude":-6.4894},{"id":32577,"name":"Ayoó de Vidriales","latitude":42.13042,"longitude":-6.0655},{"id":32657,"name":"Barcial del Barco","latitude":41.93353,"longitude":-5.66268},{"id":32754,"name":"Belver de los Montes","latitude":41.72284,"longitude":-5.45182},{"id":32781,"name":"Benavente","latitude":42.00249,"longitude":-5.67826},{"id":32784,"name":"Benegiles","latitude":41.627,"longitude":-5.63479},{"id":32860,"name":"Bermillo de Sayago","latitude":41.36648,"longitude":-6.11223},{"id":152654,"name":"Bóveda de Toro La","latitude":0.0,"longitude":0.0},{"id":32979,"name":"Bretó","latitude":41.87917,"longitude":-5.73902},{"id":32978,"name":"Bretocino","latitude":41.8843,"longitude":-5.75473},{"id":32985,"name":"Brime de Sog","latitude":42.06162,"longitude":-6.04791},{"id":32986,"name":"Brime de Urz","latitude":42.03794,"longitude":-5.87326},{"id":33024,"name":"Burganes de Valverde","latitude":41.9213,"longitude":-5.78244},{"id":33041,"name":"Bustillo del Oro","latitude":41.6746,"longitude":-5.46158},{"id":33072,"name":"Cabañas de Sayago","latitude":41.33333,"longitude":-5.78333},{"id":33162,"name":"Calzadilla de Tera","latitude":41.97899,"longitude":-6.08243},{"id":33171,"name":"Camarzana de Tera","latitude":41.99471,"longitude":-6.02657},{"id":33542,"name":"Cañizal","latitude":41.16654,"longitude":-5.36828},{"id":33546,"name":"Cañizo","latitude":41.76955,"longitude":-5.50199},{"id":33279,"name":"Carbajales de Alba","latitude":41.65347,"longitude":-5.99706},{"id":33284,"name":"Carbellino","latitude":41.22975,"longitude":-6.14901},{"id":33377,"name":"Casaseca de Campeán","latitude":41.37429,"longitude":-5.74648},{"id":33378,"name":"Casaseca de las Chanas","latitude":41.4387,"longitude":-5.67547},{"id":33480,"name":"Castrillo de la Guareña","latitude":41.23043,"longitude":-5.3255},{"id":33497,"name":"Castrogonzalo","latitude":41.99099,"longitude":-5.60301},{"id":33502,"name":"Castronuevo","latitude":41.72046,"longitude":-5.54315},{"id":33510,"name":"Castroverde de Campos","latitude":41.97049,"longitude":-5.31434},{"id":33525,"name":"Cazurra","latitude":41.41583,"longitude":-5.70454},{"id":33584,"name":"Cerecinos de Campos","latitude":41.90017,"longitude":-5.48605},{"id":33585,"name":"Cerecinos del Carrizal","latitude":41.68384,"longitude":-5.65303},{"id":33590,"name":"Cernadilla","latitude":42.02083,"longitude":-6.41701},{"id":33713,"name":"Cobreros","latitude":42.07323,"longitude":-6.70053},{"id":33771,"name":"Coomonte","latitude":42.11546,"longitude":-5.81316},{"id":33787,"name":"Coreses","latitude":41.54794,"longitude":-5.62252},{"id":152655,"name":"Corrales del Vino","latitude":0.0,"longitude":0.0},{"id":152656,"name":"Cotanes del Monte","latitude":0.0,"longitude":0.0},{"id":33856,"name":"Cubillos","latitude":41.57436,"longitude":-5.7392},{"id":33859,"name":"Cubo de Benavente","latitude":42.1249,"longitude":-6.16342},{"id":152657,"name":"Cubo de Tierra del Vino El","latitude":0.0,"longitude":0.0},{"id":33863,"name":"Cuelgamures","latitude":41.30738,"longitude":-5.65769},{"id":34061,"name":"Entrala","latitude":41.43006,"longitude":-5.75556},{"id":34102,"name":"Espadañedo","latitude":42.11618,"longitude":-6.39419},{"id":34163,"name":"Faramontanos de Tábara","latitude":41.83469,"longitude":-5.88883},{"id":34164,"name":"Fariza","latitude":41.41667,"longitude":-6.26667},{"id":34174,"name":"Fermoselle","latitude":41.31738,"longitude":-6.39584},{"id":34177,"name":"Ferreras de Abajo","latitude":41.89651,"longitude":-6.07904},{"id":34178,"name":"Ferreras de Arriba","latitude":41.89878,"longitude":-6.19461},{"id":34180,"name":"Ferreruela","latitude":41.76673,"longitude":-6.07215},{"id":34186,"name":"Figueruela de Arriba","latitude":41.86867,"longitude":-6.44454},{"id":34207,"name":"Fonfría","latitude":40.99566,"longitude":-1.08475},{"id":34208,"name":"Fonfría","latitude":41.63493,"longitude":-6.14081},{"id":34261,"name":"Fresno de la Polvorosa","latitude":42.0831,"longitude":-5.76969},{"id":34262,"name":"Fresno de la Ribera","latitude":41.52926,"longitude":-5.56658},{"id":34258,"name":"Fresno de Sayago","latitude":41.31848,"longitude":-5.97129},{"id":34265,"name":"Friera de Valverde","latitude":41.91214,"longitude":-5.84153},{"id":34291,"name":"Fuente Encalada","latitude":42.11011,"longitude":-5.99622},{"id":34318,"name":"Fuentelapeña","latitude":41.25144,"longitude":-5.38325},{"id":34349,"name":"Fuentes de Ropel","latitude":42.00377,"longitude":-5.54532},{"id":34352,"name":"Fuentesaúco","latitude":41.23043,"longitude":-5.49722},{"id":34354,"name":"Fuentesecas","latitude":41.63077,"longitude":-5.47252},{"id":34358,"name":"Fuentespreadas","latitude":41.32627,"longitude":-5.62798},{"id":34379,"name":"Galende","latitude":42.1044,"longitude":-6.66252},{"id":34390,"name":"Gallegos del Pan","latitude":41.59985,"longitude":-5.58117},{"id":34391,"name":"Gallegos del Río","latitude":41.73497,"longitude":-6.17435},{"id":34401,"name":"Gamones","latitude":41.4669,"longitude":-6.17621},{"id":34449,"name":"Gema","latitude":41.41855,"longitude":-5.64906},{"id":34500,"name":"Granja de Moreruela","latitude":41.81026,"longitude":-5.73893},{"id":34504,"name":"Granucillo","latitude":42.05209,"longitude":-5.92777},{"id":152658,"name":"Guarrate","latitude":0.0,"longitude":0.0},{"id":34587,"name":"Hermisende","latitude":41.96898,"longitude":-6.89616},{"id":152659,"name":"Hiniesta La","latitude":0.0,"longitude":0.0},{"id":34794,"name":"Jambrina","latitude":41.39196,"longitude":-5.66411},{"id":34833,"name":"Justel","latitude":42.14861,"longitude":-6.29594},{"id":35139,"name":"Losacino","latitude":41.68084,"longitude":-6.07986},{"id":35140,"name":"Losacio","latitude":41.71092,"longitude":-6.04059},{"id":35146,"name":"Lubián","latitude":42.03569,"longitude":-6.90541},{"id":35156,"name":"Luelmo","latitude":41.4403,"longitude":-6.13338},{"id":152660,"name":"Maderal El","latitude":0.0,"longitude":0.0},{"id":35187,"name":"Madridanos","latitude":41.47967,"longitude":-5.60459},{"id":35207,"name":"Mahide","latitude":41.86917,"longitude":-6.37784},{"id":35211,"name":"Maire de Castroponce","latitude":42.11283,"longitude":-5.78475},{"id":35233,"name":"Malva","latitude":41.65467,"longitude":-5.48657},{"id":35248,"name":"Manganeses de la Lampreana","latitude":41.75085,"longitude":-5.71048},{"id":35249,"name":"Manganeses de la Polvorosa","latitude":42.03563,"longitude":-5.74694},{"id":35262,"name":"Manzanal de Arriba","latitude":41.99217,"longitude":-6.44012},{"id":35263,"name":"Manzanal de los Infantes","latitude":42.05428,"longitude":-6.38288},{"id":35264,"name":"Manzanal del Barco","latitude":41.63501,"longitude":-5.94671},{"id":35342,"name":"Matilla de Arzón","latitude":42.10499,"longitude":-5.64156},{"id":35345,"name":"Matilla la Seca","latitude":41.57935,"longitude":-5.5003},{"id":35348,"name":"Mayalde","latitude":41.2508,"longitude":-5.79767},{"id":35388,"name":"Melgar de Tera","latitude":41.96618,"longitude":-6.0139},{"id":35418,"name":"Micereces de Tera","latitude":41.98886,"longitude":-5.87133},{"id":35434,"name":"Milles de la Polvorosa","latitude":41.92339,"longitude":-5.73309},{"id":35475,"name":"Molacillos","latitude":41.58269,"longitude":-5.66046},{"id":35476,"name":"Molezuelas de la Carballeda","latitude":42.08166,"longitude":-6.18723},{"id":35493,"name":"Mombuey","latitude":42.02283,"longitude":-6.33027},{"id":35511,"name":"Monfarracinos","latitude":41.55468,"longitude":-5.70795},{"id":35535,"name":"Montamarta","latitude":41.64724,"longitude":-5.80402},{"id":35598,"name":"Moral de Sayago","latitude":41.47019,"longitude":-6.1006},{"id":35604,"name":"Moraleja de Sayago","latitude":41.16916,"longitude":-6.00369},{"id":35606,"name":"Moraleja del Vino","latitude":41.46385,"longitude":-5.65631},{"id":152661,"name":"Morales de Rey","latitude":0.0,"longitude":0.0},{"id":35608,"name":"Morales de Toro","latitude":41.53737,"longitude":-5.30642},{"id":35609,"name":"Morales de Valverde","latitude":41.93643,"longitude":-5.89255},{"id":35610,"name":"Morales del Vino","latitude":41.44736,"longitude":-5.7307},{"id":35611,"name":"Moralina","latitude":41.49001,"longitude":-6.1367},{"id":35628,"name":"Moreruela de los Infanzones","latitude":41.63118,"longitude":-5.70614},{"id":35627,"name":"Moreruela de Tábara","latitude":41.79588,"longitude":-5.86849},{"id":35656,"name":"Muelas de los Caballeros","latitude":42.12843,"longitude":-6.33719},{"id":152662,"name":"Muelas del Pan","latitude":0.0,"longitude":0.0},{"id":35657,"name":"Muga de Sayago","latitude":41.38779,"longitude":-6.19777},{"id":35791,"name":"Navianos de Valverde","latitude":41.95319,"longitude":-5.81781},{"id":35903,"name":"Olmillos de Castro","latitude":41.73179,"longitude":-5.96791},{"id":35978,"name":"Otero de Bodas","latitude":41.93868,"longitude":-6.15024},{"id":36002,"name":"Pajares de la Lampreana","latitude":41.71551,"longitude":-5.69351},{"id":36007,"name":"Palacios de Sanabria","latitude":42.05901,"longitude":-6.52362},{"id":36011,"name":"Palacios del Pan","latitude":41.60242,"longitude":-5.87773},{"id":152663,"name":"Pedralba de la Pradería","latitude":0.0,"longitude":0.0},{"id":152664,"name":"Pego El","latitude":0.0,"longitude":0.0},{"id":36124,"name":"Peleagonzalo","latitude":41.48175,"longitude":-5.48304},{"id":36125,"name":"Peleas de Abajo","latitude":41.3926,"longitude":-5.68966},{"id":36176,"name":"Peñausende","latitude":41.28662,"longitude":-5.86755},{"id":36129,"name":"Peque","latitude":42.07297,"longitude":-6.27489},{"id":152665,"name":"Perdigón El","latitude":0.0,"longitude":0.0},{"id":36148,"name":"Pereruela","latitude":41.4165,"longitude":-5.87812},{"id":36150,"name":"Perilla de Castro","latitude":41.7254,"longitude":-5.87636},{"id":36485,"name":"Pías","latitude":42.08333,"longitude":-7.0},{"id":36181,"name":"Piedrahita de Castro","latitude":41.68089,"longitude":-5.72886},{"id":152667,"name":"Piñero El","latitude":0.0,"longitude":0.0},{"id":36203,"name":"Pinilla de Toro","latitude":41.62783,"longitude":-5.36414},{"id":152666,"name":"Pino del Oro","latitude":0.0,"longitude":0.0},{"id":36251,"name":"Pobladura de Valderaduey","latitude":41.70009,"longitude":-5.54189},{"id":36252,"name":"Pobladura del Valle","latitude":42.10257,"longitude":-5.73333},{"id":36294,"name":"Porto","latitude":42.16737,"longitude":-6.89934},{"id":36322,"name":"Pozoantiguo","latitude":41.5973,"longitude":-5.4366},{"id":36334,"name":"Pozuelo de Tábara","latitude":41.78502,"longitude":-5.89455},{"id":36344,"name":"Prado","latitude":41.92077,"longitude":-5.42027},{"id":36423,"name":"Puebla de Sanabria","latitude":42.05401,"longitude":-6.6335},{"id":36432,"name":"Pueblica de Valverde","latitude":41.91843,"longitude":-5.89975},{"id":36521,"name":"Quintanilla de Urz","latitude":42.0329,"longitude":-5.84866},{"id":36525,"name":"Quintanilla del Monte","latitude":41.86812,"longitude":-5.34928},{"id":36526,"name":"Quintanilla del Olmo","latitude":41.90561,"longitude":-5.40726},{"id":36530,"name":"Quiruelas de Vidriales","latitude":42.01762,"longitude":-5.82947},{"id":36533,"name":"Rabanales","latitude":41.74287,"longitude":-6.27674},{"id":36709,"name":"Rábano de Aliste","latitude":41.7443,"longitude":-6.43302},{"id":152668,"name":"Requejo","latitude":0.0,"longitude":0.0},{"id":36593,"name":"Revellinos","latitude":41.88982,"longitude":-5.56871},{"id":36715,"name":"Ríofrío de Aliste","latitude":41.81724,"longitude":-6.17741},{"id":152669,"name":"Rionegro del Puente","latitude":0.0,"longitude":0.0},{"id":36644,"name":"Roales","latitude":41.5517,"longitude":-5.77211},{"id":36647,"name":"Robleda-Cervantes","latitude":42.08246,"longitude":-6.59414},{"id":152670,"name":"Roelos de Sayago","latitude":0.0,"longitude":0.0},{"id":152671,"name":"Rosinos de la Requejada","latitude":0.0,"longitude":0.0},{"id":36752,"name":"Salce","latitude":41.26996,"longitude":-6.21875},{"id":36791,"name":"Samir de los Caños","latitude":41.6728,"longitude":-6.16415},{"id":36800,"name":"San Agustín del Pozo","latitude":41.88613,"longitude":-5.59351},{"id":36815,"name":"San Cebrián de Castro","latitude":41.70632,"longitude":-5.75605},{"id":36821,"name":"San Cristóbal de Entreviñas","latitude":42.04575,"longitude":-5.63468},{"id":36832,"name":"San Esteban del Molar","latitude":41.93717,"longitude":-5.55158},{"id":36853,"name":"San Justo","latitude":42.13321,"longitude":-6.62388},{"id":36871,"name":"San Martín de Valderaduey","latitude":41.81414,"longitude":-5.47249},{"id":36886,"name":"San Miguel de la Ribera","latitude":41.33301,"longitude":-5.57689},{"id":152672,"name":"San Miguel del Valle","latitude":0.0,"longitude":0.0},{"id":36904,"name":"San Pedro de Ceque","latitude":42.04334,"longitude":-6.07242},{"id":152673,"name":"San Pedro de la Nave-Almendra","latitude":0.0,"longitude":0.0},{"id":36929,"name":"San Vicente de la Cabeza","latitude":41.80696,"longitude":-6.24993},{"id":36933,"name":"San Vitero","latitude":41.7774,"longitude":-6.34877},{"id":37013,"name":"Santa Clara de Avedillo","latitude":41.33877,"longitude":-5.67692},{"id":37020,"name":"Santa Colomba de las Monjas","latitude":41.95833,"longitude":-5.68389},{"id":37024,"name":"Santa Cristina de la Polvorosa","latitude":41.99985,"longitude":-5.71355},{"id":37025,"name":"Santa Croya de Tera","latitude":41.98334,"longitude":-5.97725},{"id":37051,"name":"Santa Eufemia del Barco","latitude":41.67808,"longitude":-5.89831},{"id":37081,"name":"Santa María de la Vega","latitude":42.08497,"longitude":-5.80851},{"id":37078,"name":"Santa María de Valverde","latitude":41.93479,"longitude":-5.9356},{"id":37122,"name":"Santibáñez de Tera","latitude":41.98563,"longitude":-5.92257},{"id":37124,"name":"Santibáñez de Vidriales","latitude":42.07362,"longitude":-6.01549},{"id":37147,"name":"Santovenia","latitude":41.87857,"longitude":-5.71003},{"id":37158,"name":"Sanzoles","latitude":41.43235,"longitude":-5.5671},{"id":37662,"name":"Tábara","latitude":41.82458,"longitude":-5.9642},{"id":37369,"name":"Tapioles","latitude":41.85741,"longitude":-5.49623},{"id":37476,"name":"Toro","latitude":41.52417,"longitude":-5.39534},{"id":152674,"name":"Torre del Valle La","latitude":0.0,"longitude":0.0},{"id":37533,"name":"Torregamones","latitude":41.487,"longitude":-6.18335},{"id":37578,"name":"Torres del Carrizal","latitude":41.61701,"longitude":-5.67173},{"id":37614,"name":"Trabazos","latitude":41.74793,"longitude":-6.49094},{"id":37626,"name":"Trefacio","latitude":42.12165,"longitude":-6.65407},{"id":37714,"name":"Uña de Quintana","latitude":42.08662,"longitude":-6.14475},{"id":37716,"name":"Vadillo de la Guareña","latitude":41.28242,"longitude":-5.353},{"id":37725,"name":"Valcabado","latitude":41.54863,"longitude":-5.74916},{"id":37743,"name":"Valdefinjas","latitude":41.45172,"longitude":-5.45232},{"id":37800,"name":"Valdescorriel","latitude":42.02233,"longitude":-5.50998},{"id":37856,"name":"Vallesa de la Guareña","latitude":41.13532,"longitude":-5.32611},{"id":37909,"name":"Vega de Tera","latitude":41.99759,"longitude":-6.125},{"id":37913,"name":"Vega de Villalobos","latitude":41.97057,"longitude":-5.46324},{"id":37916,"name":"Vegalatrave","latitude":41.70026,"longitude":-6.10675},{"id":37936,"name":"Venialbo","latitude":41.38957,"longitude":-5.53596},{"id":37956,"name":"Vezdemarbán","latitude":41.6548,"longitude":-5.36609},{"id":37964,"name":"Vidayanes","latitude":41.91011,"longitude":-5.57424},{"id":37965,"name":"Videmala","latitude":41.61299,"longitude":-6.04056},{"id":38021,"name":"Villabrázaro","latitude":42.05394,"longitude":-5.72748},{"id":38022,"name":"Villabuena del Puente","latitude":41.38074,"longitude":-5.40787},{"id":38040,"name":"Villadepera","latitude":41.547,"longitude":-6.13305},{"id":38044,"name":"Villaescusa","latitude":41.20617,"longitude":-5.46406},{"id":38045,"name":"Villaescusa","latitude":42.96262,"longitude":-4.16706},{"id":38069,"name":"Villafáfila","latitude":41.84692,"longitude":-5.61527},{"id":38051,"name":"Villaferrueña","latitude":42.0983,"longitude":-5.85802},{"id":38075,"name":"Villageriz","latitude":42.11884,"longitude":-5.95554},{"id":38091,"name":"Villalazán","latitude":41.49414,"longitude":-5.5891},{"id":38096,"name":"Villalba de la Lampreana","latitude":41.74327,"longitude":-5.64094},{"id":38108,"name":"Villalcampo","latitude":41.52229,"longitude":-6.04801},{"id":38116,"name":"Villalobos","latitude":41.94567,"longitude":-5.47517},{"id":38119,"name":"Villalonso","latitude":41.59767,"longitude":-5.29769},{"id":38120,"name":"Villalpando","latitude":41.86517,"longitude":-5.41231},{"id":38122,"name":"Villalube","latitude":41.61005,"longitude":-5.54545},{"id":38141,"name":"Villamayor de Campos","latitude":41.8987,"longitude":-5.35963},{"id":38160,"name":"Villamor de los Escuderos","latitude":41.25244,"longitude":-5.57485},{"id":38226,"name":"Villanázar","latitude":41.97398,"longitude":-5.78043},{"id":38174,"name":"Villanueva de Azoague","latitude":41.97607,"longitude":-5.664},{"id":38177,"name":"Villanueva de Campeán","latitude":41.35447,"longitude":-5.7702},{"id":38207,"name":"Villanueva de las Peras","latitude":41.93478,"longitude":-5.97942},{"id":38215,"name":"Villanueva del Campo","latitude":41.98492,"longitude":-5.4066},{"id":38239,"name":"Villar de Fallaves","latitude":41.92503,"longitude":-5.34039},{"id":38252,"name":"Villar del Buey","latitude":41.33024,"longitude":-6.18935},{"id":38263,"name":"Villaralbo","latitude":41.49224,"longitude":-5.68359},{"id":38265,"name":"Villardeciervos","latitude":41.94206,"longitude":-6.28647},{"id":38267,"name":"Villardiegua de la Ribera","latitude":41.53543,"longitude":-6.18327},{"id":38381,"name":"Villárdiga","latitude":41.8195,"longitude":-5.46439},{"id":38269,"name":"Villardondiego","latitude":41.58483,"longitude":-5.37707},{"id":38305,"name":"Villarrín de Campos","latitude":41.79522,"longitude":-5.63898},{"id":152675,"name":"Villaseco del Pan","latitude":0.0,"longitude":0.0},{"id":38342,"name":"Villavendimio","latitude":41.57812,"longitude":-5.34287},{"id":38353,"name":"Villaveza de Valverde","latitude":41.94516,"longitude":-5.84849},{"id":38354,"name":"Villaveza del Agua","latitude":41.91922,"longitude":-5.67871},{"id":152676,"name":"Viñas","latitude":0.0,"longitude":0.0},{"id":38465,"name":"Zamora","latitude":41.50633,"longitude":-5.74456}]