[{"id":151151,"name":"Agolada","latitude":0.0,"longitude":0.0},{"id":32425,"name":"Arbo","latitude":42.11667,"longitude":-8.31667},{"id":32616,"name":"Baiona","latitude":42.11667,"longitude":-8.85},{"id":151142,"name":"Barro","latitude":0.0,"longitude":0.0},{"id":33007,"name":"Bueu","latitude":42.32458,"longitude":-8.78497},{"id":33137,"name":"Caldas de Reis","latitude":42.60473,"longitude":-8.6423},{"id":33174,"name":"Cambados","latitude":42.51222,"longitude":-8.8131},{"id":151143,"name":"Campo Lameiro","latitude":0.0,"longitude":0.0},{"id":151144,"name":"Cangas","latitude":0.0,"longitude":0.0},{"id":151145,"name":"Cañiza A","latitude":0.0,"longitude":0.0},{"id":33515,"name":"Catoira","latitude":42.66748,"longitude":-8.72323},{"id":151146,"name":"Cerdedo","latitude":0.0,"longitude":0.0},{"id":151147,"name":"Cotobade","latitude":0.0,"longitude":0.0},{"id":33828,"name":"Covelo","latitude":42.23333,"longitude":-8.35},{"id":151148,"name":"Crecente","latitude":0.0,"longitude":0.0},{"id":33885,"name":"Cuntis","latitude":42.63396,"longitude":-8.56256},{"id":33953,"name":"Dozón","latitude":42.58333,"longitude":-8.01667},{"id":151149,"name":"Estrada A","latitude":0.0,"longitude":0.0},{"id":151150,"name":"Forcarei","latitude":0.0,"longitude":0.0},{"id":34226,"name":"Fornelos de Montes","latitude":42.34126,"longitude":-8.45291},{"id":34483,"name":"Gondomar","latitude":42.11155,"longitude":-8.74971},{"id":151152,"name":"Grove O","latitude":0.0,"longitude":0.0},{"id":151153,"name":"Guarda A","latitude":0.0,"longitude":0.0},{"id":151166,"name":"Illa de Arousa A","latitude":0.0,"longitude":0.0},{"id":34956,"name":"Lalín","latitude":42.66085,"longitude":-8.11285},{"id":151154,"name":"Lama A","latitude":0.0,"longitude":0.0},{"id":35314,"name":"Marín","latitude":42.39145,"longitude":-8.70136},{"id":35364,"name":"Meaño","latitude":42.44661,"longitude":-8.78122},{"id":35382,"name":"Meis","latitude":42.5,"longitude":-8.75},{"id":35459,"name":"Moaña","latitude":42.27807,"longitude":-8.73921},{"id":35504,"name":"Mondariz","latitude":42.2311,"longitude":-8.45839},{"id":35505,"name":"Mondariz-Balneario","latitude":42.22686,"longitude":-8.46728},{"id":35621,"name":"Moraña","latitude":42.55,"longitude":-8.58333},{"id":35637,"name":"Mos","latitude":43.15667,"longitude":-7.55047},{"id":151155,"name":"Neves As","latitude":0.0,"longitude":0.0},{"id":35808,"name":"Nigrán","latitude":42.14153,"longitude":-8.80656},{"id":35848,"name":"O Grove","latitude":42.49444,"longitude":-8.86502},{"id":35851,"name":"O Rosal","latitude":41.93536,"longitude":-8.83677},{"id":35864,"name":"Oia","latitude":42.0,"longitude":-8.86667},{"id":151156,"name":"Pazos de Borbén","latitude":0.0,"longitude":0.0},{"id":36256,"name":"Poio","latitude":42.44775,"longitude":-8.68594},{"id":151158,"name":"Ponte Caldelas","latitude":0.0,"longitude":0.0},{"id":36272,"name":"Ponteareas","latitude":42.17476,"longitude":-8.50398},{"id":151159,"name":"Pontecesures","latitude":0.0,"longitude":0.0},{"id":36273,"name":"Pontevedra","latitude":42.431,"longitude":-8.64435},{"id":151157,"name":"Porriño O","latitude":0.0,"longitude":0.0},{"id":36286,"name":"Portas","latitude":42.58531,"longitude":-8.65573},{"id":36561,"name":"Redondela","latitude":42.28337,"longitude":-8.6096},{"id":36609,"name":"Ribadumia","latitude":42.51667,"longitude":-8.75},{"id":36663,"name":"Rodeiro","latitude":42.65193,"longitude":-7.95519},{"id":151160,"name":"Rosal O","latitude":0.0,"longitude":0.0},{"id":151161,"name":"Salceda de Caselas","latitude":0.0,"longitude":0.0},{"id":151162,"name":"Salvaterra de Miño","latitude":0.0,"longitude":0.0},{"id":37157,"name":"Sanxenxo","latitude":42.39996,"longitude":-8.80698},{"id":37256,"name":"Silleda","latitude":42.69605,"longitude":-8.24653},{"id":151163,"name":"Soutomaior","latitude":0.0,"longitude":0.0},{"id":37451,"name":"Tomiño","latitude":41.98772,"longitude":-8.75502},{"id":37651,"name":"Tui","latitude":42.04713,"longitude":-8.64435},{"id":37828,"name":"Valga","latitude":42.69792,"longitude":-8.63959},{"id":37970,"name":"Vigo","latitude":42.23282,"longitude":-8.72264},{"id":151165,"name":"Vila de Cruces","latitude":0.0,"longitude":0.0},{"id":151164,"name":"Vilaboa","latitude":0.0,"longitude":0.0},{"id":37985,"name":"Vilagarcía de Arousa","latitude":42.59631,"longitude":-8.76426},{"id":37994,"name":"Vilanova de Arousa","latitude":42.564,"longitude":-8.82797},{"id":38005,"name":"Vilaxoán","latitude":42.58353,"longitude":-8.79353}]