[{"id":97505,"name":"Adyge-Khabl’","latitude":44.33434,"longitude":41.93922},{"id":97588,"name":"Ali-Berdukovskiy","latitude":43.98952,"longitude":41.74212},{"id":97911,"name":"Besleney","latitude":44.2405,"longitude":41.7387},{"id":98160,"name":"Cherkessk","latitude":44.22333,"longitude":42.05778},{"id":98328,"name":"Druzhba","latitude":44.1953,"longitude":42.017},{"id":98638,"name":"Ikon-Khalk","latitude":44.3051,"longitude":41.9142},{"id":98714,"name":"Ispravnaya","latitude":44.0682,"longitude":41.6102},{"id":98857,"name":"Karachayevsk","latitude":43.77399,"longitude":41.91419},{"id":98858,"name":"Karachayevskiy Rayon","latitude":43.5,"longitude":42.0},{"id":98873,"name":"Kardonikskaya","latitude":43.86577,"longitude":41.71432},{"id":98914,"name":"Kavkazskiy","latitude":44.2672,"longitude":42.2347},{"id":98952,"name":"Khabez","latitude":44.0434,"longitude":41.772},{"id":99366,"name":"Krasnyy Kurgan","latitude":43.94222,"longitude":42.61083},{"id":99443,"name":"Kumysh","latitude":43.88334,"longitude":41.89323},{"id":99458,"name":"Kurdzhinovo","latitude":43.98838,"longitude":40.95519},{"id":99528,"name":"Kyzyl-Oktyabr’skiy","latitude":43.8257,"longitude":41.78605},{"id":99763,"name":"Malokarachayevskiy Rayon","latitude":43.75,"longitude":42.5},{"id":99841,"name":"Mednogorskiy","latitude":43.9178,"longitude":41.18255},{"id":100162,"name":"Nizhniy Arkhyz","latitude":43.67817,"longitude":41.45977},{"id":100344,"name":"Novyy Karachay","latitude":43.82076,"longitude":41.90322},{"id":100460,"name":"Ordzhonikidzevskiy","latitude":43.84233,"longitude":41.89636},{"id":100624,"name":"Pervomayskoye","latitude":43.93847,"longitude":42.476},{"id":100805,"name":"Pravokubanskiy","latitude":43.91721,"longitude":41.88413},{"id":100809,"name":"Pregradnaya","latitude":43.95395,"longitude":41.1891},{"id":100825,"name":"Prikubanskiy Rayon","latitude":44.08333,"longitude":42.0},{"id":100884,"name":"Psyzh","latitude":44.23306,"longitude":42.01833},{"id":101125,"name":"Sary-Tyuz","latitude":43.90181,"longitude":41.89523},{"id":101623,"name":"Storozhevaya","latitude":43.87886,"longitude":41.45143},{"id":101830,"name":"Tereze","latitude":43.93608,"longitude":42.4434},{"id":102014,"name":"Uchkeken","latitude":43.93778,"longitude":42.51167},{"id":102016,"name":"Uchkulan","latitude":43.45705,"longitude":42.09643},{"id":102019,"name":"Udarnyy","latitude":44.34917,"longitude":42.50528},{"id":102119,"name":"Ust’-Dzheguta","latitude":44.0834,"longitude":41.9763},{"id":102689,"name":"Zelenchukskaya","latitude":43.85804,"longitude":41.5894}]