[{"id":104778,"name":"Bandarbeyla","latitude":9.4942,"longitude":50.8122},{"id":104779,"name":"Bargaal","latitude":11.28636,"longitude":51.0773},{"id":104781,"name":"Bereeda","latitude":11.87037,"longitude":51.05795},{"id":104782,"name":"Bosaso","latitude":11.28421,"longitude":49.18158},{"id":104788,"name":"Caluula","latitude":11.96611,"longitude":50.75694},{"id":104800,"name":"Iskushuban","latitude":10.2837,"longitude":50.23},{"id":104812,"name":"Qandala","latitude":11.47197,"longitude":49.87282}]