[{"id":107239,"name":"Ağaçören","latitude":38.87484,"longitude":33.91674},{"id":107091,"name":"Aksaray","latitude":38.37255,"longitude":34.02537},{"id":107606,"name":"Eskil İlçesi","latitude":38.41158,"longitude":33.41994},{"id":107727,"name":"Gülağaç İlçesi","latitude":38.40641,"longitude":34.35071},{"id":107761,"name":"Güzelyurt","latitude":38.27722,"longitude":34.37194},{"id":108178,"name":"Merkez","latitude":38.3706,"longitude":34.02843},{"id":108283,"name":"Ortaköy","latitude":38.73728,"longitude":34.03866},{"id":108409,"name":"Sarıyahşi","latitude":38.98349,"longitude":33.84136},{"id":108496,"name":"Sultanhanı","latitude":38.2471,"longitude":33.54961}]