[{"id":53439,"name":"Camotán","latitude":14.82017,"longitude":-89.37224},{"id":53455,"name":"Chiquimula","latitude":14.8,"longitude":-89.54583},{"id":53471,"name":"Concepción Las Minas","latitude":14.52173,"longitude":-89.45717},{"id":53492,"name":"Esquipulas","latitude":14.56571,"longitude":-89.35166},{"id":53505,"name":"Ipala","latitude":14.61667,"longitude":-89.61667},{"id":53514,"name":"Jocotán","latitude":14.82072,"longitude":-89.38991},{"id":53611,"name":"Olopa","latitude":14.69229,"longitude":-89.35003},{"id":53639,"name":"Quezaltepeque","latitude":14.63553,"longitude":-89.44241},{"id":53679,"name":"San Jacinto","latitude":14.66667,"longitude":-89.5},{"id":53685,"name":"San José La Arada","latitude":14.71667,"longitude":-89.58333},{"id":53695,"name":"San Juan Ermita","latitude":14.76471,"longitude":-89.43014}]