[{"id":149311,"name":"Abramok","latitude":50.63694444,"longitude":27.9075},{"id":149312,"name":"Adamivka","latitude":50.37694444,"longitude":27.91527778},{"id":149313,"name":"Adamove","latitude":50.83111111,"longitude":27.48305556},{"id":149314,"name":"Agativka","latitude":49.98611111,"longitude":28.605},{"id":149315,"name":"Andriyivka","latitude":49.76293844,"longitude":34.3003749},{"id":149316,"name":"Andrushivka","latitude":50.01666667,"longitude":29.01666667},{"id":149317,"name":"Autozavodskoy Raion","latitude":49.07173,"longitude":33.41552},{"id":149318,"name":"Avratin","latitude":49.87611111,"longitude":27.82638889},{"id":149319,"name":"Bairak","latitude":49.72043437,"longitude":34.37378921},{"id":149320,"name":"Baliasne","latitude":49.82119646,"longitude":34.33881183},{"id":149321,"name":"Baranivka","latitude":50.3,"longitude":27.66666667},{"id":149322,"name":"Baranivka","latitude":49.9480918,"longitude":34.0082758},{"id":149323,"name":"Barashi","latitude":50.71555556,"longitude":28.03083333},{"id":149324,"name":"Bazar","latitude":51.04388889,"longitude":29.29361111},{"id":149325,"name":"Bekhi","latitude":51.01972222,"longitude":28.69333333},{"id":149326,"name":"Berdychiv","latitude":49.89194444,"longitude":28.6},{"id":149327,"name":"Berestivka","latitude":50.34055556,"longitude":27.47611111},{"id":149328,"name":"Berestovets","latitude":51.02,"longitude":28.87027778},{"id":149329,"name":"Berezianka","latitude":49.69194444,"longitude":29.45305556},{"id":149330,"name":"Berezovii Grud","latitude":50.99666667,"longitude":28.35888889},{"id":149331,"name":"Bereztsi","latitude":50.50555556,"longitude":29.3175},{"id":149332,"name":"Bicheva","latitude":49.75055556,"longitude":27.77777778},{"id":149333,"name":"Bigun","latitude":51.40194444,"longitude":28.28277778},{"id":149334,"name":"Bikiv","latitude":50.17833333,"longitude":29.29638889},{"id":149335,"name":"Bila Krynytsia","latitude":50.63638889,"longitude":29.46361111},{"id":149336,"name":"Bilii Bereg","latitude":50.75638889,"longitude":29.47888889},{"id":149337,"name":"Bilka","latitude":50.81861111,"longitude":28.18777778},{"id":149338,"name":"Bilylivka","latitude":49.68,"longitude":29.03},{"id":149339,"name":"Bistrik","latitude":49.85638889,"longitude":28.56638889},{"id":149340,"name":"Bistriyivka","latitude":50.47777778,"longitude":29.16472222},{"id":149341,"name":"Borisivka","latitude":49.76934347,"longitude":34.33837579},{"id":149342,"name":"Broniki","latitude":50.55361111,"longitude":27.80777778},{"id":149344,"name":"Bronitsia","latitude":50.94666667,"longitude":27.34527778},{"id":149343,"name":"Bronitska Guta","latitude":50.93138889,"longitude":27.31388889},{"id":149345,"name":"Brovki Pershi","latitude":49.93194444,"longitude":29.1975},{"id":149346,"name":"Brusyliv","latitude":50.28333333,"longitude":29.53333333},{"id":149347,"name":"Buchmany","latitude":51.07,"longitude":28.0425},{"id":149348,"name":"Buki","latitude":50.19638889,"longitude":28.325},{"id":149349,"name":"Buldichiv","latitude":50.11361111,"longitude":27.79666667},{"id":149350,"name":"Buriaki","latitude":49.81888889,"longitude":28.28361111},{"id":149351,"name":"Burkivtsi","latitude":49.87888889,"longitude":28.04444444},{"id":149352,"name":"Bykivka","latitude":50.29277778,"longitude":27.98305556},{"id":149353,"name":"Chernechii Iar","latitude":49.83543,"longitude":34.59174},{"id":149354,"name":"Cherniakhiv","latitude":50.455,"longitude":28.66527778},{"id":149355,"name":"Chervone","latitude":49.94972222,"longitude":28.86861111},{"id":149356,"name":"Chopovychi","latitude":50.83333333,"longitude":28.9525},{"id":149357,"name":"Chornukhy","latitude":50.26990573,"longitude":32.94757796},{"id":149358,"name":"Chudniv","latitude":50.05277778,"longitude":28.09694444},{"id":149359,"name":"Chutove","latitude":49.71689367,"longitude":35.17463951},{"id":149360,"name":"Dashynka","latitude":50.64944444,"longitude":28.395},{"id":149361,"name":"Davidivka","latitude":50.52694444,"longitude":28.41},{"id":149362,"name":"Davydky","latitude":50.94888889,"longitude":28.43861111},{"id":149363,"name":"Denyshi","latitude":50.21527778,"longitude":28.40777778},{"id":149364,"name":"Derhanivka","latitude":49.69222222,"longitude":29.06333333},{"id":149365,"name":"Dibrova","latitude":51.16027778,"longitude":27.97277778},{"id":149366,"name":"Didkovichi","latitude":51.09972222,"longitude":28.83194444},{"id":149367,"name":"Didovichi","latitude":50.60916667,"longitude":27.35583333},{"id":149368,"name":"Divochki","latitude":50.44694444,"longitude":28.74972222},{"id":149369,"name":"Dovbysh","latitude":50.37223889,"longitude":27.989475},{"id":149370,"name":"Druzhba","latitude":51.18611111,"longitude":27.96611111},{"id":149371,"name":"Dubivka","latitude":49.90861111,"longitude":28.78444444},{"id":149372,"name":"Dubnyki","latitude":50.87416667,"longitude":27.34888889},{"id":149373,"name":"Dubrivka","latitude":50.28527778,"longitude":29.59333333},{"id":149374,"name":"Dvorishche","latitude":50.56194444,"longitude":28.39777778},{"id":149375,"name":"Dykanka","latitude":49.82223788,"longitude":34.53408003},{"id":149376,"name":"Elivka","latitude":50.72722222,"longitude":29.18388889},{"id":149377,"name":"Fedorivka","latitude":49.77617039,"longitude":34.43944548},{"id":149378,"name":"Filenkove","latitude":49.83559723,"longitude":35.00298408},{"id":149379,"name":"Glinivtsi","latitude":50.04611111,"longitude":28.80416667},{"id":149380,"name":"Godikha","latitude":50.19027778,"longitude":28.22194444},{"id":149381,"name":"Golovenka","latitude":50.15361111,"longitude":28.54388889},{"id":149382,"name":"Golovki","latitude":50.83972222,"longitude":29.13333333},{"id":149383,"name":"Golubyatin","latitude":49.855,"longitude":29.51361111},{"id":149384,"name":"Gorbuliv","latitude":50.5375,"longitude":28.92333333},{"id":149385,"name":"Gordiyivka","latitude":50.05444444,"longitude":27.875},{"id":149386,"name":"Gorianshchina","latitude":49.91185729,"longitude":34.45818988},{"id":149387,"name":"Gorodkivka","latitude":49.90972222,"longitude":28.99416667},{"id":149388,"name":"Gorodok","latitude":49.60027778,"longitude":29.195},{"id":149389,"name":"Gorodske","latitude":50.3775,"longitude":29.16888889},{"id":149390,"name":"Goropayi","latitude":50.01388889,"longitude":27.83388889},{"id":149391,"name":"Goshiv","latitude":51.23916667,"longitude":28.71388889},{"id":149392,"name":"Gromada","latitude":49.94638889,"longitude":27.76222222},{"id":149393,"name":"Grozyne","latitude":50.95888889,"longitude":28.73055556},{"id":149394,"name":"Grushki","latitude":50.49277778,"longitude":28.455},{"id":149395,"name":"Gubske","latitude":50.09951906,"longitude":32.83123218},{"id":149396,"name":"Gulsk","latitude":50.51916667,"longitude":27.72111111},{"id":149397,"name":"Gumenniki","latitude":50.39694444,"longitude":28.92666667},{"id":149398,"name":"Guta-Potiyivka","latitude":50.69111111,"longitude":28.87416667},{"id":149399,"name":"Guto-Mariatin","latitude":51.03,"longitude":29.41666667},{"id":149400,"name":"Hadiach","latitude":50.36666667,"longitude":34.0},{"id":149401,"name":"Hlobyne","latitude":49.38856468,"longitude":33.26320863},{"id":149402,"name":"Holovyne","latitude":50.4725,"longitude":28.82805556},{"id":149403,"name":"Holubivka","latitude":49.68097,"longitude":29.16059},{"id":149404,"name":"Horishni Plavni","latitude":49.01066008,"longitude":33.65624556},{"id":149405,"name":"Horodets","latitude":51.37,"longitude":28.24138889},{"id":149406,"name":"Horodnytsia","latitude":50.80944444,"longitude":27.31833333},{"id":149407,"name":"Hradyzk","latitude":49.23306925,"longitude":33.13203713},{"id":149408,"name":"Hranitne","latitude":50.74277778,"longitude":29.35222222},{"id":149409,"name":"Hrebinka","latitude":50.11799594,"longitude":32.43958508},{"id":149410,"name":"Hryshkivtsi","latitude":49.93555556,"longitude":28.60166667},{"id":149411,"name":"Iemilivka","latitude":50.68777778,"longitude":28.72805556},{"id":149412,"name":"Ievgenivka","latitude":50.63833333,"longitude":27.99833333},{"id":149413,"name":"Irshansk","latitude":50.71666667,"longitude":28.71666667},{"id":149414,"name":"Ivanivka","latitude":50.43777778,"longitude":27.62944444},{"id":149415,"name":"Ivankiv","latitude":50.39611111,"longitude":28.56888889},{"id":149416,"name":"Ivanopil","latitude":49.85861111,"longitude":28.21555556},{"id":149417,"name":"Kamiani Potoky","latitude":48.98589514,"longitude":33.5186261},{"id":149418,"name":"Kardashivka","latitude":49.88384899,"longitude":34.64044604},{"id":149419,"name":"Karlivka","latitude":49.45474986,"longitude":35.13079636},{"id":149420,"name":"Khodaky","latitude":50.97805556,"longitude":28.80666667},{"id":149421,"name":"Khorol","latitude":49.784031,"longitude":33.258861},{"id":149422,"name":"Khoroshiv","latitude":50.6,"longitude":28.45},{"id":149423,"name":"Kobeliaky","latitude":49.14736024,"longitude":34.19927008},{"id":149424,"name":"Kononenki","latitude":49.91143501,"longitude":34.51172749},{"id":149425,"name":"Korchak","latitude":50.2125,"longitude":28.47638889},{"id":149426,"name":"Kornyn","latitude":50.09527778,"longitude":29.53583333},{"id":149427,"name":"Korosten","latitude":50.95,"longitude":28.65},{"id":149428,"name":"Korostyshiv","latitude":50.31861111,"longitude":29.05916667},{"id":149429,"name":"Kotelva","latitude":50.06832759,"longitude":34.7592113},{"id":149430,"name":"Kozelshchyna","latitude":49.2155,"longitude":33.8518},{"id":149431,"name":"Kratova Govtva","latitude":49.87362868,"longitude":34.50805284},{"id":149432,"name":"Kremenchuk","latitude":49.0775,"longitude":33.42388889},{"id":149433,"name":"Krukovskiy Raion","latitude":49.06672,"longitude":33.4532},{"id":149434,"name":"Kucherivka","latitude":49.74801949,"longitude":34.29072744},{"id":149435,"name":"Kupech","latitude":50.99611111,"longitude":28.78472222},{"id":149436,"name":"Kvitneve","latitude":49.98472222,"longitude":29.51583333},{"id":149437,"name":"Landari","latitude":49.78295521,"longitude":34.38817299},{"id":149438,"name":"Lani","latitude":49.71283212,"longitude":34.43433283},{"id":149439,"name":"Lasky","latitude":51.26555556,"longitude":28.95638889},{"id":149440,"name":"Lazarivka","latitude":50.3125,"longitude":29.58583333},{"id":149441,"name":"Lisogirka","latitude":49.75916667,"longitude":27.90305556},{"id":149442,"name":"Liubar","latitude":49.92138889,"longitude":27.75833333},{"id":149443,"name":"Lokhvytsia","latitude":50.3610461,"longitude":33.26517113},{"id":149444,"name":"Lubny","latitude":50.01856413,"longitude":32.98686035},{"id":149445,"name":"Luhyny","latitude":51.06666667,"longitude":28.38333333},{"id":149446,"name":"Lutovynivka","latitude":49.23722222,"longitude":33.905},{"id":149447,"name":"Mala Rudka","latitude":49.73993159,"longitude":34.44651297},{"id":149448,"name":"Malyn","latitude":50.76888889,"longitude":29.27},{"id":149449,"name":"Marchenki","latitude":49.84310165,"longitude":34.38291991},{"id":149450,"name":"Markivka","latitude":49.30247078,"longitude":34.07348137},{"id":149451,"name":"Maschiwka","latitude":49.44491715,"longitude":34.87575392},{"id":149452,"name":"Morozivka","latitude":50.67138889,"longitude":27.45166667},{"id":149453,"name":"Myrhorod","latitude":49.96397912,"longitude":33.61238091},{"id":149454,"name":"Myropil","latitude":50.1075,"longitude":27.70583333},{"id":149455,"name":"Narodychi","latitude":51.20231667,"longitude":29.08139444},{"id":149456,"name":"Nedoharky","latitude":49.169215,"longitude":33.25495},{"id":149457,"name":"Nemyryntsi","latitude":49.62,"longitude":29.05},{"id":149458,"name":"Nova Borova","latitude":50.69222222,"longitude":28.63666667},{"id":149459,"name":"Nova Chortoriia","latitude":50.0283,"longitude":27.7081},{"id":149460,"name":"Novi Bilokorovychi","latitude":51.0475,"longitude":28.05194444},{"id":149461,"name":"Novi Sanzhary","latitude":49.33539098,"longitude":34.31619855},{"id":149462,"name":"Novi Vorobyi","latitude":50.86972222,"longitude":29.34333333},{"id":149463,"name":"Novohrad-Volynskyi","latitude":50.58333333,"longitude":27.63333333},{"id":149464,"name":"Novoozerianka","latitude":51.21333333,"longitude":28.00194444},{"id":149465,"name":"Nyvky","latitude":51.35,"longitude":29.11666667},{"id":149466,"name":"Odariukivka","latitude":49.73973669,"longitude":34.35914676},{"id":149467,"name":"Olefirshchina","latitude":49.8859865,"longitude":34.58571058},{"id":149468,"name":"Olevsk","latitude":51.22777778,"longitude":27.64805556},{"id":149469,"name":"Onatski","latitude":49.88676376,"longitude":34.46003707},{"id":149470,"name":"Opishnia","latitude":49.95635316,"longitude":34.61200414},{"id":149471,"name":"Orzhytsia","latitude":49.79097957,"longitude":32.7015265},{"id":149472,"name":"Ovruch","latitude":51.32444444,"longitude":28.80805556},{"id":149473,"name":"Ozerne","latitude":50.17944444,"longitude":28.73611111},{"id":149474,"name":"Pavoloch","latitude":49.86916667,"longitude":29.44916667},{"id":149475,"name":"Pershotravensk","latitude":50.20111111,"longitude":27.63388889},{"id":149476,"name":"Pershotravneve","latitude":51.38916667,"longitude":28.8625},{"id":149477,"name":"Petrenki","latitude":49.7316474,"longitude":34.33764355},{"id":149478,"name":"Pisarivshchina","latitude":49.85532915,"longitude":34.63195588},{"id":149479,"name":"Pishchiv","latitude":50.60555556,"longitude":27.31694444},{"id":149480,"name":"Polianka","latitude":50.25620278,"longitude":27.69518889},{"id":149481,"name":"Poltava","latitude":49.57444444,"longitude":34.56861111},{"id":149482,"name":"Popilnia","latitude":49.94583333,"longitude":29.45944444},{"id":149483,"name":"Popivka","latitude":49.82284856,"longitude":34.36835803},{"id":149484,"name":"Potiivka","latitude":50.61972222,"longitude":28.96444444},{"id":149485,"name":"Proni","latitude":49.7862968,"longitude":34.54425486},{"id":149486,"name":"Pyriatyn","latitude":50.24059547,"longitude":32.50929941},{"id":149487,"name":"Radomyshl","latitude":50.49472222,"longitude":29.23333333},{"id":149488,"name":"Reshetylivka","latitude":49.5636,"longitude":34.0763},{"id":149489,"name":"Rohachi","latitude":49.64413,"longitude":29.36076},{"id":149490,"name":"Romaniv","latitude":50.15166667,"longitude":27.93916667},{"id":149491,"name":"Romodan","latitude":49.99487495,"longitude":33.33073071},{"id":149492,"name":"Ruzhyn (settlement)","latitude":49.72333333,"longitude":29.22138889},{"id":149493,"name":"Schyschaky","latitude":49.87689865,"longitude":34.00709565},{"id":149494,"name":"Semenivka","latitude":49.60167044,"longitude":33.18746872},{"id":149495,"name":"Sencha","latitude":50.25413446,"longitude":33.35250701},{"id":149496,"name":"Shumsk","latitude":50.11944444,"longitude":26.11666667},{"id":149497,"name":"Slovechne","latitude":51.38111111,"longitude":28.35444444},{"id":149498,"name":"Smolovivshchina","latitude":49.0681,"longitude":34.43803},{"id":149499,"name":"Sokhatska Balka","latitude":49.79953582,"longitude":34.36245495},{"id":149500,"name":"Stepanivka","latitude":49.75900311,"longitude":34.42956716},{"id":149501,"name":"Sudivka","latitude":49.75552151,"longitude":34.49162461},{"id":149502,"name":"Tabory","latitude":50.27833333,"longitude":27.5975},{"id":149503,"name":"Taraschanka","latitude":50.64583333,"longitude":27.515},{"id":149504,"name":"Topory","latitude":49.65361111,"longitude":29.31333333},{"id":149505,"name":"Travneve","latitude":50.42611111,"longitude":29.08},{"id":149506,"name":"Troiany","latitude":49.84137052,"longitude":34.46811957},{"id":149507,"name":"Vasilivka","latitude":49.82960962,"longitude":34.45204549},{"id":149508,"name":"Velika Rudka","latitude":49.74811105,"longitude":34.46531945},{"id":149509,"name":"Veliki Budishcha","latitude":49.85606039,"longitude":34.58307084},{"id":149510,"name":"Velyka Bahachka","latitude":49.79438338,"longitude":33.72074263},{"id":149511,"name":"Velyki Korovyntsi","latitude":49.97138889,"longitude":28.29472222},{"id":149512,"name":"Velyki Sorochyntsi","latitude":50.02530458,"longitude":33.94765459},{"id":149513,"name":"Veresna","latitude":50.38222222,"longitude":27.3075},{"id":149514,"name":"Veselivka","latitude":49.7358384,"longitude":34.49733875},{"id":149515,"name":"Virlya","latitude":50.34111111,"longitude":27.70083333},{"id":149516,"name":"Vodiana Balka","latitude":49.90247078,"longitude":34.48073506},{"id":149517,"name":"Yablunets","latitude":50.8,"longitude":28.06666667},{"id":149518,"name":"Yarun","latitude":50.54333333,"longitude":27.46611111},{"id":149519,"name":"Yemilchyne","latitude":50.87083333,"longitude":27.80277778},{"id":149520,"name":"Zabaro-Davidivka","latitude":50.97027778,"longitude":27.45305556},{"id":149521,"name":"Zadovga","latitude":49.27884,"longitude":33.91136},{"id":149522,"name":"Zakrinichchia","latitude":50.4,"longitude":27.28416667},{"id":149523,"name":"Zalissia","latitude":51.26444444,"longitude":29.19805556},{"id":149524,"name":"Zaliznia","latitude":50.15,"longitude":28.52222222},{"id":149525,"name":"Zaluzhne","latitude":50.23833333,"longitude":27.96805556},{"id":149526,"name":"Zapadnia","latitude":50.19055556,"longitude":29.32916667},{"id":149527,"name":"Zarichchia","latitude":49.71111111,"longitude":29.22888889},{"id":149528,"name":"Zarudintsi","latitude":49.65333333,"longitude":29.19222222},{"id":149529,"name":"Zavodske","latitude":50.40019868,"longitude":33.39081277},{"id":149530,"name":"Zbranki","latitude":51.29833333,"longitude":28.64583333},{"id":149531,"name":"Zdorovets","latitude":50.90694444,"longitude":27.88611111},{"id":149532,"name":"Zherdeli","latitude":49.89888889,"longitude":28.97},{"id":149533,"name":"Zhitintsi","latitude":49.91388889,"longitude":27.57194444},{"id":149534,"name":"Zhovte","latitude":50.40444444,"longitude":27.82166667},{"id":149535,"name":"Zhovtii Brid","latitude":50.28361111,"longitude":28.10638889},{"id":149536,"name":"Zhupanivka","latitude":50.9275,"longitude":28.355},{"id":149537,"name":"Zhurbintsi","latitude":49.97944444,"longitude":28.71583333},{"id":149538,"name":"Zhytomyr","latitude":50.25444444,"longitude":28.65777778},{"id":149539,"name":"Zinkiv","latitude":50.20813908,"longitude":34.36684182},{"id":149540,"name":"Zlobichi","latitude":50.85611111,"longitude":28.69111111},{"id":149541,"name":"Zoriane","latitude":49.64916667,"longitude":29.24444444},{"id":149542,"name":"Zorokiv","latitude":50.39416667,"longitude":28.62388889},{"id":149543,"name":"Zosimivka","latitude":50.73888889,"longitude":27.64888889},{"id":149544,"name":"Zubivshchina","latitude":50.95944444,"longitude":28.81722222},{"id":149545,"name":"Zvizdal","latitude":51.17386,"longitude":29.24655}]