[{"id":65615,"name":"Aral","latitude":46.8,"longitude":61.66667},{"id":65629,"name":"Ayteke Bi","latitude":45.84607,"longitude":62.15264},{"id":65642,"name":"Belköl","latitude":44.81162,"longitude":65.58796},{"id":65669,"name":"Dzhalagash","latitude":45.08333,"longitude":64.66667},{"id":65708,"name":"Kyzylorda","latitude":44.85278,"longitude":65.50917},{"id":65757,"name":"Qazaly","latitude":45.76278,"longitude":62.1075},{"id":65773,"name":"Sekseūil","latitude":47.09,"longitude":61.15194},{"id":65780,"name":"Shalqīya","latitude":44.00947,"longitude":67.41062},{"id":65792,"name":"Shīeli","latitude":44.16882,"longitude":66.73887},{"id":65804,"name":"Tasböget","latitude":44.77384,"longitude":65.55227},{"id":65811,"name":"Terenozek","latitude":45.05053,"longitude":64.98395},{"id":65827,"name":"Yanykurgan","latitude":43.90652,"longitude":67.24637},{"id":65848,"name":"Zhosaly","latitude":45.48778,"longitude":64.07806}]