[{"id":89965,"name":"Aninoasa","latitude":45.40924,"longitude":23.31505},{"id":90476,"name":"Băcia","latitude":45.8,"longitude":23.01667},{"id":90033,"name":"Baia de Criş","latitude":46.16667,"longitude":22.71667},{"id":90497,"name":"Băiţa","latitude":46.03333,"longitude":22.9},{"id":90051,"name":"Balşa","latitude":46.03333,"longitude":23.11667},{"id":90537,"name":"Băniţa","latitude":45.45,"longitude":23.26667},{"id":90063,"name":"Baru","latitude":45.47218,"longitude":23.16271},{"id":90064,"name":"Baru Mic","latitude":45.46667,"longitude":23.15},{"id":90066,"name":"Barza","latitude":46.1199,"longitude":22.85695},{"id":90553,"name":"Bătrâna","latitude":45.78333,"longitude":22.58333},{"id":90111,"name":"Beriu","latitude":45.78333,"longitude":23.18333},{"id":90167,"name":"Blăjeni","latitude":46.23333,"longitude":22.9},{"id":90255,"name":"Boşorod","latitude":45.68333,"longitude":23.08333},{"id":90260,"name":"Brad","latitude":46.13333,"longitude":22.78333},{"id":90338,"name":"Brănişca","latitude":45.91667,"longitude":22.78333},{"id":90278,"name":"Brazi","latitude":45.48716,"longitude":22.8404},{"id":90298,"name":"Bretea Română","latitude":45.66085,"longitude":23.01739},{"id":90345,"name":"Buceş","latitude":46.18333,"longitude":22.93333},{"id":90351,"name":"Bucium-Orlea","latitude":45.58333,"longitude":22.96667},{"id":90364,"name":"Bucureşci","latitude":46.13333,"longitude":22.9},{"id":90406,"name":"Bulzeștii de Sus","latitude":46.3007,"longitude":22.76118},{"id":90413,"name":"Bunila","latitude":45.7,"longitude":22.66667},{"id":90418,"name":"Burjuc","latitude":45.95,"longitude":22.48333},{"id":93831,"name":"Călan","latitude":45.73333,"longitude":22.98333},{"id":93811,"name":"Cârjiţi","latitude":45.85,"longitude":22.83333},{"id":93875,"name":"Căstău","latitude":45.81465,"longitude":23.21173},{"id":90622,"name":"Cerbăl","latitude":45.78333,"longitude":22.71667},{"id":90640,"name":"Certeju de Sus","latitude":45.96667,"longitude":22.96667},{"id":91205,"name":"Comuna Băcia","latitude":45.80832,"longitude":23.0253},{"id":90918,"name":"Comuna Baia de Criş","latitude":46.18227,"longitude":22.70027},{"id":91209,"name":"Comuna Băiţa","latitude":46.02424,"longitude":22.89087},{"id":90932,"name":"Comuna Balşa","latitude":46.04738,"longitude":23.06886},{"id":91235,"name":"Comuna Băniţa","latitude":45.45636,"longitude":23.23214},{"id":90938,"name":"Comuna Baru","latitude":45.47912,"longitude":23.15132},{"id":91246,"name":"Comuna Bătrâna","latitude":45.80901,"longitude":22.58859},{"id":90970,"name":"Comuna Beriu","latitude":45.76347,"longitude":23.23126},{"id":91010,"name":"Comuna Blăjeni","latitude":46.25491,"longitude":22.90335},{"id":91069,"name":"Comuna Boşorod","latitude":45.63805,"longitude":23.1299},{"id":91124,"name":"Comuna Brănişca","latitude":45.97185,"longitude":22.76723},{"id":91096,"name":"Comuna Bretea Română","latitude":45.66021,"longitude":23.01665},{"id":91126,"name":"Comuna Buceş","latitude":46.1913,"longitude":22.97718},{"id":91139,"name":"Comuna Bucureşci","latitude":46.12392,"longitude":22.93047},{"id":91161,"name":"Comuna Bulzeştii De Sus","latitude":46.29383,"longitude":22.77766},{"id":91167,"name":"Comuna Bunila","latitude":45.69454,"longitude":22.65763},{"id":91170,"name":"Comuna Burjuc","latitude":45.971,"longitude":22.50164},{"id":91550,"name":"Comuna Cârjiţi","latitude":45.84678,"longitude":22.83467},{"id":91287,"name":"Comuna Cerbăl","latitude":45.78603,"longitude":22.68059},{"id":91297,"name":"Comuna Certeju de Sus","latitude":45.97437,"longitude":22.98863},{"id":91505,"name":"Comuna Crişcior","latitude":46.12326,"longitude":22.8659},{"id":91613,"name":"Comuna Densuş","latitude":45.56403,"longitude":22.77805},{"id":91633,"name":"Comuna Dobra","latitude":45.88654,"longitude":22.58817},{"id":91837,"name":"Comuna General Berthelot","latitude":45.61164,"longitude":22.88795},{"id":91840,"name":"Comuna Ghelari","latitude":45.7181,"longitude":22.77414},{"id":91958,"name":"Comuna Gurasada","latitude":45.98515,"longitude":22.58854},{"id":92045,"name":"Comuna Hărău","latitude":45.90555,"longitude":22.98136},{"id":92070,"name":"Comuna Ilia","latitude":45.94059,"longitude":22.67861},{"id":92218,"name":"Comuna Lãpugiu De Jos","latitude":45.89222,"longitude":22.45747},{"id":92146,"name":"Comuna Lelese","latitude":45.73754,"longitude":22.68923},{"id":92202,"name":"Comuna Lunca Cernii De Jos","latitude":45.64302,"longitude":22.58438},{"id":92210,"name":"Comuna Luncoiu De Jos","latitude":46.06807,"longitude":22.79112},{"id":92413,"name":"Comuna Mărtineşti","latitude":45.79278,"longitude":23.11998},{"id":92513,"name":"Comuna Orăştioara de Sus","latitude":45.7015,"longitude":23.18208},{"id":92561,"name":"Comuna Pestişu Mic","latitude":45.80178,"longitude":22.83551},{"id":92693,"name":"Comuna Pui","latitude":45.51086,"longitude":23.08463},{"id":92836,"name":"Comuna Răchitova","latitude":45.60982,"longitude":22.76739},{"id":92747,"name":"Comuna Rapoltu Mare","latitude":45.87904,"longitude":23.11543},{"id":92827,"name":"Comuna Râu de Mori","latitude":45.50717,"longitude":22.86463},{"id":92770,"name":"Comuna Ribiţa","latitude":46.20595,"longitude":22.79638},{"id":92783,"name":"Comuna Romos","latitude":45.82922,"longitude":23.30902},{"id":93075,"name":"Comuna Sãlaşu De Sus","latitude":45.50425,"longitude":22.97422},{"id":93069,"name":"Comuna Sântămăria-Orlea","latitude":45.58333,"longitude":22.96667},{"id":92876,"name":"Comuna Sarmizegetusa","latitude":45.50996,"longitude":22.76955},{"id":93538,"name":"Comuna Şoimuş","latitude":45.94589,"longitude":22.86298},{"id":93139,"name":"Comuna Teliucu Inferior","latitude":45.69866,"longitude":22.87925},{"id":93167,"name":"Comuna Tomeşti","latitude":46.22454,"longitude":22.67017},{"id":93177,"name":"Comuna Topliţa","latitude":45.66897,"longitude":22.77399},{"id":93184,"name":"Comuna Toteşti","latitude":45.57137,"longitude":22.89023},{"id":93212,"name":"Comuna Turdaş","latitude":45.84766,"longitude":23.13189},{"id":93462,"name":"Comuna Vălişoara","latitude":46.02285,"longitude":22.82527},{"id":93337,"name":"Comuna Vaţa De Jos","latitude":46.18432,"longitude":22.58002},{"id":93349,"name":"Comuna Veţel","latitude":45.87424,"longitude":22.76738},{"id":93407,"name":"Comuna Vorţa","latitude":46.03672,"longitude":22.67226},{"id":93471,"name":"Comuna Zam","latitude":46.0458,"longitude":22.48786},{"id":93734,"name":"Crişcior","latitude":46.11667,"longitude":22.86667},{"id":93726,"name":"Cristur","latitude":45.82936,"longitude":22.94323},{"id":93919,"name":"Densuş","latitude":45.58333,"longitude":22.8},{"id":93928,"name":"Deva","latitude":45.88333,"longitude":22.9},{"id":93949,"name":"Dobra","latitude":45.91667,"longitude":22.56667},{"id":94291,"name":"General Berthelot","latitude":45.61667,"longitude":22.88333},{"id":94292,"name":"Geoagiu","latitude":45.91667,"longitude":23.2},{"id":94298,"name":"Ghelari","latitude":45.71667,"longitude":22.78333},{"id":94469,"name":"Gurasada","latitude":45.95483,"longitude":22.59491},{"id":94608,"name":"Hărău","latitude":45.9,"longitude":22.95},{"id":94609,"name":"Hărțăgani","latitude":46.05012,"longitude":22.92183},{"id":94525,"name":"Haţeg","latitude":45.61667,"longitude":22.95},{"id":94578,"name":"Hunedoara","latitude":45.75,"longitude":22.9},{"id":94656,"name":"Ilia","latitude":45.93333,"longitude":22.65},{"id":94689,"name":"Iscroni","latitude":45.37794,"longitude":23.34201},{"id":94743,"name":"Jiu-Paroșeni","latitude":45.36175,"longitude":23.26044},{"id":94895,"name":"Lăpugiu de Jos","latitude":45.88333,"longitude":22.48333},{"id":94773,"name":"Lelese","latitude":45.73333,"longitude":22.7},{"id":94862,"name":"Lunca Cernii de Jos","latitude":45.63333,"longitude":22.61667},{"id":94877,"name":"Luncoiu de Jos","latitude":46.1,"longitude":22.76667},{"id":94884,"name":"Lupeni","latitude":45.36029,"longitude":23.23832},{"id":95279,"name":"Mărtineşti","latitude":45.81667,"longitude":23.13333},{"id":95103,"name":"Municipiul  Lupeni","latitude":45.35654,"longitude":23.22162},{"id":95105,"name":"Municipiul  Vulcan","latitude":45.37985,"longitude":23.2748},{"id":95116,"name":"Municipiul Brad","latitude":46.14073,"longitude":22.81284},{"id":95136,"name":"Municipiul Deva","latitude":45.84644,"longitude":22.93123},{"id":95148,"name":"Municipiul Hunedoara","latitude":45.76512,"longitude":22.87538},{"id":95164,"name":"Municipiul Orãştie","latitude":45.83841,"longitude":23.19885},{"id":95167,"name":"Municipiul Petroşani","latitude":45.41963,"longitude":23.35692},{"id":95450,"name":"Oraş Aninoasa","latitude":45.39316,"longitude":23.3302},{"id":95504,"name":"Oraş Cãlan","latitude":45.7394,"longitude":23.01035},{"id":95523,"name":"Oraş Geoagiu","latitude":45.94835,"longitude":23.20022},{"id":95528,"name":"Oraş Haţeg","latitude":45.62512,"longitude":22.92275},{"id":95566,"name":"Oraş Petrila","latitude":45.45352,"longitude":23.43697},{"id":95587,"name":"Oraş Simeria","latitude":45.85296,"longitude":23.00748},{"id":95612,"name":"Oraş Uricani","latitude":45.31733,"longitude":23.08005},{"id":95665,"name":"Orăştie","latitude":45.83333,"longitude":23.2},{"id":95666,"name":"Orăştioara de Sus","latitude":45.73333,"longitude":23.16667},{"id":95765,"name":"Peștișu Mare","latitude":45.80192,"longitude":22.92704},{"id":95761,"name":"Peştişu Mic","latitude":45.8,"longitude":22.88333},{"id":95752,"name":"Petrila","latitude":45.45,"longitude":23.41667},{"id":95756,"name":"Petroşani","latitude":45.41667,"longitude":23.36667},{"id":95950,"name":"Pricaz","latitude":45.85929,"longitude":23.17266},{"id":95977,"name":"Pui","latitude":45.51667,"longitude":23.1},{"id":96187,"name":"Răchitova","latitude":45.6,"longitude":22.75},{"id":96059,"name":"Rapoltu Mare","latitude":45.86667,"longitude":23.06667},{"id":96176,"name":"Râu de Mori","latitude":45.48333,"longitude":22.85},{"id":96092,"name":"Ribiţa","latitude":46.18333,"longitude":22.76667},{"id":96107,"name":"Romos","latitude":45.83333,"longitude":23.28333},{"id":106007,"name":"Sălaşu de Sus","latitude":45.51667,"longitude":22.95},{"id":105981,"name":"Sântămăria-Orlea","latitude":45.58874,"longitude":22.97042},{"id":96247,"name":"Sarmizegetusa","latitude":45.51667,"longitude":22.78333},{"id":96346,"name":"Simeria","latitude":45.85,"longitude":23.01667},{"id":97067,"name":"Şoimuş","latitude":45.91667,"longitude":22.9},{"id":106082,"name":"Teliucu Inferior","latitude":45.71667,"longitude":22.88333},{"id":106122,"name":"Tomeşti","latitude":46.21667,"longitude":22.65},{"id":106132,"name":"Topliţa","latitude":45.68333,"longitude":22.78333},{"id":106142,"name":"Toteşti","latitude":45.56667,"longitude":22.88333},{"id":96559,"name":"Turdaş","latitude":45.85,"longitude":23.11667},{"id":96677,"name":"Uricani","latitude":45.33731,"longitude":23.1524},{"id":96968,"name":"Vălişoara","latitude":46.05,"longitude":22.85},{"id":96780,"name":"Vaţa de Jos","latitude":46.18333,"longitude":22.6},{"id":96798,"name":"Veţel","latitude":45.9,"longitude":22.81667},{"id":96894,"name":"Vorţa","latitude":46.01667,"longitude":22.68333},{"id":96901,"name":"Vulcan","latitude":45.38333,"longitude":23.26667},{"id":96983,"name":"Zam","latitude":46.0,"longitude":22.45},{"id":96985,"name":"Zdrapți","latitude":46.15612,"longitude":22.86954}]