[{"id":31928,"name":"Adalia","latitude":41.64894,"longitude":-5.12107},{"id":31953,"name":"Aguasal","latitude":41.27495,"longitude":-4.6529},{"id":31961,"name":"Aguilar de Campos","latitude":41.98375,"longitude":-5.18117},{"id":31990,"name":"Alaejos","latitude":41.30732,"longitude":-5.21567},{"id":32092,"name":"Alcazarén","latitude":41.37061,"longitude":-4.67262},{"id":32142,"name":"Aldea de San Miguel","latitude":41.46098,"longitude":-4.6158},{"id":32156,"name":"Aldeamayor de San Martín","latitude":41.51256,"longitude":-4.63955},{"id":32283,"name":"Almenara de Adaja","latitude":41.21406,"longitude":-4.67824},{"id":32363,"name":"Amusquillo","latitude":41.74853,"longitude":-4.30117},{"id":32509,"name":"Arroyo de la Encomienda","latitude":41.60956,"longitude":-4.79692},{"id":32549,"name":"Ataquines","latitude":41.18247,"longitude":-4.80319},{"id":32611,"name":"Bahabón","latitude":41.48141,"longitude":-4.27941},{"id":32656,"name":"Barcial de la Loma","latitude":41.95139,"longitude":-5.28353},{"id":152677,"name":"Barruelo del Valle","latitude":0.0,"longitude":0.0},{"id":32726,"name":"Becilla de Valderaduey","latitude":42.09905,"longitude":-5.21805},{"id":32758,"name":"Benafarces","latitude":41.62133,"longitude":-5.29285},{"id":32838,"name":"Bercero","latitude":41.56397,"longitude":-5.0558},{"id":32839,"name":"Berceruelo","latitude":41.58033,"longitude":-5.03267},{"id":32873,"name":"Berrueces","latitude":41.94606,"longitude":-5.09693},{"id":32920,"name":"Bobadilla del Campo","latitude":41.20432,"longitude":-5.02294},{"id":32925,"name":"Bocigas","latitude":41.2307,"longitude":-4.68128},{"id":32926,"name":"Bocos de Duero","latitude":41.62339,"longitude":-4.07048},{"id":32928,"name":"Boecillo","latitude":41.5409,"longitude":-4.6994},{"id":32936,"name":"Bolaños de Campos","latitude":42.0068,"longitude":-5.28428},{"id":152678,"name":"Brahojos de Medina","latitude":0.0,"longitude":0.0},{"id":33039,"name":"Bustillo de Chaves","latitude":42.13114,"longitude":-5.09169},{"id":152679,"name":"Cabezón de Pisuerga","latitude":0.0,"longitude":0.0},{"id":33093,"name":"Cabezón de Valderaduey","latitude":42.16793,"longitude":-5.15892},{"id":33107,"name":"Cabreros del Monte","latitude":41.84906,"longitude":-5.27016},{"id":33183,"name":"Campaspero","latitude":41.49208,"longitude":-4.19608},{"id":152680,"name":"Campillo El","latitude":0.0,"longitude":0.0},{"id":33207,"name":"Camporredondo","latitude":41.47333,"longitude":-4.50503},{"id":33220,"name":"Canalejas de Peñafiel","latitude":41.52513,"longitude":-4.11546},{"id":33243,"name":"Canillas de Esgueva","latitude":41.75464,"longitude":-4.12502},{"id":33313,"name":"Carpio","latitude":41.21329,"longitude":-5.10907},{"id":33380,"name":"Casasola de Arión","latitude":41.57825,"longitude":-5.24076},{"id":152681,"name":"Castrejón de Trabancos","latitude":0.0,"longitude":0.0},{"id":33477,"name":"Castrillo de Duero","latitude":41.57494,"longitude":-4.01547},{"id":33485,"name":"Castrillo-Tejeriego","latitude":41.7034,"longitude":-4.37142},{"id":33493,"name":"Castrobol","latitude":42.13717,"longitude":-5.31423},{"id":33496,"name":"Castrodeza","latitude":41.64921,"longitude":-4.95888},{"id":33499,"name":"Castromembibre","latitude":41.67246,"longitude":-5.30473},{"id":33501,"name":"Castromonte","latitude":41.77355,"longitude":-5.03909},{"id":33503,"name":"Castronuevo de Esgueva","latitude":41.6818,"longitude":-4.58866},{"id":33504,"name":"Castronuño","latitude":41.38918,"longitude":-5.26408},{"id":33506,"name":"Castroponce","latitude":42.12646,"longitude":-5.18245},{"id":33511,"name":"Castroverde de Cerrato","latitude":41.75609,"longitude":-4.22151},{"id":33561,"name":"Ceinos de Campos","latitude":42.03284,"longitude":-5.15007},{"id":33604,"name":"Cervillego de la Cruz","latitude":41.18783,"longitude":-4.94966},{"id":33661,"name":"Cigales","latitude":41.7578,"longitude":-4.69848},{"id":33663,"name":"Ciguñuela","latitude":41.64064,"longitude":-4.85688},{"id":33694,"name":"Cistérniga","latitude":41.61294,"longitude":-4.68697},{"id":152682,"name":"Cogeces de Íscar","latitude":0.0,"longitude":0.0},{"id":33720,"name":"Cogeces del Monte","latitude":41.5103,"longitude":-4.31721},{"id":33778,"name":"Corcos","latitude":41.80946,"longitude":-4.6927},{"id":33804,"name":"Corrales de Duero","latitude":41.67205,"longitude":-4.04817},{"id":33852,"name":"Cubillas de Santa Marta","latitude":41.83358,"longitude":-4.61463},{"id":33865,"name":"Cuenca de Campos","latitude":42.05927,"longitude":-5.05539},{"id":33886,"name":"Curiel de Duero","latitude":41.64327,"longitude":-4.1011},{"id":34050,"name":"Encinas de Esgueva","latitude":41.75653,"longitude":-4.10357},{"id":34096,"name":"Esguevillas de Esgueva","latitude":41.75018,"longitude":-4.38062},{"id":34201,"name":"Fombellida","latitude":41.76693,"longitude":-4.18409},{"id":34203,"name":"Fompedraza","latitude":41.53541,"longitude":-4.14483},{"id":34215,"name":"Fontihoyuelo","latitude":42.16192,"longitude":-5.05791},{"id":34254,"name":"Fresno El Viejo","latitude":41.19752,"longitude":-5.14413},{"id":34287,"name":"Fuensaldaña","latitude":41.70617,"longitude":-4.76547},{"id":34303,"name":"Fuente el Sol","latitude":41.17603,"longitude":-4.9343},{"id":152683,"name":"Fuente-Olmedo","latitude":0.0,"longitude":0.0},{"id":34388,"name":"Gallegos de Hornija","latitude":41.6098,"longitude":-5.09768},{"id":34437,"name":"Gatón de Campos","latitude":42.04984,"longitude":-4.98078},{"id":34455,"name":"Geria","latitude":41.57868,"longitude":-4.87663},{"id":34603,"name":"Herrín de Campos","latitude":42.12476,"longitude":-4.95239},{"id":152684,"name":"Hornillos de Eresma","latitude":0.0,"longitude":0.0},{"id":34765,"name":"Iscar","latitude":41.36117,"longitude":-4.53348},{"id":34948,"name":"Laguna de Duero","latitude":41.58151,"longitude":-4.72332},{"id":34965,"name":"Langayo","latitude":41.56986,"longitude":-4.19866},{"id":35069,"name":"Llano de Olmedo","latitude":41.26727,"longitude":-4.61386},{"id":152685,"name":"Lomoviejo","latitude":0.0,"longitude":0.0},{"id":35272,"name":"Manzanillo","latitude":41.58617,"longitude":-4.18826},{"id":35311,"name":"Marzales","latitude":41.58644,"longitude":-5.13455},{"id":35338,"name":"Matapozuelos","latitude":41.41423,"longitude":-4.79122},{"id":35343,"name":"Matilla de los Caños","latitude":41.54818,"longitude":-4.96761},{"id":35349,"name":"Mayorga","latitude":42.16687,"longitude":-5.26304},{"id":35371,"name":"Medina de Ríoseco","latitude":41.88327,"longitude":-5.04405},{"id":35373,"name":"Medina del Campo","latitude":41.31239,"longitude":-4.91413},{"id":35379,"name":"Megeces","latitude":41.40828,"longitude":-4.56166},{"id":35385,"name":"Melgar de Abajo","latitude":42.24344,"longitude":-5.14216},{"id":35386,"name":"Melgar de Arriba","latitude":42.26806,"longitude":-5.09712},{"id":35474,"name":"Mojados","latitude":41.43237,"longitude":-4.6649},{"id":35497,"name":"Monasterio de Vega","latitude":42.23015,"longitude":-5.18095},{"id":152686,"name":"Montealegre de Campos","latitude":0.0,"longitude":0.0},{"id":35559,"name":"Montemayor de Pililla","latitude":41.50874,"longitude":-4.45745},{"id":35599,"name":"Moral de la Reina","latitude":41.98611,"longitude":-5.07208},{"id":35605,"name":"Moraleja de las Panaderas","latitude":41.27636,"longitude":-4.82521},{"id":35607,"name":"Morales de Campos","latitude":41.86068,"longitude":-5.17252},{"id":35642,"name":"Mota del Marqués","latitude":41.63247,"longitude":-5.17681},{"id":35652,"name":"Mucientes","latitude":41.74278,"longitude":-4.76191},{"id":152687,"name":"Mudarra La","latitude":0.0,"longitude":0.0},{"id":152688,"name":"Muriel","latitude":0.0,"longitude":0.0},{"id":35728,"name":"Nava del Rey","latitude":41.33036,"longitude":-5.08095},{"id":35833,"name":"Nueva Villa de las Torres","latitude":41.26762,"longitude":-5.05685},{"id":35889,"name":"Olivares de Duero","latitude":41.63755,"longitude":-4.36547},{"id":35901,"name":"Olmedo","latitude":41.28706,"longitude":-4.68878},{"id":35905,"name":"Olmos de Esgueva","latitude":41.68815,"longitude":-4.52255},{"id":35907,"name":"Olmos de Peñafiel","latitude":41.57142,"longitude":-4.04316},{"id":36018,"name":"Palazuelo de Vedija","latitude":41.92966,"longitude":-5.14534},{"id":152689,"name":"Parrilla La","latitude":0.0,"longitude":0.0},{"id":152690,"name":"Pedraja de Portillo La","latitude":0.0,"longitude":0.0},{"id":36089,"name":"Pedrajas de San Esteban","latitude":41.34145,"longitude":-4.58225},{"id":36108,"name":"Pedrosa del Rey","latitude":41.55617,"longitude":-5.20466},{"id":36162,"name":"Peñafiel","latitude":41.60165,"longitude":-4.11418},{"id":36164,"name":"Peñaflor de Hornija","latitude":41.71159,"longitude":-4.98333},{"id":152691,"name":"Pesquera de Duero","latitude":0.0,"longitude":0.0},{"id":36228,"name":"Piña de Esgueva","latitude":41.72843,"longitude":-4.42823},{"id":36230,"name":"Piñel de Abajo","latitude":41.67459,"longitude":-4.14655},{"id":36231,"name":"Piñel de Arriba","latitude":41.69923,"longitude":-4.12808},{"id":36263,"name":"Pollos","latitude":41.44406,"longitude":-5.12491},{"id":36291,"name":"Portillo","latitude":41.47867,"longitude":-4.58967},{"id":36313,"name":"Pozal de Gallinas","latitude":41.31831,"longitude":-4.83936},{"id":152692,"name":"Pozaldez","latitude":0.0,"longitude":0.0},{"id":36336,"name":"Pozuelo de la Orden","latitude":41.82138,"longitude":-5.25891},{"id":36474,"name":"Puras","latitude":41.18333,"longitude":-4.65},{"id":36517,"name":"Quintanilla de Arriba","latitude":41.61974,"longitude":-4.21774},{"id":36519,"name":"Quintanilla de Onésimo","latitude":41.6249,"longitude":-4.36291},{"id":36520,"name":"Quintanilla de Trigueros","latitude":41.85449,"longitude":-4.65931},{"id":36524,"name":"Quintanilla del Molar","latitude":41.98935,"longitude":-5.44928},{"id":36708,"name":"Rábano","latitude":41.53314,"longitude":-4.06214},{"id":36545,"name":"Ramiro","latitude":41.22845,"longitude":-4.78608},{"id":152693,"name":"Renedo de Esgueva","latitude":0.0,"longitude":0.0},{"id":152694,"name":"Roales de Campos","latitude":0.0,"longitude":0.0},{"id":36645,"name":"Robladillo","latitude":41.60838,"longitude":-4.90992},{"id":36682,"name":"Roturas","latitude":41.66791,"longitude":-4.11901},{"id":36695,"name":"Rubí de Bracamonte","latitude":41.21421,"longitude":-4.92491},{"id":36697,"name":"Rueda","latitude":41.41231,"longitude":-4.95885},{"id":36734,"name":"Saelices de Mayorga","latitude":42.21206,"longitude":-5.20534},{"id":36782,"name":"Salvador de Zapardiel","latitude":41.11696,"longitude":-4.87486},{"id":36816,"name":"San Cebrián de Mazote","latitude":41.68022,"longitude":-5.14847},{"id":36856,"name":"San Llorente","latitude":41.68631,"longitude":-4.066},{"id":36872,"name":"San Martín de Valvení","latitude":41.75336,"longitude":-4.56724},{"id":36887,"name":"San Miguel del Arroyo","latitude":41.44328,"longitude":-4.4599},{"id":36888,"name":"San Miguel del Pino","latitude":41.50941,"longitude":-4.91149},{"id":36897,"name":"San Pablo de la Moraleja","latitude":41.161,"longitude":-4.77761},{"id":36906,"name":"San Pedro de Latarce","latitude":41.73556,"longitude":-5.32592},{"id":36913,"name":"San Pelayo","latitude":41.68033,"longitude":-5.03403},{"id":36917,"name":"San Román de Hornija","latitude":41.48131,"longitude":-5.28454},{"id":152695,"name":"San Salvador","latitude":0.0,"longitude":0.0},{"id":36931,"name":"San Vicente del Palacio","latitude":41.21901,"longitude":-4.85158},{"id":37050,"name":"Santa Eufemia del Arroyo","latitude":41.89505,"longitude":-5.26575},{"id":37110,"name":"Santervás de Campos","latitude":42.2182,"longitude":-5.10027},{"id":37123,"name":"Santibáñez de Valcorba","latitude":41.56983,"longitude":-4.44938},{"id":37148,"name":"Santovenia de Pisuerga","latitude":41.69457,"longitude":-4.69029},{"id":37159,"name":"Sardón de Duero","latitude":41.60847,"longitude":-4.43397},{"id":152696,"name":"Seca La","latitude":0.0,"longitude":0.0},{"id":37220,"name":"Serrada","latitude":41.45722,"longitude":-4.86279},{"id":37250,"name":"Siete Iglesias de Trabancos","latitude":41.35223,"longitude":-5.18488},{"id":37258,"name":"Simancas","latitude":41.59072,"longitude":-4.82796},{"id":37365,"name":"Tamariz de Campos","latitude":41.97706,"longitude":-5.02335},{"id":37421,"name":"Tiedra","latitude":41.65239,"longitude":-5.26688},{"id":37455,"name":"Tordehumos","latitude":41.81531,"longitude":-5.15811},{"id":37459,"name":"Tordesillas","latitude":41.50202,"longitude":-5.00146},{"id":37492,"name":"Torre de Esgueva","latitude":41.76821,"longitude":-4.20003},{"id":37495,"name":"Torre de Peñafiel","latitude":41.53646,"longitude":-4.08833},{"id":37516,"name":"Torrecilla de la Abadesa","latitude":41.48498,"longitude":-5.08762},{"id":37518,"name":"Torrecilla de la Orden","latitude":41.21885,"longitude":-5.22384},{"id":37519,"name":"Torrecilla de la Torre","latitude":41.66716,"longitude":-5.04982},{"id":37550,"name":"Torrelobatón","latitude":41.64942,"longitude":-5.02526},{"id":37581,"name":"Torrescárcela","latitude":41.48455,"longitude":-4.3192},{"id":37623,"name":"Traspinedo","latitude":41.57509,"longitude":-4.47569},{"id":37638,"name":"Trigueros del Valle","latitude":41.83049,"longitude":-4.65179},{"id":37649,"name":"Tudela de Duero","latitude":41.5845,"longitude":-4.58093},{"id":152697,"name":"Unión de Campos La","latitude":0.0,"longitude":0.0},{"id":37694,"name":"Urones de Castroponce","latitude":42.09911,"longitude":-5.28222},{"id":37698,"name":"Urueña","latitude":41.72738,"longitude":-5.20304},{"id":37723,"name":"Valbuena de Duero","latitude":41.64323,"longitude":-4.29271},{"id":37731,"name":"Valdearcos de la Vega","latitude":41.6426,"longitude":-4.04845},{"id":37777,"name":"Valdenebro de los Valles","latitude":41.8569,"longitude":-4.97005},{"id":37802,"name":"Valdestillas","latitude":41.47697,"longitude":-4.77116},{"id":37814,"name":"Valdunquillo","latitude":42.04232,"longitude":-5.31339},{"id":37836,"name":"Valladolid","latitude":41.65518,"longitude":-4.72372},{"id":37870,"name":"Valoria la Buena","latitude":41.79966,"longitude":-4.53055},{"id":37884,"name":"Valverde de Campos","latitude":41.8351,"longitude":-5.03674},{"id":37906,"name":"Vega de Ruiponce","latitude":42.18808,"longitude":-5.11477},{"id":37912,"name":"Vega de Valdetronco","latitude":41.59364,"longitude":-5.11319},{"id":37924,"name":"Velascálvaro","latitude":41.23028,"longitude":-4.97242},{"id":37928,"name":"Velilla","latitude":41.5592,"longitude":-5.00454},{"id":37935,"name":"Velliza","latitude":41.57918,"longitude":-4.94655},{"id":37943,"name":"Ventosa de la Cuesta","latitude":41.4111,"longitude":-4.82932},{"id":37957,"name":"Viana de Cega","latitude":41.52927,"longitude":-4.75245},{"id":38023,"name":"Villabáñez","latitude":41.63097,"longitude":-4.52192},{"id":38015,"name":"Villabaruz de Campos","latitude":42.01099,"longitude":-4.99624},{"id":38020,"name":"Villabrágima","latitude":41.82178,"longitude":-5.11546},{"id":38024,"name":"Villacarralón","latitude":42.18999,"longitude":-5.04324},{"id":38029,"name":"Villacid de Campos","latitude":42.0825,"longitude":-5.12498},{"id":38032,"name":"Villaco","latitude":41.74022,"longitude":-4.26817},{"id":38054,"name":"Villafrades de Campos","latitude":42.07853,"longitude":-4.97125},{"id":38057,"name":"Villafranca de Duero","latitude":41.4331,"longitude":-5.30192},{"id":38065,"name":"Villafrechós","latitude":41.8929,"longitude":-5.21859},{"id":38067,"name":"Villafuerte","latitude":41.73431,"longitude":-4.32365},{"id":38071,"name":"Villagarcía de Campos","latitude":41.78032,"longitude":-5.19242},{"id":38080,"name":"Villagómez la Nueva","latitude":42.15592,"longitude":-5.14208},{"id":38125,"name":"Villalán de Campos","latitude":42.01484,"longitude":-5.23642},{"id":38090,"name":"Villalar de los Comuneros","latitude":41.54966,"longitude":-5.1381},{"id":38097,"name":"Villalba de la Loma","latitude":42.17472,"longitude":-5.19023},{"id":38099,"name":"Villalba de los Alcores","latitude":41.86361,"longitude":-4.86063},{"id":38104,"name":"Villalbarba","latitude":41.60389,"longitude":-5.21281},{"id":38126,"name":"Villalón de Campos","latitude":42.09994,"longitude":-5.0344},{"id":38165,"name":"Villamuriel de Campos","latitude":41.9469,"longitude":-5.20717},{"id":38380,"name":"Villán de Tordesillas","latitude":41.59311,"longitude":-4.92214},{"id":38168,"name":"Villanubla","latitude":41.69877,"longitude":-4.84173},{"id":38181,"name":"Villanueva de Duero","latitude":41.51946,"longitude":-4.86671},{"id":38197,"name":"Villanueva de la Condesa","latitude":42.14914,"longitude":-5.0955},{"id":38209,"name":"Villanueva de los Caballeros","latitude":41.75916,"longitude":-5.24786},{"id":152030,"name":"Villanueva de los Infantes","latitude":0.0,"longitude":0.0},{"id":38190,"name":"Villanueva de San Mancio","latitude":41.92842,"longitude":-5.012},{"id":38266,"name":"Villardefrades","latitude":41.72358,"longitude":-5.25513},{"id":38289,"name":"Villarmentero de Esgueva","latitude":41.68515,"longitude":-4.54636},{"id":38326,"name":"Villasexmir","latitude":41.63943,"longitude":-5.0647},{"id":38339,"name":"Villavaquerín","latitude":41.66357,"longitude":-4.46287},{"id":38341,"name":"Villavellid","latitude":41.69218,"longitude":-5.2763},{"id":38346,"name":"Villaverde de Medina","latitude":41.30687,"longitude":-5.02625},{"id":38355,"name":"Villavicencio de los Caballeros","latitude":42.05893,"longitude":-5.23566},{"id":38383,"name":"Viloria","latitude":41.44604,"longitude":-4.38356},{"id":38419,"name":"Wamba","latitude":41.67525,"longitude":-4.91748},{"id":38473,"name":"Zaratán","latitude":41.65971,"longitude":-4.78417},{"id":152698,"name":"Zarza La","latitude":0.0,"longitude":0.0}]