[{"id":79781,"name":"Cambridge","latitude":-37.87822,"longitude":175.4402},{"id":79786,"name":"Coromandel","latitude":-36.7611,"longitude":175.49634},{"id":79799,"name":"Hamilton","latitude":-37.78333,"longitude":175.28333},{"id":79827,"name":"Matamata","latitude":-37.8106,"longitude":175.76237},{"id":79840,"name":"Ngaruawahia","latitude":-37.66738,"longitude":175.15554},{"id":79841,"name":"Ngatea","latitude":-37.28333,"longitude":175.5},{"id":79848,"name":"Otorohanga","latitude":-38.18333,"longitude":175.2},{"id":79850,"name":"Paeroa","latitude":-37.36667,"longitude":175.66667},{"id":79867,"name":"Raglan","latitude":-37.8,"longitude":174.88333},{"id":79879,"name":"South Waikato District","latitude":-38.16797,"longitude":175.88624},{"id":79883,"name":"Tairua","latitude":-37.01667,"longitude":175.85},{"id":79888,"name":"Taupo","latitude":-38.68333,"longitude":176.08333},{"id":79891,"name":"Te Kauwhata","latitude":-37.4,"longitude":175.15},{"id":79892,"name":"Thames","latitude":-37.13832,"longitude":175.54011},{"id":79897,"name":"Tokoroa","latitude":-38.23333,"longitude":175.86667},{"id":79898,"name":"Turangi","latitude":-38.99037,"longitude":175.80837},{"id":79900,"name":"Waihi","latitude":-37.38333,"longitude":175.83333},{"id":79920,"name":"Whangamata","latitude":-37.2,"longitude":175.86667},{"id":79922,"name":"Whitianga","latitude":-36.83333,"longitude":175.7}]