[{"id":150359,"name":"Abali","latitude":35.767596,"longitude":51.9412993},{"id":150358,"name":"Absard","latitude":35.6293144,"longitude":52.1340745},{"id":150351,"name":"Ahmadabad-E Mostowfi","latitude":35.6351851,"longitude":51.203692},{"id":134782,"name":"Andisheh","latitude":35.6803,"longitude":51.0193},{"id":150377,"name":"Arjmand","latitude":35.8140017,"longitude":52.5035333},{"id":150364,"name":"Baghershahr","latitude":35.5335618,"longitude":51.3954691},{"id":150372,"name":"Baghestan","latitude":35.6424709,"longitude":51.0802008},{"id":134800,"name":"Baharestan","latitude":35.53333,"longitude":51.15},{"id":150357,"name":"Bumehen","latitude":35.733646,"longitude":51.868124},{"id":150352,"name":"Chahar Dangeh","latitude":35.596159,"longitude":51.315565},{"id":134840,"name":"Damavand","latitude":35.63005,"longitude":52.1375},{"id":134629,"name":"Eqbaliyeh","latitude":35.3022,"longitude":51.5358},{"id":134631,"name":"Eslamshahr","latitude":35.55222,"longitude":51.23504},{"id":150370,"name":"Fasham","latitude":35.9317215,"longitude":51.511309},{"id":150375,"name":"Ferdosiye","latitude":35.5972932,"longitude":51.0240263},{"id":150356,"name":"Ferunabad","latitude":35.5145631,"longitude":51.6100732},{"id":134875,"name":"Firuzkuh","latitude":35.72852,"longitude":52.74164},{"id":150354,"name":"Golestan","latitude":35.5207449,"longitude":51.170175},{"id":150365,"name":"Hasanabad","latitude":35.3695228,"longitude":51.2215231},{"id":150379,"name":"Javadabad","latitude":35.2102001,"longitude":51.6727752},{"id":150367,"name":"Kahrizak","latitude":35.5168394,"longitude":51.3507842},{"id":150361,"name":"Kilan","latitude":35.5526704,"longitude":52.1162218},{"id":150371,"name":"Lavasan","latitude":35.8232502,"longitude":51.60526},{"id":134693,"name":"Malard","latitude":35.6659,"longitude":50.9767},{"id":150355,"name":"Nasimshahr","latitude":35.5638588,"longitude":51.1396836},{"id":150363,"name":"Nasirshahr","latitude":35.4903116,"longitude":51.1323023},{"id":134993,"name":"Pakdasht","latitude":35.49448,"longitude":51.75302},{"id":150362,"name":"Parand","latitude":35.4902611,"longitude":50.9181541},{"id":134726,"name":"Pardis","latitude":35.74169,"longitude":51.77705},{"id":134734,"name":"Pishva","latitude":35.308,"longitude":51.7267},{"id":134737,"name":"Qarchak","latitude":35.42867,"longitude":51.57544},{"id":134743,"name":"Qods","latitude":35.71667,"longitude":51.06667},{"id":134752,"name":"Rey","latitude":35.37448,"longitude":51.27743},{"id":134754,"name":"Robat Karim","latitude":35.4846,"longitude":51.0829},{"id":150360,"name":"Rudehen","latitude":35.7338129,"longitude":51.8981265},{"id":150374,"name":"Sabashahr","latitude":35.5832376,"longitude":51.0814684},{"id":150378,"name":"Safadasht","latitude":35.684489,"longitude":50.824658},{"id":150353,"name":"salehie","latitude":35.5999212,"longitude":51.2827227},{"id":150373,"name":"Shahedshahr","latitude":35.5726924,"longitude":51.0788298},{"id":150366,"name":"Shahr-e-Rey","latitude":35.5725813,"longitude":51.4233648},{"id":134779,"name":"Shahrak-e Emam Hasan","latitude":35.48846,"longitude":51.34567},{"id":135038,"name":"Shahriar","latitude":35.62828,"longitude":51.06632},{"id":135107,"name":"Sharifabad","latitude":35.4275,"longitude":51.78528},{"id":135039,"name":"Shemiranat","latitude":35.93141,"longitude":51.58997},{"id":150369,"name":"Shemshak","latitude":36.0112867,"longitude":51.486547},{"id":135118,"name":"Soleh Bon","latitude":35.76841,"longitude":52.56091},{"id":150368,"name":"Tajrish","latitude":35.8046493,"longitude":51.4313206},{"id":135159,"name":"Taleb abad","latitude":35.5013,"longitude":51.53147},{"id":135129,"name":"Tehran","latitude":35.69439,"longitude":51.42151},{"id":150376,"name":"Vahidieh","latitude":35.6048346,"longitude":51.0162591},{"id":135137,"name":"Varamin","latitude":35.3242,"longitude":51.6457}]