[{"id":85781,"name":"Aleksandrów Kujawski","latitude":52.87659,"longitude":18.69345},{"id":85808,"name":"Barcin","latitude":52.86607,"longitude":17.94625},{"id":85812,"name":"Bartniczka","latitude":53.24776,"longitude":19.60433},{"id":85814,"name":"Baruchowo","latitude":52.49412,"longitude":19.26496},{"id":85839,"name":"Białe Błota","latitude":53.09516,"longitude":17.91621},{"id":85889,"name":"Bobrowniki","latitude":52.78086,"longitude":18.96026},{"id":85891,"name":"Bobrowo","latitude":53.28549,"longitude":19.27053},{"id":85917,"name":"Boniewo","latitude":52.46532,"longitude":18.89116},{"id":85943,"name":"Brodnica","latitude":53.25967,"longitude":19.39653},{"id":85966,"name":"Brześć Kujawski","latitude":52.60532,"longitude":18.90173},{"id":85971,"name":"Brzozie","latitude":53.32554,"longitude":19.60485},{"id":85973,"name":"Brzuze","latitude":53.05458,"longitude":19.26195},{"id":85989,"name":"Bukowiec","latitude":53.43383,"longitude":18.24048},{"id":85999,"name":"Bydgoszcz","latitude":53.1235,"longitude":18.00762},{"id":86007,"name":"Bytoń","latitude":52.55757,"longitude":18.59522},{"id":86021,"name":"Cekcyn","latitude":53.57294,"longitude":18.01123},{"id":86031,"name":"Chełmno","latitude":53.34855,"longitude":18.4251},{"id":86032,"name":"Chełmża","latitude":53.18463,"longitude":18.60466},{"id":86038,"name":"Choceń","latitude":52.48618,"longitude":19.01339},{"id":86044,"name":"Chodecz","latitude":52.40513,"longitude":19.02759},{"id":86058,"name":"Chrostkowo","latitude":52.94378,"longitude":19.25328},{"id":86078,"name":"Ciechocin","latitude":53.05581,"longitude":18.92635},{"id":86079,"name":"Ciechocinek","latitude":52.87908,"longitude":18.79505},{"id":86136,"name":"Czerniewice","latitude":52.51157,"longitude":19.08694},{"id":86137,"name":"Czernikowo","latitude":52.94688,"longitude":18.93803},{"id":86237,"name":"Dąbrowa","latitude":52.74668,"longitude":17.94342},{"id":86239,"name":"Dąbrowa Chełmińska","latitude":53.17518,"longitude":18.30537},{"id":86254,"name":"Dębowa Łąka","latitude":53.25541,"longitude":19.09595},{"id":86171,"name":"Dobre","latitude":52.68398,"longitude":18.57762},{"id":86180,"name":"Dobrzyń nad Wisłą","latitude":52.63814,"longitude":19.31875},{"id":86203,"name":"Drzycim","latitude":53.5052,"longitude":18.3094},{"id":86266,"name":"Fabianki","latitude":52.71929,"longitude":19.10943},{"id":86272,"name":"Fordon","latitude":53.14821,"longitude":18.17036},{"id":86424,"name":"Gąsawa","latitude":52.76757,"longitude":17.75579},{"id":86312,"name":"Gniewkowo","latitude":52.89461,"longitude":18.40785},{"id":86329,"name":"Golub-Dobrzyń","latitude":53.11087,"longitude":19.05381},{"id":86419,"name":"Górzno","latitude":53.19779,"longitude":19.64317},{"id":86344,"name":"Gostycyn","latitude":53.49014,"longitude":17.80978},{"id":86386,"name":"Grudziądz","latitude":53.48411,"longitude":18.75366},{"id":86388,"name":"Gruta","latitude":53.45315,"longitude":18.957},{"id":86459,"name":"Inowrocław","latitude":52.79886,"longitude":18.26387},{"id":86469,"name":"Izbica Kujawska","latitude":52.42073,"longitude":18.7627},{"id":86485,"name":"Jabłonowo Pomorskie","latitude":53.39137,"longitude":19.15509},{"id":86493,"name":"Janikowo","latitude":52.75328,"longitude":18.11328},{"id":86501,"name":"Janowiec Wielkopolski","latitude":52.75583,"longitude":17.48981},{"id":86558,"name":"Jeżewo","latitude":53.51061,"longitude":18.49437},{"id":86555,"name":"Jeziora Wielkie","latitude":52.53043,"longitude":18.26803},{"id":86600,"name":"Kamień Krajeński","latitude":53.53352,"longitude":17.52019},{"id":86631,"name":"Kcynia","latitude":52.99192,"longitude":17.4883},{"id":86857,"name":"Kęsowo","latitude":53.55872,"longitude":17.7158},{"id":86639,"name":"Kikół","latitude":52.90994,"longitude":19.12016},{"id":86705,"name":"Koronowo","latitude":53.3137,"longitude":17.93698},{"id":86725,"name":"Kowal","latitude":52.53019,"longitude":19.14767},{"id":86730,"name":"Kowalewo Pomorskie","latitude":53.15432,"longitude":18.89868},{"id":86793,"name":"Kruszwica","latitude":52.67562,"longitude":18.33131},{"id":86917,"name":"Lipno","latitude":52.84436,"longitude":19.17852},{"id":86924,"name":"Lisewo","latitude":53.2958,"longitude":18.68714},{"id":86929,"name":"Lniano","latitude":53.52801,"longitude":18.21267},{"id":86931,"name":"Lubanie","latitude":52.74689,"longitude":18.9194},{"id":86939,"name":"Lubicz Dolny","latitude":53.03151,"longitude":18.74559},{"id":86940,"name":"Lubicz Górny","latitude":53.02686,"longitude":18.771},{"id":86943,"name":"Lubień Kujawski","latitude":52.40574,"longitude":19.1644},{"id":86941,"name":"Lubiewo","latitude":53.46542,"longitude":18.02994},{"id":86957,"name":"Lubraniec","latitude":52.54178,"longitude":18.83254},{"id":88755,"name":"Łabiszyn","latitude":52.9521,"longitude":17.91971},{"id":88769,"name":"Łasin","latitude":53.51794,"longitude":19.08832},{"id":88796,"name":"Łubianka","latitude":53.13864,"longitude":18.48115},{"id":88808,"name":"Łysomice","latitude":53.08629,"longitude":18.62002},{"id":87086,"name":"Mogilno","latitude":52.65806,"longitude":17.95578},{"id":87101,"name":"Mrocza","latitude":53.24313,"longitude":17.60405},{"id":87135,"name":"Nakło nad Notecią","latitude":53.14214,"longitude":17.60181},{"id":87168,"name":"Nieszawa","latitude":52.83452,"longitude":18.89921},{"id":87179,"name":"Nowa Wieś Wielka","latitude":52.97159,"longitude":18.09036},{"id":87180,"name":"Nowe","latitude":53.64906,"longitude":18.72716},{"id":87219,"name":"Obrowo","latitude":52.97149,"longitude":18.87863},{"id":87276,"name":"Osie","latitude":53.59918,"longitude":18.34373},{"id":87294,"name":"Osięciny","latitude":52.62926,"longitude":18.72208},{"id":87285,"name":"Osiek","latitude":52.92629,"longitude":18.80765},{"id":87292,"name":"Osielsko","latitude":53.18505,"longitude":18.08418},{"id":87300,"name":"Ostrowite","latitude":53.06917,"longitude":19.29337},{"id":87338,"name":"Pakość","latitude":52.80178,"longitude":18.0853},{"id":87393,"name":"Piotrków Kujawski","latitude":52.55111,"longitude":18.49905},{"id":87868,"name":"Płużnica","latitude":53.29672,"longitude":18.77692},{"id":87457,"name":"Powiat aleksandrowski","latitude":52.78465,"longitude":18.7193},{"id":87473,"name":"Powiat brodnicki","latitude":53.26982,"longitude":19.42279},{"id":87479,"name":"Powiat bydgoski","latitude":53.19029,"longitude":18.03808},{"id":87482,"name":"Powiat chełmiński","latitude":53.30056,"longitude":18.50396},{"id":87506,"name":"Powiat golubsko-dobrzyński","latitude":53.09922,"longitude":18.99209},{"id":87515,"name":"Powiat grudziądzki","latitude":53.47146,"longitude":18.9162},{"id":87524,"name":"Powiat inowrocławski","latitude":52.76463,"longitude":18.29671},{"id":87571,"name":"Powiat lipnowski","latitude":52.81573,"longitude":19.21704},{"id":87590,"name":"Powiat mogileński","latitude":52.6616,"longitude":18.07424},{"id":87597,"name":"Powiat nakielski","latitude":53.0948,"longitude":17.58988},{"id":87658,"name":"Powiat radziejowski","latitude":52.62358,"longitude":18.52964},{"id":87665,"name":"Powiat rypiński","latitude":53.06613,"longitude":19.40975},{"id":87696,"name":"Powiat sępoleński","latitude":53.44263,"longitude":17.50895},{"id":87763,"name":"Powiat świecki","latitude":53.48128,"longitude":18.41163},{"id":87708,"name":"Powiat toruński","latitude":52.98255,"longitude":18.83331},{"id":87710,"name":"Powiat tucholski","latitude":53.58146,"longitude":17.93967},{"id":87729,"name":"Powiat wąbrzeski","latitude":53.28267,"longitude":18.92649},{"id":87733,"name":"Powiat włocławski","latitude":52.55662,"longitude":19.05157},{"id":87766,"name":"Powiat żniński","latitude":52.82255,"longitude":17.73743},{"id":87797,"name":"Pruszcz","latitude":53.33021,"longitude":18.19894},{"id":87874,"name":"Raciążek","latitude":52.8565,"longitude":18.81334},{"id":87885,"name":"Radomin","latitude":53.0867,"longitude":19.19415},{"id":87898,"name":"Radziejów","latitude":52.62481,"longitude":18.52771},{"id":87903,"name":"Radzyń Chełmiński","latitude":53.38509,"longitude":18.93725},{"id":87944,"name":"Rogowo","latitude":52.72449,"longitude":17.65117},{"id":87952,"name":"Rogóźno","latitude":53.53587,"longitude":18.92859},{"id":88012,"name":"Rypin","latitude":53.06603,"longitude":19.40941},{"id":88040,"name":"Sadki","latitude":53.16036,"longitude":17.44912},{"id":88333,"name":"Sępólno Krajeńskie","latitude":53.45198,"longitude":17.53169},{"id":88060,"name":"Sicienko","latitude":53.20387,"longitude":17.80051},{"id":88124,"name":"Skępe","latitude":52.86798,"longitude":19.35604},{"id":88115,"name":"Skrwilno","latitude":53.01607,"longitude":19.62364},{"id":88831,"name":"Ślesin","latitude":53.16514,"longitude":17.70258},{"id":88833,"name":"Śliwice","latitude":53.70875,"longitude":18.1737},{"id":88142,"name":"Solec Kujawski","latitude":53.08371,"longitude":18.22572},{"id":88160,"name":"Sośno","latitude":53.38922,"longitude":17.68713},{"id":88232,"name":"Strzelno","latitude":52.62789,"longitude":18.17246},{"id":88847,"name":"Świecie","latitude":53.40953,"longitude":18.44742},{"id":88848,"name":"Świecie nad Osą","latitude":53.444,"longitude":19.10171},{"id":88849,"name":"Świedziebnia","latitude":53.15207,"longitude":19.55463},{"id":88850,"name":"Świekatowo","latitude":53.41864,"longitude":18.09731},{"id":88280,"name":"Sypniewo","latitude":53.36981,"longitude":17.3269},{"id":88317,"name":"Szubin","latitude":53.00967,"longitude":17.74},{"id":88444,"name":"Tłuchowo","latitude":52.74715,"longitude":19.46563},{"id":88383,"name":"Topólka","latitude":52.50327,"longitude":18.71246},{"id":88384,"name":"Toruń","latitude":53.01375,"longitude":18.59814},{"id":88417,"name":"Tuchola","latitude":53.58792,"longitude":17.85905},{"id":88456,"name":"Unisław","latitude":53.21241,"longitude":18.38622},{"id":88631,"name":"Wąbrzeźno","latitude":53.27989,"longitude":18.94773},{"id":88471,"name":"Waganiec","latitude":52.8012,"longitude":18.87589},{"id":88634,"name":"Wąpielsk","latitude":53.13761,"longitude":19.27792},{"id":88478,"name":"Warlubie","latitude":53.58751,"longitude":18.63444},{"id":88557,"name":"Więcbork","latitude":53.35384,"longitude":17.49064},{"id":88500,"name":"Wielgie","latitude":52.74076,"longitude":19.2635},{"id":88504,"name":"Wielka Nieszawka","latitude":52.99619,"longitude":18.50973},{"id":88524,"name":"Wierzchosławice","latitude":52.86923,"longitude":18.35609},{"id":88649,"name":"Włocławek","latitude":52.64817,"longitude":19.0678},{"id":88713,"name":"Zbójno","latitude":53.00848,"longitude":19.1575},{"id":88741,"name":"Zławieś Wielka","latitude":53.09562,"longitude":18.32897},{"id":88748,"name":"Złotniki Kujawskie","latitude":52.89943,"longitude":18.14564},{"id":88888,"name":"Żnin","latitude":52.84958,"longitude":17.71992}]