[{"id":149594,"name":"Abu Qir","latitude":31.31666667,"longitude":30.06666667},{"id":149595,"name":"Agami","latitude":31.0959,"longitude":29.7604},{"id":31787,"name":"Alexandria","latitude":31.20176,"longitude":29.91582},{"id":149596,"name":"Ar-Raml","latitude":31.24821,"longitude":29.97368},{"id":149597,"name":"Borg El Arab","latitude":30.91666667,"longitude":29.53333333},{"id":149598,"name":"Montaza","latitude":31.2827,"longitude":30.0219},{"id":149599,"name":"New Borg El Arab","latitude":30.88525,"longitude":29.57721},{"id":149600,"name":"Sidi Bishr","latitude":31.2521,"longitude":29.9945}]