[{"id":105380,"name":"Amphoe Kathu","latitude":7.91456,"longitude":98.3333},{"id":105575,"name":"Amphoe Mueang Phuket","latitude":7.85609,"longitude":98.37183},{"id":106295,"name":"Amphoe Thalang","latitude":8.03407,"longitude":98.33399},{"id":106386,"name":"Ban Chalong","latitude":7.84468,"longitude":98.33897},{"id":106391,"name":"Ban Karon","latitude":7.84769,"longitude":98.2985},{"id":106392,"name":"Ban Kata","latitude":7.82125,"longitude":98.30703},{"id":106395,"name":"Ban Ko Kaeo","latitude":7.93599,"longitude":98.39664},{"id":106399,"name":"Ban Mai Khao","latitude":8.12713,"longitude":98.30738},{"id":106411,"name":"Ban Ratsada","latitude":7.90963,"longitude":98.40248},{"id":106417,"name":"Ban Talat Nua","latitude":7.88489,"longitude":98.38557},{"id":106418,"name":"Ban Talat Yai","latitude":7.88481,"longitude":98.40008},{"id":106516,"name":"Kathu","latitude":7.91779,"longitude":98.33322},{"id":106578,"name":"Nai Harn","latitude":7.77859,"longitude":98.30661},{"id":106615,"name":"Patong","latitude":7.89607,"longitude":98.29661},{"id":106650,"name":"Phuket","latitude":7.89059,"longitude":98.3981},{"id":106666,"name":"Rawai","latitude":7.77965,"longitude":98.32532},{"id":106753,"name":"Wichit","latitude":7.8894,"longitude":98.38523}]