[{"id":18946,"name":"Antofagasta","latitude":-23.65236,"longitude":-70.3954},{"id":18952,"name":"Calama","latitude":-22.45667,"longitude":-68.92371},{"id":148326,"name":"María Elena","latitude":-22.35,"longitude":-69.66666667},{"id":19033,"name":"Mejillones","latitude":-23.1,"longitude":-70.45},{"id":19074,"name":"Ollagüe","latitude":-21.22496,"longitude":-68.25352},{"id":19107,"name":"San Pedro de Atacama","latitude":-22.9111,"longitude":-68.20113},{"id":19051,"name":"Sierra Gorda","latitude":-22.88333333,"longitude":-69.31666667},{"id":19115,"name":"Taltal","latitude":-25.40713,"longitude":-70.48554},{"id":19118,"name":"Tocopilla","latitude":-22.09198,"longitude":-70.19792}]