[{"id":163,"name":"Bashkia Kavajë","latitude":41.18127,"longitude":19.55579},{"id":190,"name":"Bashkia Vorë","latitude":41.39804,"longitude":19.67703},{"id":207,"name":"Kamëz","latitude":41.38167,"longitude":19.76028},{"id":208,"name":"Kavajë","latitude":41.18556,"longitude":19.55694},{"id":213,"name":"Krrabë","latitude":41.21556,"longitude":19.97139},{"id":248,"name":"Rrethi i Kavajës","latitude":41.16667,"longitude":19.58333},{"id":259,"name":"Rrethi i Tiranës","latitude":41.33333,"longitude":19.91667},{"id":260,"name":"Rrogozhinë","latitude":41.07639,"longitude":19.66528},{"id":268,"name":"Sinaballaj","latitude":41.06889,"longitude":19.69944},{"id":271,"name":"Tirana","latitude":41.3275,"longitude":19.81889},{"id":277,"name":"Vorë","latitude":41.39083,"longitude":19.655}]