[{"id":31474,"name":"’Aïn el Bell","latitude":34.34381,"longitude":3.22475},{"id":31246,"name":"Aïn Oussera","latitude":35.45139,"longitude":2.90583},{"id":31273,"name":"Birine","latitude":35.635,"longitude":3.225},{"id":31300,"name":"Charef","latitude":34.62098,"longitude":2.79503},{"id":31311,"name":"Dar Chioukh","latitude":34.89638,"longitude":3.48543},{"id":31318,"name":"Djelfa","latitude":34.67279,"longitude":3.263},{"id":31336,"name":"El Idrissia","latitude":34.44542,"longitude":2.52749},{"id":31385,"name":"Messaad","latitude":34.15429,"longitude":3.50309}]