[{"id":55291,"name":"Báta","latitude":46.12864,"longitude":18.77027},{"id":55292,"name":"Bátaszék","latitude":46.19373,"longitude":18.72307},{"id":55251,"name":"Bogyiszló","latitude":46.38638,"longitude":18.82962},{"id":55308,"name":"Bölcske","latitude":46.74102,"longitude":18.96736},{"id":55255,"name":"Bonyhád","latitude":46.29921,"longitude":18.53024},{"id":55256,"name":"Bonyhádi Járás","latitude":46.33998,"longitude":18.49739},{"id":55355,"name":"Decs","latitude":46.28428,"longitude":18.76},{"id":55390,"name":"Döbrököz","latitude":46.42178,"longitude":18.23953},{"id":55368,"name":"Dombóvár","latitude":46.37657,"longitude":18.13696},{"id":55369,"name":"Dombóvári Járás","latitude":46.45592,"longitude":18.19076},{"id":55373,"name":"Dunaföldvár","latitude":46.80713,"longitude":18.92763},{"id":55379,"name":"Dunaszentgyörgy","latitude":46.52852,"longitude":18.81771},{"id":55415,"name":"Fadd","latitude":46.46476,"longitude":18.81925},{"id":55465,"name":"Gyönk","latitude":46.55603,"longitude":18.47694},{"id":55523,"name":"Hőgyész","latitude":46.49697,"longitude":18.41841},{"id":55528,"name":"Iregszemcse","latitude":46.69286,"longitude":18.18581},{"id":55673,"name":"Madocsa","latitude":46.6879,"longitude":18.95791},{"id":55745,"name":"Nagydorog","latitude":46.62749,"longitude":18.65565},{"id":55758,"name":"Nagymányok","latitude":46.27911,"longitude":18.45489},{"id":55795,"name":"Németkér","latitude":46.71637,"longitude":18.76311},{"id":56170,"name":"Őcsény","latitude":46.3137,"longitude":18.75749},{"id":55803,"name":"Ozora","latitude":46.75133,"longitude":18.4001},{"id":55805,"name":"Paks","latitude":46.6221,"longitude":18.85569},{"id":55806,"name":"Paksi Járás","latitude":46.66035,"longitude":18.78572},{"id":55825,"name":"Pincehely","latitude":46.68095,"longitude":18.43935},{"id":55899,"name":"Simontornya","latitude":46.75462,"longitude":18.5549},{"id":55924,"name":"Szedres","latitude":46.47551,"longitude":18.68305},{"id":55930,"name":"Szekszárd","latitude":46.35014,"longitude":18.70905},{"id":55931,"name":"Szekszárdi Járás","latitude":46.33998,"longitude":18.67893},{"id":55940,"name":"Szentgálpuszta","latitude":46.37479,"longitude":18.62601},{"id":56007,"name":"Tamási","latitude":46.63333,"longitude":18.28333},{"id":56008,"name":"Tamási Járás","latitude":46.65424,"longitude":18.35857},{"id":56019,"name":"Tengelic","latitude":46.52878,"longitude":18.71117},{"id":56053,"name":"Tolna","latitude":46.42677,"longitude":18.78248},{"id":56054,"name":"Tolnai Járás","latitude":46.42541,"longitude":18.82691},{"id":56129,"name":"Zomba","latitude":46.41084,"longitude":18.56577}]