[{"id":65931,"name":"Ain Ebel","latitude":33.11023,"longitude":35.40251},{"id":65942,"name":"Caza de Bent Jbaïl","latitude":33.15964,"longitude":35.41137},{"id":65943,"name":"Caza de Nabatîyé","latitude":33.39435,"longitude":35.44483},{"id":65946,"name":"Habboûch","latitude":33.40729,"longitude":35.48169},{"id":65949,"name":"Marjayoûn","latitude":33.36028,"longitude":35.59111},{"id":65950,"name":"Nabatîyé et Tahta","latitude":33.37889,"longitude":35.48389}]