[{"id":67076,"name":"Aïn Leuh","latitude":33.28984,"longitude":-5.33863},{"id":67053,"name":"Aknoul","latitude":34.65371,"longitude":-3.86754},{"id":67059,"name":"Almis Marmoucha","latitude":33.32,"longitude":-4.18},{"id":67074,"name":"Azrou","latitude":33.43443,"longitude":-5.22126},{"id":67083,"name":"Bhalil","latitude":33.85194,"longitude":-4.87228},{"id":67088,"name":"Bouarouss","latitude":34.36,"longitude":-4.81},{"id":67092,"name":"Boulemane","latitude":33.16667,"longitude":-4.0},{"id":67109,"name":"El Hajeb","latitude":33.68786,"longitude":-5.371},{"id":67112,"name":"El-Hajeb","latitude":33.72883,"longitude":-5.46119},{"id":67118,"name":"Fes","latitude":34.04,"longitude":-4.87},{"id":67123,"name":"Fès al Bali","latitude":34.0701,"longitude":-4.95473},{"id":67124,"name":"Galaz","latitude":34.54424,"longitude":-4.80355},{"id":67125,"name":"Ghouazi","latitude":34.47737,"longitude":-5.30235},{"id":67128,"name":"Guercif","latitude":34.22568,"longitude":-3.35361},{"id":67132,"name":"Ifrane","latitude":33.33333,"longitude":-5.25},{"id":67163,"name":"Meknes","latitude":33.97761,"longitude":-5.52496},{"id":67169,"name":"Missour","latitude":33.04893,"longitude":-3.98947},{"id":67171,"name":"Moulay Bouchta","latitude":34.48922,"longitude":-5.13023},{"id":67172,"name":"Moulay-Yacoub","latitude":34.14558,"longitude":-5.10259},{"id":67179,"name":"Oued Amlil","latitude":34.2,"longitude":-4.28},{"id":67189,"name":"Oulad Tayeb","latitude":33.94633,"longitude":-4.99509},{"id":67192,"name":"Ourtzagh","latitude":34.53477,"longitude":-4.96878},{"id":67200,"name":"Sefrou","latitude":33.79979,"longitude":-4.68},{"id":67226,"name":"Tahla","latitude":34.04965,"longitude":-4.42162},{"id":67228,"name":"Talzemt","latitude":33.59,"longitude":-4.19},{"id":67237,"name":"Taounate","latitude":34.5,"longitude":-4.83333},{"id":67245,"name":"Taza","latitude":34.25,"longitude":-3.75},{"id":67261,"name":"Tmourghout","latitude":33.9065,"longitude":-4.02696}]