[{"id":57610,"name":"Aizawl","latitude":23.8,"longitude":92.9},{"id":58184,"name":"Champhai","latitude":23.47444,"longitude":93.32556},{"id":131656,"name":"Darlawn","latitude":24.01336,"longitude":92.92439},{"id":132486,"name":"Khawhai","latitude":23.37807,"longitude":93.12797},{"id":132554,"name":"Kolasib","latitude":24.22388,"longitude":92.67869},{"id":132555,"name":"Kolasib district","latitude":24.22215,"longitude":92.67697},{"id":132761,"name":"Lawngtlai","latitude":22.53,"longitude":92.9},{"id":132787,"name":"Lunglei","latitude":22.9,"longitude":92.75},{"id":132879,"name":"Mamit","latitude":23.78492,"longitude":92.46939},{"id":133242,"name":"North Vanlaiphai","latitude":23.13227,"longitude":93.06532},{"id":133756,"name":"Saiha","latitude":22.49183,"longitude":92.98143},{"id":133759,"name":"Sairang","latitude":23.81034,"longitude":92.65226},{"id":134063,"name":"Saitlaw","latitude":23.97187,"longitude":92.57454},{"id":133847,"name":"Serchhip","latitude":23.28172,"longitude":92.90039},{"id":134148,"name":"Thenzawl","latitude":23.31667,"longitude":92.75}]