[{"id":110971,"name":"Abbottstown","latitude":39.88649,"longitude":-76.9847},{"id":111019,"name":"Adams County","latitude":39.87145,"longitude":-77.21789},{"id":111030,"name":"Adamstown","latitude":40.2412,"longitude":-76.05633},{"id":111079,"name":"Akron","latitude":40.15676,"longitude":-76.20217},{"id":111129,"name":"Albion","latitude":41.89061,"longitude":-80.36645},{"id":111131,"name":"Alburtis","latitude":40.51093,"longitude":-75.60297},{"id":111135,"name":"Aldan","latitude":39.9215,"longitude":-75.28796},{"id":111174,"name":"Aliquippa","latitude":40.63673,"longitude":-80.24006},{"id":111185,"name":"Allegheny County","latitude":40.46883,"longitude":-79.98119},{"id":111186,"name":"Alleghenyville","latitude":40.23426,"longitude":-75.98855},{"id":111199,"name":"Allentown","latitude":40.60843,"longitude":-75.49018},{"id":111202,"name":"Allison Park","latitude":40.55951,"longitude":-79.95867},{"id":111212,"name":"Almedia","latitude":41.01453,"longitude":-76.38105},{"id":111248,"name":"Altoona","latitude":40.51868,"longitude":-78.39474},{"id":111264,"name":"Ambler","latitude":40.15455,"longitude":-75.22157},{"id":111267,"name":"Ambridge","latitude":40.58923,"longitude":-80.22506},{"id":111291,"name":"Amity Gardens","latitude":40.27426,"longitude":-75.73519},{"id":111307,"name":"Ancient Oaks","latitude":40.54732,"longitude":-75.58935},{"id":111357,"name":"Annville","latitude":40.32954,"longitude":-76.51524},{"id":111387,"name":"Apollo","latitude":40.58145,"longitude":-79.56643},{"id":111427,"name":"Archbald","latitude":41.4948,"longitude":-75.53685},{"id":111443,"name":"Ardmore","latitude":40.00678,"longitude":-75.28546},{"id":111473,"name":"Arlington Heights","latitude":40.99009,"longitude":-75.21629},{"id":111480,"name":"Armstrong County","latitude":40.81229,"longitude":-79.46454},{"id":111487,"name":"Arnold","latitude":40.58007,"longitude":-79.76672},{"id":111537,"name":"Ashland","latitude":40.78175,"longitude":-76.34578},{"id":111544,"name":"Ashley","latitude":41.21036,"longitude":-75.89659},{"id":111555,"name":"Aspinwall","latitude":40.49146,"longitude":-79.90477},{"id":111571,"name":"Atglen","latitude":39.94927,"longitude":-75.97356},{"id":111580,"name":"Athens","latitude":41.9573,"longitude":-76.518},{"id":111640,"name":"Audubon","latitude":40.12788,"longitude":-75.43185},{"id":111674,"name":"Avalon","latitude":40.5009,"longitude":-80.06756},{"id":111685,"name":"Avis","latitude":41.18479,"longitude":-77.31386},{"id":111688,"name":"Avoca","latitude":41.3398,"longitude":-75.7363},{"id":111694,"name":"Avon","latitude":40.34565,"longitude":-76.38996},{"id":111699,"name":"Avondale","latitude":39.82344,"longitude":-75.78327},{"id":111703,"name":"Avonia","latitude":42.04561,"longitude":-80.26979},{"id":111718,"name":"Back Mountain","latitude":41.33591,"longitude":-75.99631},{"id":111723,"name":"Baden","latitude":40.63507,"longitude":-80.22812},{"id":111729,"name":"Baidland","latitude":40.19479,"longitude":-79.97088},{"id":111734,"name":"Bainbridge","latitude":40.09093,"longitude":-76.66747},{"id":111745,"name":"Bakerstown","latitude":40.6509,"longitude":-79.93644},{"id":111748,"name":"Bala-Cynwyd","latitude":40.00761,"longitude":-75.23407},{"id":111757,"name":"Baldwin","latitude":40.33813,"longitude":-79.97894},{"id":111777,"name":"Bally","latitude":40.40232,"longitude":-75.58713},{"id":111793,"name":"Bangor","latitude":40.86565,"longitude":-75.20657},{"id":111828,"name":"Barnesboro","latitude":40.66257,"longitude":-78.78003},{"id":111899,"name":"Bath","latitude":40.72565,"longitude":-75.39407},{"id":111978,"name":"Bear Rocks","latitude":40.12285,"longitude":-79.4617},{"id":111993,"name":"Beaver","latitude":40.69534,"longitude":-80.30478},{"id":111997,"name":"Beaver County","latitude":40.68226,"longitude":-80.34929},{"id":112004,"name":"Beaver Falls","latitude":40.75201,"longitude":-80.31923},{"id":112006,"name":"Beaverdale","latitude":40.32202,"longitude":-78.69696},{"id":112026,"name":"Bedford","latitude":40.01869,"longitude":-78.50391},{"id":112029,"name":"Bedford County","latitude":40.00656,"longitude":-78.49032},{"id":112032,"name":"Bedminster","latitude":40.42594,"longitude":-75.17906},{"id":112038,"name":"Beech Mountain Lakes","latitude":41.04158,"longitude":-75.93545},{"id":112057,"name":"Belfast","latitude":40.78065,"longitude":-75.27796},{"id":112067,"name":"Bell Acres","latitude":40.59007,"longitude":-80.16645},{"id":112093,"name":"Belle Vernon","latitude":40.12507,"longitude":-79.86644},{"id":112099,"name":"Bellefonte","latitude":40.91339,"longitude":-77.77833},{"id":112107,"name":"Belleville","latitude":40.60507,"longitude":-77.72555},{"id":112114,"name":"Bellevue","latitude":40.49396,"longitude":-80.05172},{"id":112132,"name":"Bellwood","latitude":40.6034,"longitude":-78.32474},{"id":112141,"name":"Belmont","latitude":40.2873,"longitude":-78.88947},{"id":112161,"name":"Ben Avon","latitude":40.50812,"longitude":-80.08311},{"id":112190,"name":"Bentleyville","latitude":40.11674,"longitude":-80.00839},{"id":112232,"name":"Berks County","latitude":40.4163,"longitude":-75.926},{"id":112236,"name":"Berlin","latitude":39.92064,"longitude":-78.9578},{"id":112263,"name":"Berwick","latitude":41.05453,"longitude":-76.23327},{"id":112265,"name":"Berwyn","latitude":40.04483,"longitude":-75.43881},{"id":112269,"name":"Bessemer","latitude":40.97478,"longitude":-80.49368},{"id":112287,"name":"Bethel Park","latitude":40.32757,"longitude":-80.0395},{"id":112291,"name":"Bethlehem","latitude":40.62593,"longitude":-75.37046},{"id":112314,"name":"Big Bass Lake","latitude":41.25383,"longitude":-75.47644},{"id":112317,"name":"Big Beaver","latitude":40.82451,"longitude":-80.36284},{"id":112341,"name":"Biglerville","latitude":39.93037,"longitude":-77.24804},{"id":112356,"name":"Birchwood Lakes","latitude":41.25454,"longitude":-74.9185},{"id":112357,"name":"Birdsboro","latitude":40.26454,"longitude":-75.80409},{"id":112379,"name":"Black Lick","latitude":40.4725,"longitude":-79.18688},{"id":112411,"name":"Blair County","latitude":40.481,"longitude":-78.3486},{"id":112413,"name":"Blairsville","latitude":40.43118,"longitude":-79.26087},{"id":112415,"name":"Blakely","latitude":41.48091,"longitude":-75.59463},{"id":112423,"name":"Blandon","latitude":40.4412,"longitude":-75.88687},{"id":112426,"name":"Blawnox","latitude":40.4934,"longitude":-79.86061},{"id":112439,"name":"Bloomfield","latitude":40.4609,"longitude":-79.95089},{"id":112454,"name":"Bloomsburg","latitude":41.0037,"longitude":-76.45495},{"id":112455,"name":"Blossburg","latitude":41.67952,"longitude":-77.06386},{"id":112463,"name":"Blue Ball","latitude":40.11871,"longitude":-76.04717},{"id":112464,"name":"Blue Bell","latitude":40.15233,"longitude":-75.26629},{"id":112488,"name":"Boalsburg","latitude":40.77562,"longitude":-77.7925},{"id":112507,"name":"Boiling Springs","latitude":40.14981,"longitude":-77.12831},{"id":112541,"name":"Bonneauville","latitude":39.81204,"longitude":-77.13721},{"id":112574,"name":"Boothwyn","latitude":39.83011,"longitude":-75.44158},{"id":112592,"name":"Boswell","latitude":40.16147,"longitude":-79.02892},{"id":112634,"name":"Bowmansville","latitude":40.19676,"longitude":-76.01744},{"id":112645,"name":"Boyertown","latitude":40.33371,"longitude":-75.63741},{"id":112656,"name":"Brackenridge","latitude":40.60812,"longitude":-79.74116},{"id":112659,"name":"Braddock","latitude":40.4034,"longitude":-79.86838},{"id":112661,"name":"Braddock Hills","latitude":40.41729,"longitude":-79.86505},{"id":112666,"name":"Bradford","latitude":41.9559,"longitude":-78.64392},{"id":112669,"name":"Bradford County","latitude":41.78867,"longitude":-76.51545},{"id":112670,"name":"Bradford Woods","latitude":40.63757,"longitude":-80.08172},{"id":112719,"name":"Breinigsville","latitude":40.53676,"longitude":-75.6313},{"id":112732,"name":"Brentwood","latitude":40.37063,"longitude":-79.97477},{"id":112735,"name":"Bressler","latitude":40.22953,"longitude":-76.81997},{"id":112754,"name":"Brickerville","latitude":40.22593,"longitude":-76.30246},{"id":112764,"name":"Bridgeport","latitude":40.10511,"longitude":-75.34518},{"id":112773,"name":"Bridgeville","latitude":40.35618,"longitude":-80.11006},{"id":112808,"name":"Bristol","latitude":40.10067,"longitude":-74.85183},{"id":112818,"name":"Brittany Farms-Highlands","latitude":40.26901,"longitude":-75.21401},{"id":112835,"name":"Brockway","latitude":41.24923,"longitude":-78.79947},{"id":112839,"name":"Brodheadsville","latitude":40.92454,"longitude":-75.39379},{"id":112858,"name":"Brookhaven","latitude":39.86928,"longitude":-75.38241},{"id":112896,"name":"Brookville","latitude":41.16117,"longitude":-79.08309},{"id":112898,"name":"Broomall","latitude":39.9815,"longitude":-75.35658},{"id":112927,"name":"Brownstown","latitude":40.12371,"longitude":-76.21384},{"id":112934,"name":"Brownsville","latitude":40.02369,"longitude":-79.88394},{"id":112936,"name":"Browntown","latitude":41.3098,"longitude":-75.78742},{"id":112965,"name":"Bryn Athyn","latitude":40.1315,"longitude":-75.06739},{"id":112966,"name":"Bryn Mawr","latitude":40.01983,"longitude":-75.30463},{"id":112991,"name":"Bucks County","latitude":40.33694,"longitude":-75.10687},{"id":113051,"name":"Burgettstown","latitude":40.38201,"longitude":-80.39284},{"id":113085,"name":"Burnham","latitude":40.63868,"longitude":-77.56861},{"id":113111,"name":"Butler","latitude":40.86118,"longitude":-79.89533},{"id":113120,"name":"Butler County","latitude":40.91172,"longitude":-79.91299},{"id":113217,"name":"California","latitude":40.06563,"longitude":-79.89171},{"id":113228,"name":"Caln","latitude":39.99094,"longitude":-75.78022},{"id":113229,"name":"Calumet","latitude":40.2109,"longitude":-79.48532},{"id":113247,"name":"Cambria County","latitude":40.49529,"longitude":-78.7137},{"id":113258,"name":"Cambridge Springs","latitude":41.80367,"longitude":-80.05644},{"id":113278,"name":"Cameron County","latitude":41.4368,"longitude":-78.20378},{"id":113287,"name":"Camp Hill","latitude":40.23981,"longitude":-76.91997},{"id":113306,"name":"Campbelltown","latitude":40.27759,"longitude":-76.58525},{"id":113336,"name":"Canonsburg","latitude":40.26257,"longitude":-80.18728},{"id":113349,"name":"Canton","latitude":41.65646,"longitude":-76.85329},{"id":113382,"name":"Carbon County","latitude":40.91818,"longitude":-75.70882},{"id":113389,"name":"Carbondale","latitude":41.57369,"longitude":-75.50185},{"id":113405,"name":"Carlisle","latitude":40.20148,"longitude":-77.18887},{"id":113426,"name":"Carnegie","latitude":40.40868,"longitude":-80.08339},{"id":113430,"name":"Carnot-Moon","latitude":40.51856,"longitude":-80.21736},{"id":113462,"name":"Carroll Valley","latitude":39.74926,"longitude":-77.38304},{"id":113541,"name":"Castanea","latitude":41.12479,"longitude":-77.4297},{"id":113551,"name":"Castle Shannon","latitude":40.36479,"longitude":-80.02228},{"id":113565,"name":"Catasauqua","latitude":40.65482,"longitude":-75.47463},{"id":113568,"name":"Catawissa","latitude":40.95203,"longitude":-76.45967},{"id":113599,"name":"Cecil-Bishop","latitude":40.31819,"longitude":-80.19331},{"id":113633,"name":"Cementon","latitude":40.68926,"longitude":-75.50768},{"id":113641,"name":"Center City","latitude":39.9512,"longitude":-75.15923},{"id":113661,"name":"Centerville","latitude":40.04535,"longitude":-79.97561},{"id":113670,"name":"Central City","latitude":40.11063,"longitude":-78.80197},{"id":113689,"name":"Centre County","latitude":40.91934,"longitude":-77.81995},{"id":113690,"name":"Centre Hall","latitude":40.84756,"longitude":-77.68611},{"id":113704,"name":"Cetronia","latitude":40.58676,"longitude":-75.52963},{"id":113712,"name":"Chalfont","latitude":40.28844,"longitude":-75.20906},{"id":113722,"name":"Chambersburg","latitude":39.93759,"longitude":-77.6611},{"id":113753,"name":"Charleroi","latitude":40.13785,"longitude":-79.8981},{"id":113871,"name":"Cherryville","latitude":40.75398,"longitude":-75.53852},{"id":113884,"name":"Chester","latitude":39.84967,"longitude":-75.35707},{"id":113897,"name":"Chester County","latitude":39.97314,"longitude":-75.74845},{"id":113898,"name":"Chester Heights","latitude":39.89011,"longitude":-75.47548},{"id":113899,"name":"Chester Springs","latitude":40.0951,"longitude":-75.61687},{"id":113900,"name":"Chesterbrook","latitude":40.07566,"longitude":-75.45908},{"id":113913,"name":"Cheswick","latitude":40.54173,"longitude":-79.79922},{"id":113922,"name":"Chevy Chase Heights","latitude":40.63673,"longitude":-79.1442},{"id":113946,"name":"Chicora","latitude":40.94812,"longitude":-79.74283},{"id":113965,"name":"Chinchilla","latitude":41.47508,"longitude":-75.67713},{"id":113999,"name":"Christiana","latitude":39.95483,"longitude":-75.99689},{"id":114008,"name":"Church Hill","latitude":40.68201,"longitude":-77.59861},{"id":114011,"name":"Churchill","latitude":40.4384,"longitude":-79.8431},{"id":114014,"name":"Churchville","latitude":40.18622,"longitude":-75.01878},{"id":114096,"name":"Clairton","latitude":40.29229,"longitude":-79.88171},{"id":114117,"name":"Clarion","latitude":41.21479,"longitude":-79.38532},{"id":114118,"name":"Clarion County","latitude":41.19239,"longitude":-79.42096},{"id":114141,"name":"Clarks Green","latitude":41.49286,"longitude":-75.69964},{"id":114142,"name":"Clarks Summit","latitude":41.48869,"longitude":-75.70852},{"id":114168,"name":"Clay","latitude":40.21843,"longitude":-76.25551},{"id":114195,"name":"Claysburg","latitude":40.29674,"longitude":-78.44974},{"id":114216,"name":"Clearfield","latitude":41.02728,"longitude":-78.43919},{"id":114218,"name":"Clearfield County","latitude":41.00019,"longitude":-78.47411},{"id":114236,"name":"Cleona","latitude":40.33731,"longitude":-76.47552},{"id":114263,"name":"Clifton Heights","latitude":39.92928,"longitude":-75.2963},{"id":114296,"name":"Clinton County","latitude":41.23405,"longitude":-77.63811},{"id":114323,"name":"Clymer","latitude":40.66812,"longitude":-79.0117},{"id":114334,"name":"Coaldale","latitude":40.82287,"longitude":-75.90687},{"id":114341,"name":"Coatesville","latitude":39.98316,"longitude":-75.82384},{"id":114353,"name":"Cochranton","latitude":41.52005,"longitude":-80.04839},{"id":114420,"name":"Collegeville","latitude":40.18566,"longitude":-75.45157},{"id":114427,"name":"Collingdale","latitude":39.91178,"longitude":-75.27713},{"id":114432,"name":"Collinsburg","latitude":40.22424,"longitude":-79.76838},{"id":114450,"name":"Colonial Park","latitude":40.30064,"longitude":-76.80969},{"id":114453,"name":"Colony Park","latitude":40.34683,"longitude":-75.9824},{"id":114473,"name":"Columbia","latitude":40.03371,"longitude":-76.50441},{"id":114481,"name":"Columbia County","latitude":41.04865,"longitude":-76.40515},{"id":114508,"name":"Colwyn","latitude":39.91234,"longitude":-75.25379},{"id":114532,"name":"Conashaugh Lakes","latitude":41.30593,"longitude":-74.98962},{"id":114554,"name":"Conemaugh","latitude":40.32674,"longitude":-78.90808},{"id":114555,"name":"Conestoga","latitude":39.94066,"longitude":-76.34635},{"id":114560,"name":"Conneaut Lakeshore","latitude":41.62711,"longitude":-80.31008},{"id":114562,"name":"Connellsville","latitude":40.01785,"longitude":-79.58948},{"id":114571,"name":"Conshohocken","latitude":40.07928,"longitude":-75.30157},{"id":114586,"name":"Conway","latitude":40.65979,"longitude":-80.23923},{"id":114590,"name":"Conyngham","latitude":40.99203,"longitude":-76.05659},{"id":114604,"name":"Coopersburg","latitude":40.51149,"longitude":-75.39046},{"id":114618,"name":"Coplay","latitude":40.6701,"longitude":-75.49546},{"id":114630,"name":"Coraopolis","latitude":40.5184,"longitude":-80.16672},{"id":114659,"name":"Cornwall","latitude":40.2737,"longitude":-76.40607},{"id":114660,"name":"Cornwells Heights","latitude":40.07678,"longitude":-74.94878},{"id":114669,"name":"Corry","latitude":41.92033,"longitude":-79.64033},{"id":114709,"name":"Coudersport","latitude":41.77479,"longitude":-78.02056},{"id":114754,"name":"Crafton","latitude":40.43507,"longitude":-80.06617},{"id":114763,"name":"Cranberry Township","latitude":40.68496,"longitude":-80.10714},{"id":114782,"name":"Crawford County","latitude":41.6847,"longitude":-80.10628},{"id":114800,"name":"Cresson","latitude":40.45979,"longitude":-78.59168},{"id":114801,"name":"Cressona","latitude":40.62676,"longitude":-76.19272},{"id":114870,"name":"Croydon","latitude":40.08733,"longitude":-74.9035},{"id":114919,"name":"Cumberland County","latitude":40.16363,"longitude":-77.26555},{"id":114929,"name":"Curtisville","latitude":40.64229,"longitude":-79.85089},{"id":114930,"name":"Curwensville","latitude":40.97561,"longitude":-78.52502},{"id":114980,"name":"Dale","latitude":40.31285,"longitude":-78.90419},{"id":114991,"name":"Dallas","latitude":41.33619,"longitude":-75.96325},{"id":114999,"name":"Dallastown","latitude":39.89954,"longitude":-76.64025},{"id":115003,"name":"Dalton","latitude":41.53424,"longitude":-75.73603},{"id":115037,"name":"Danville","latitude":40.96342,"longitude":-76.61273},{"id":115041,"name":"Darby","latitude":39.91845,"longitude":-75.25907},{"id":115056,"name":"Dauphin County","latitude":40.41544,"longitude":-76.77947},{"id":115066,"name":"Davidsville","latitude":40.22702,"longitude":-78.93641},{"id":115208,"name":"Delaware County","latitude":39.91681,"longitude":-75.3989},{"id":115219,"name":"Delmont","latitude":40.41312,"longitude":-79.57032},{"id":115252,"name":"Denver","latitude":40.23315,"longitude":-76.13717},{"id":115266,"name":"Derry","latitude":40.33396,"longitude":-79.29976},{"id":115300,"name":"Devon","latitude":40.04928,"longitude":-75.42908},{"id":115301,"name":"Dewart","latitude":41.10925,"longitude":-76.87663},{"id":115332,"name":"Dickson City","latitude":41.47147,"longitude":-75.60769},{"id":115346,"name":"Dillsburg","latitude":40.11093,"longitude":-77.03498},{"id":115401,"name":"Donora","latitude":40.1734,"longitude":-79.85755},{"id":115412,"name":"Dormont","latitude":40.3959,"longitude":-80.03311},{"id":115413,"name":"Dorneyville","latitude":40.5751,"longitude":-75.51963},{"id":115451,"name":"Dover","latitude":40.00176,"longitude":-76.85025},{"id":115462,"name":"Downingtown","latitude":40.0065,"longitude":-75.70327},{"id":115463,"name":"Doylestown","latitude":40.31011,"longitude":-75.12989},{"id":115470,"name":"Dravosburg","latitude":40.35063,"longitude":-79.88616},{"id":115472,"name":"Dresher","latitude":40.14094,"longitude":-75.16684},{"id":115477,"name":"Drexel Hill","latitude":39.94706,"longitude":-75.29213},{"id":115495,"name":"Dublin","latitude":40.37177,"longitude":-75.20156},{"id":115487,"name":"DuBois","latitude":41.11923,"longitude":-78.76003},{"id":115499,"name":"Duboistown","latitude":41.22258,"longitude":-77.03691},{"id":115519,"name":"Dunbar","latitude":39.97785,"longitude":-79.61448},{"id":115523,"name":"Duncannon","latitude":40.39814,"longitude":-77.02303},{"id":115524,"name":"Duncansville","latitude":40.42341,"longitude":-78.4339},{"id":115545,"name":"Dunmore","latitude":41.4198,"longitude":-75.63241},{"id":115552,"name":"Dunnstown","latitude":41.1459,"longitude":-77.42137},{"id":115558,"name":"Dupont","latitude":41.32508,"longitude":-75.74547},{"id":115561,"name":"Duquesne","latitude":40.38146,"longitude":-79.85977},{"id":115576,"name":"Duryea","latitude":41.34397,"longitude":-75.73853},{"id":115614,"name":"Eagleview","latitude":40.05938,"longitude":-75.68076},{"id":115615,"name":"Eagleville","latitude":40.15955,"longitude":-75.40824},{"id":115620,"name":"Earlston","latitude":40.00619,"longitude":-78.37001},{"id":115629,"name":"East Bangor","latitude":40.87954,"longitude":-75.18379},{"id":115631,"name":"East Berlin","latitude":39.9376,"longitude":-76.97859},{"id":115633,"name":"East Berwick","latitude":41.06203,"longitude":-76.22243},{"id":115648,"name":"East Conemaugh","latitude":40.34868,"longitude":-78.88364},{"id":115654,"name":"East Earl","latitude":40.1101,"longitude":-76.03272},{"id":115673,"name":"East Greenville","latitude":40.40649,"longitude":-75.50185},{"id":115702,"name":"East Lansdowne","latitude":39.94567,"longitude":-75.26129},{"id":115709,"name":"East McKeesport","latitude":40.38312,"longitude":-79.80644},{"id":115735,"name":"East Petersburg","latitude":40.1001,"longitude":-76.35413},{"id":115736,"name":"East Pittsburgh","latitude":40.39562,"longitude":-79.83866},{"id":115761,"name":"East Stroudsburg","latitude":40.99954,"longitude":-75.18129},{"id":115767,"name":"East Uniontown","latitude":39.8998,"longitude":-79.69782},{"id":115770,"name":"East Washington","latitude":40.17368,"longitude":-80.23756},{"id":115775,"name":"East York","latitude":39.97371,"longitude":-76.68636},{"id":115782,"name":"Eastlawn Gardens","latitude":40.75065,"longitude":-75.29573},{"id":115789,"name":"Easton","latitude":40.68843,"longitude":-75.22073},{"id":115812,"name":"Ebensburg","latitude":40.48507,"longitude":-78.72474},{"id":115817,"name":"Economy","latitude":40.60007,"longitude":-80.22478},{"id":115822,"name":"Eddington","latitude":40.08456,"longitude":-74.94489},{"id":115825,"name":"Eddystone","latitude":39.86011,"longitude":-75.34436},{"id":115862,"name":"Edgewood","latitude":40.43201,"longitude":-79.88144},{"id":115865,"name":"Edgeworth","latitude":40.55118,"longitude":-80.19284},{"id":115868,"name":"Edinboro","latitude":41.87422,"longitude":-80.13172},{"id":115895,"name":"Edwardsville","latitude":41.26953,"longitude":-75.91631},{"id":115900,"name":"Effort","latitude":40.93926,"longitude":-75.43491},{"id":115905,"name":"Egypt","latitude":40.6801,"longitude":-75.52991},{"id":115969,"name":"Elim","latitude":40.29785,"longitude":-78.94253},{"id":115973,"name":"Elizabeth","latitude":40.26924,"longitude":-79.88977},{"id":115981,"name":"Elizabethtown","latitude":40.15287,"longitude":-76.60275},{"id":115982,"name":"Elizabethville","latitude":40.54897,"longitude":-76.81192},{"id":115985,"name":"Elk County","latitude":41.42523,"longitude":-78.64909},{"id":116007,"name":"Elkland","latitude":41.98618,"longitude":-77.31081},{"id":116036,"name":"Ellport","latitude":40.86395,"longitude":-80.25895},{"id":116041,"name":"Ellwood City","latitude":40.86173,"longitude":-80.28645},{"id":116074,"name":"Elverson","latitude":40.15676,"longitude":-75.83271},{"id":116087,"name":"Elysburg","latitude":40.86453,"longitude":-76.55246},{"id":116091,"name":"Emerald Lakes","latitude":41.08842,"longitude":-75.41963},{"id":116098,"name":"Emigsville","latitude":40.02176,"longitude":-76.72802},{"id":116101,"name":"Emmaus","latitude":40.53954,"longitude":-75.49685},{"id":116113,"name":"Emporium","latitude":41.51145,"longitude":-78.23529},{"id":116114,"name":"Emsworth","latitude":40.51007,"longitude":-80.0945},{"id":116137,"name":"Enhaut","latitude":40.23176,"longitude":-76.82692},{"id":116140,"name":"Enlow","latitude":40.45423,"longitude":-80.23311},{"id":116144,"name":"Enola","latitude":40.29009,"longitude":-76.93386},{"id":116155,"name":"Ephrata","latitude":40.17982,"longitude":-76.17884},{"id":116166,"name":"Erie","latitude":42.12922,"longitude":-80.08506},{"id":116169,"name":"Erie County","latitude":42.11748,"longitude":-80.09811},{"id":116190,"name":"Espy","latitude":41.0062,"longitude":-76.40994},{"id":116216,"name":"Etna","latitude":40.50424,"longitude":-79.94894},{"id":116247,"name":"Evans City","latitude":40.76923,"longitude":-80.06284},{"id":116249,"name":"Evansburg","latitude":40.18094,"longitude":-75.42907},{"id":116259,"name":"Everett","latitude":40.01147,"longitude":-78.37335},{"id":116272,"name":"Exeter","latitude":41.32064,"longitude":-75.81908},{"id":116277,"name":"Exton","latitude":40.029,"longitude":-75.62077},{"id":116280,"name":"Factoryville","latitude":41.56313,"longitude":-75.78269},{"id":116296,"name":"Fairchance","latitude":39.8248,"longitude":-79.75449},{"id":116300,"name":"Fairdale","latitude":39.88702,"longitude":-79.96811},{"id":116327,"name":"Fairhope","latitude":40.11368,"longitude":-79.83977},{"id":116332,"name":"Fairless Hills","latitude":40.17955,"longitude":-74.85516},{"id":116354,"name":"Fairview","latitude":42.03145,"longitude":-80.25534},{"id":116361,"name":"Fairview-Ferndale","latitude":40.78037,"longitude":-76.57528},{"id":116383,"name":"Falls Creek","latitude":41.14506,"longitude":-78.80447},{"id":116430,"name":"Farrell","latitude":41.21228,"longitude":-80.49674},{"id":116437,"name":"Faxon","latitude":41.24841,"longitude":-76.97719},{"id":116452,"name":"Fayette County","latitude":39.9199,"longitude":-79.64737},{"id":116458,"name":"Fayetteville","latitude":39.9112,"longitude":-77.54999},{"id":116462,"name":"Feasterville","latitude":40.144,"longitude":-75.00517},{"id":116468,"name":"Fellsburg","latitude":40.18313,"longitude":-79.82421},{"id":116488,"name":"Ferndale","latitude":40.28896,"longitude":-78.91475},{"id":116492,"name":"Fernway","latitude":40.69479,"longitude":-80.13089},{"id":116541,"name":"Fivepointville","latitude":40.18287,"longitude":-76.05106},{"id":116558,"name":"Fleetwood","latitude":40.45398,"longitude":-75.81798},{"id":116563,"name":"Flemington","latitude":41.12646,"longitude":-77.47165},{"id":116599,"name":"Flourtown","latitude":40.10344,"longitude":-75.2124},{"id":116615,"name":"Flying Hills","latitude":40.27676,"longitude":-75.9141},{"id":116618,"name":"Folcroft","latitude":39.89095,"longitude":-75.2838},{"id":116625,"name":"Folsom","latitude":39.88983,"longitude":-75.32519},{"id":116634,"name":"Ford City","latitude":40.77229,"longitude":-79.52977},{"id":116649,"name":"Forest City","latitude":41.65147,"longitude":-75.46657},{"id":116650,"name":"Forest County","latitude":41.51307,"longitude":-79.23601},{"id":116659,"name":"Forest Hills","latitude":40.41979,"longitude":-79.85005},{"id":116762,"name":"Fort Washington","latitude":40.14178,"longitude":-75.20906},{"id":116770,"name":"Forty Fort","latitude":41.27897,"longitude":-75.87825},{"id":116775,"name":"Foster Brook","latitude":41.97506,"longitude":-78.61725},{"id":116781,"name":"Fountain Hill","latitude":40.60149,"longitude":-75.39518},{"id":116799,"name":"Fox Chapel","latitude":40.5134,"longitude":-79.87977},{"id":116800,"name":"Fox Chase","latitude":40.39557,"longitude":-75.96216},{"id":116808,"name":"Fox Run","latitude":40.70229,"longitude":-80.08284},{"id":116810,"name":"Frackville","latitude":40.78398,"longitude":-76.23022},{"id":116840,"name":"Franklin","latitude":41.39784,"longitude":-79.83144},{"id":116862,"name":"Franklin County","latitude":39.92742,"longitude":-77.72127},{"id":116870,"name":"Franklin Park","latitude":40.5834,"longitude":-80.08784},{"id":116892,"name":"Fredericksburg","latitude":40.4437,"longitude":-76.42829},{"id":116902,"name":"Freedom","latitude":40.68562,"longitude":-80.25173},{"id":116906,"name":"Freeland","latitude":41.01675,"longitude":-75.89714},{"id":116909,"name":"Freemansburg","latitude":40.62649,"longitude":-75.34574},{"id":116915,"name":"Freeport","latitude":40.67395,"longitude":-79.68477},{"id":116945,"name":"Friedens","latitude":40.05008,"longitude":-78.99836},{"id":116982,"name":"Fullerton","latitude":40.63176,"longitude":-75.47324},{"id":116998,"name":"Fulton County","latitude":39.92534,"longitude":-78.11268},{"id":117030,"name":"Galeton","latitude":41.73312,"longitude":-77.64193},{"id":117038,"name":"Gallitzin","latitude":40.48229,"longitude":-78.55168},{"id":117052,"name":"Gap","latitude":39.98732,"longitude":-76.02051},{"id":117068,"name":"Garden View","latitude":41.25424,"longitude":-77.04608},{"id":117117,"name":"Gastonville","latitude":40.25729,"longitude":-79.99588},{"id":117132,"name":"Geistown","latitude":40.29091,"longitude":-78.86891},{"id":117158,"name":"Georgetown","latitude":39.9376,"longitude":-76.08329},{"id":117179,"name":"Gettysburg","latitude":39.83093,"longitude":-77.2311},{"id":117192,"name":"Gibsonia","latitude":40.63007,"longitude":-79.9695},{"id":117207,"name":"Gilbertsville","latitude":40.3201,"longitude":-75.61018},{"id":117228,"name":"Girard","latitude":42.00033,"longitude":-80.31812},{"id":117229,"name":"Girardville","latitude":40.79148,"longitude":-76.28356},{"id":117254,"name":"Glassport","latitude":40.32479,"longitude":-79.89227},{"id":117268,"name":"Glen Lyon","latitude":41.17508,"longitude":-76.07465},{"id":117272,"name":"Glen Rock","latitude":39.79316,"longitude":-76.73025},{"id":117301,"name":"Glenolden","latitude":39.90011,"longitude":-75.28907},{"id":117306,"name":"Glenshaw","latitude":40.53285,"longitude":-79.96755},{"id":117307,"name":"Glenside","latitude":40.10233,"longitude":-75.15212},{"id":117344,"name":"Gold Key Lake","latitude":41.30593,"longitude":-74.9385},{"id":117526,"name":"Grantley","latitude":39.94038,"longitude":-76.72913},{"id":117608,"name":"Green Tree","latitude":40.41174,"longitude":-80.04561},{"id":117625,"name":"Greencastle","latitude":39.79037,"longitude":-77.72777},{"id":117643,"name":"Greene County","latitude":39.8538,"longitude":-80.22287},{"id":117655,"name":"Greenfields","latitude":40.3599,"longitude":-75.95199},{"id":117660,"name":"Greenock","latitude":40.31229,"longitude":-79.80671},{"id":117672,"name":"Greensburg","latitude":40.30146,"longitude":-79.53893},{"id":117694,"name":"Greenville","latitude":41.4045,"longitude":-80.39118},{"id":117707,"name":"Greenwood","latitude":40.5359,"longitude":-78.35751},{"id":117736,"name":"Grill","latitude":40.2987,"longitude":-75.94049},{"id":117756,"name":"Grove City","latitude":41.15784,"longitude":-80.08867},{"id":117785,"name":"Guilford","latitude":39.91541,"longitude":-77.60105},{"id":117788,"name":"Guilford Siding","latitude":39.86537,"longitude":-77.61249},{"id":117858,"name":"Halfway House","latitude":40.28204,"longitude":-75.64324},{"id":117868,"name":"Hallam","latitude":40.00482,"longitude":-76.60413},{"id":117874,"name":"Hallstead","latitude":41.96119,"longitude":-75.74324},{"id":117885,"name":"Hamburg","latitude":40.55565,"longitude":-75.98188},{"id":117968,"name":"Hanover","latitude":39.80066,"longitude":-76.98304},{"id":118020,"name":"Harleigh","latitude":40.98064,"longitude":-75.97131},{"id":118025,"name":"Harleysville","latitude":40.27955,"longitude":-75.38712},{"id":118050,"name":"Harrisburg","latitude":40.2737,"longitude":-76.88442},{"id":118116,"name":"Harveys Lake","latitude":41.38341,"longitude":-76.02465},{"id":118130,"name":"Hasson Heights","latitude":41.44895,"longitude":-79.677},{"id":118134,"name":"Hastings","latitude":40.66507,"longitude":-78.71225},{"id":118136,"name":"Hatboro","latitude":40.17428,"longitude":-75.10684},{"id":118139,"name":"Hatfield","latitude":40.27983,"longitude":-75.29934},{"id":118169,"name":"Hawley","latitude":41.47592,"longitude":-75.18212},{"id":118213,"name":"Hazleton","latitude":40.95842,"longitude":-75.97465},{"id":118239,"name":"Hebron","latitude":40.33898,"longitude":-76.3994},{"id":118245,"name":"Heidelberg","latitude":40.39229,"longitude":-80.09089},{"id":118259,"name":"Hellertown","latitude":40.57954,"longitude":-75.34073},{"id":118266,"name":"Hemlock Farms","latitude":41.32676,"longitude":-75.03656},{"id":118329,"name":"Hermitage","latitude":41.23339,"longitude":-80.44868},{"id":118341,"name":"Hershey","latitude":40.28592,"longitude":-76.65025},{"id":118414,"name":"Highland Park","latitude":40.62091,"longitude":-77.56805},{"id":118423,"name":"Highspire","latitude":40.21092,"longitude":-76.79108},{"id":118442,"name":"Hilldale","latitude":41.28925,"longitude":-75.83631},{"id":118443,"name":"Hiller","latitude":40.01035,"longitude":-79.90088},{"id":118515,"name":"Hokendauqua","latitude":40.66204,"longitude":-75.49102},{"id":118545,"name":"Hollidaysburg","latitude":40.42729,"longitude":-78.3889},{"id":118588,"name":"Homeacre-Lyndora","latitude":40.87206,"longitude":-79.9206},{"id":118598,"name":"Homer City","latitude":40.5434,"longitude":-79.16226},{"id":118602,"name":"Homestead","latitude":40.4059,"longitude":-79.91199},{"id":118606,"name":"Hometown","latitude":40.8237,"longitude":-75.9802},{"id":118618,"name":"Honesdale","latitude":41.57676,"longitude":-75.25879},{"id":118619,"name":"Honey Brook","latitude":40.09427,"longitude":-75.91133},{"id":118659,"name":"Hopwood","latitude":39.87702,"longitude":-79.70199},{"id":118677,"name":"Horsham","latitude":40.17844,"longitude":-75.12851},{"id":118696,"name":"Houserville","latitude":40.82395,"longitude":-77.82889},{"id":118700,"name":"Houston","latitude":40.24646,"longitude":-80.21145},{"id":118745,"name":"Hudson","latitude":41.2748,"longitude":-75.83603},{"id":118761,"name":"Hughestown","latitude":41.32702,"longitude":-75.77325},{"id":118763,"name":"Hughesville","latitude":41.24119,"longitude":-76.72385},{"id":118782,"name":"Hummels Wharf","latitude":40.83175,"longitude":-76.8358},{"id":118783,"name":"Hummelstown","latitude":40.26537,"longitude":-76.7083},{"id":118796,"name":"Huntingdon","latitude":40.4848,"longitude":-78.01028},{"id":118797,"name":"Huntingdon County","latitude":40.41693,"longitude":-77.98121},{"id":118846,"name":"Hyde","latitude":41.00256,"longitude":-78.46252},{"id":118851,"name":"Hyde Park","latitude":40.37732,"longitude":-75.92521},{"id":118882,"name":"Imperial","latitude":40.44951,"longitude":-80.2445},{"id":118911,"name":"Indian Mountain Lake","latitude":41.00314,"longitude":-75.50824},{"id":118922,"name":"Indiana","latitude":40.62146,"longitude":-79.15253},{"id":118923,"name":"Indiana County","latitude":40.65205,"longitude":-79.08755},{"id":118930,"name":"Industry","latitude":40.64451,"longitude":-80.41618},{"id":118941,"name":"Ingram","latitude":40.44618,"longitude":-80.06755},{"id":118942,"name":"Inkerman","latitude":41.29897,"longitude":-75.81269},{"id":118949,"name":"Intercourse","latitude":40.0376,"longitude":-76.10495},{"id":119012,"name":"Irwin","latitude":40.32451,"longitude":-79.70115},{"id":119052,"name":"Ivyland","latitude":40.20789,"longitude":-75.07267},{"id":119107,"name":"Jacksonwald","latitude":40.32454,"longitude":-75.84965},{"id":119108,"name":"Jacobus","latitude":39.88316,"longitude":-76.71052},{"id":119159,"name":"Jeannette","latitude":40.32812,"longitude":-79.61532},{"id":119192,"name":"Jefferson County","latitude":41.12815,"longitude":-78.99942},{"id":119202,"name":"Jefferson Hills","latitude":40.29118,"longitude":-79.93199},{"id":119216,"name":"Jenkintown","latitude":40.09594,"longitude":-75.12517},{"id":119226,"name":"Jermyn","latitude":41.53091,"longitude":-75.54546},{"id":119228,"name":"Jerome","latitude":40.20896,"longitude":-78.98364},{"id":119233,"name":"Jersey Shore","latitude":41.20202,"longitude":-77.26442},{"id":119238,"name":"Jessup","latitude":41.46869,"longitude":-75.56213},{"id":119247,"name":"Jim Thorpe","latitude":40.87592,"longitude":-75.73241},{"id":119274,"name":"Johnsonburg","latitude":41.49062,"longitude":-78.67503},{"id":119285,"name":"Johnstown","latitude":40.32674,"longitude":-78.92197},{"id":119308,"name":"Jonestown","latitude":40.4137,"longitude":-76.4783},{"id":119340,"name":"Juniata County","latitude":40.53106,"longitude":-77.40216},{"id":119376,"name":"Kane","latitude":41.66284,"longitude":-78.81114},{"id":119455,"name":"Kenhorst","latitude":40.31065,"longitude":-75.93938},{"id":119458,"name":"Kenilworth","latitude":40.23149,"longitude":-75.63408},{"id":119460,"name":"Kenmar","latitude":41.25341,"longitude":-76.95941},{"id":119474,"name":"Kennett Square","latitude":39.84678,"longitude":-75.7116},{"id":119590,"name":"King of Prussia","latitude":40.08927,"longitude":-75.39602},{"id":119628,"name":"Kingston","latitude":41.26175,"longitude":-75.89686},{"id":119661,"name":"Kittanning","latitude":40.81645,"longitude":-79.52199},{"id":119683,"name":"Knox","latitude":41.23451,"longitude":-79.53727},{"id":119723,"name":"Kulpmont","latitude":40.79342,"longitude":-76.47245},{"id":119724,"name":"Kulpsville","latitude":40.24288,"longitude":-75.33656},{"id":119728,"name":"Kutztown","latitude":40.51732,"longitude":-75.77742},{"id":119814,"name":"Lackawanna County","latitude":41.43679,"longitude":-75.6092},{"id":119843,"name":"Lafayette Hill","latitude":40.09245,"longitude":-75.2533},{"id":119845,"name":"Laflin","latitude":41.28897,"longitude":-75.80547},{"id":119885,"name":"Lake City","latitude":42.01422,"longitude":-80.34534},{"id":119920,"name":"Lake Heritage","latitude":39.80954,"longitude":-77.18387},{"id":119929,"name":"Lake Latonka","latitude":41.29039,"longitude":-80.18129},{"id":119940,"name":"Lake Meade","latitude":39.9851,"longitude":-77.0372},{"id":120001,"name":"Lake Wynonah","latitude":40.59926,"longitude":-76.16383},{"id":120021,"name":"Lakemont","latitude":40.47285,"longitude":-78.38835},{"id":120077,"name":"Lampeter","latitude":39.9901,"longitude":-76.23968},{"id":120087,"name":"Lancaster","latitude":40.03788,"longitude":-76.30551},{"id":120093,"name":"Lancaster County","latitude":40.04244,"longitude":-76.2477},{"id":120100,"name":"Landisville","latitude":40.09537,"longitude":-76.40996},{"id":120110,"name":"Langhorne","latitude":40.17455,"longitude":-74.92267},{"id":120111,"name":"Langhorne Manor","latitude":40.16705,"longitude":-74.91767},{"id":120121,"name":"Lansdale","latitude":40.2415,"longitude":-75.28379},{"id":120123,"name":"Lansdowne","latitude":39.93817,"longitude":-75.27185},{"id":120124,"name":"Lansford","latitude":40.83176,"longitude":-75.88242},{"id":120135,"name":"Laporte","latitude":41.42397,"longitude":-76.49411},{"id":120149,"name":"Larksville","latitude":41.24508,"longitude":-75.93075},{"id":120175,"name":"Latrobe","latitude":40.32118,"longitude":-79.37948},{"id":120202,"name":"Laureldale","latitude":40.38815,"longitude":-75.91798},{"id":120212,"name":"Laurys Station","latitude":40.72315,"longitude":-75.53018},{"id":120224,"name":"Lawnton","latitude":40.25842,"longitude":-76.80386},{"id":120237,"name":"Lawrence County","latitude":40.99127,"longitude":-80.33419},{"id":120239,"name":"Lawrence Park","latitude":42.15228,"longitude":-80.02311},{"id":120248,"name":"Lawson Heights","latitude":40.29174,"longitude":-79.3892},{"id":120293,"name":"Lebanon","latitude":40.34093,"longitude":-76.41135},{"id":120295,"name":"Lebanon County","latitude":40.36723,"longitude":-76.45771},{"id":120297,"name":"Lebanon South","latitude":40.32804,"longitude":-76.40644},{"id":120319,"name":"Leechburg","latitude":40.62701,"longitude":-79.6056},{"id":120327,"name":"Leesport","latitude":40.44704,"longitude":-75.96632},{"id":120330,"name":"Leetsdale","latitude":40.56312,"longitude":-80.20839},{"id":120335,"name":"Lehigh County","latitude":40.61271,"longitude":-75.59237},{"id":120336,"name":"Lehighton","latitude":40.8337,"longitude":-75.7138},{"id":120348,"name":"Leith-Hatfield","latitude":39.87744,"longitude":-79.73133},{"id":120361,"name":"Lemont","latitude":40.81062,"longitude":-77.81833},{"id":120364,"name":"Lemoyne","latitude":40.2412,"longitude":-76.89414},{"id":120367,"name":"Lenape Heights","latitude":40.76423,"longitude":-79.5206},{"id":120380,"name":"Leola","latitude":40.08787,"longitude":-76.18495},{"id":120402,"name":"Level Green","latitude":40.3934,"longitude":-79.72032},{"id":120408,"name":"Levittown","latitude":40.15511,"longitude":-74.82877},{"id":120421,"name":"Lewisburg","latitude":40.96453,"longitude":-76.88441},{"id":120432,"name":"Lewistown","latitude":40.59924,"longitude":-77.57138},{"id":120467,"name":"Liberty","latitude":40.32535,"longitude":-79.85616},{"id":120479,"name":"Light Street","latitude":41.0362,"longitude":-76.42356},{"id":120482,"name":"Ligonier","latitude":40.24313,"longitude":-79.23753},{"id":120488,"name":"Lima","latitude":39.91733,"longitude":-75.44047},{"id":120491,"name":"Limerick","latitude":40.23093,"longitude":-75.52212},{"id":120507,"name":"Lincoln","latitude":40.31896,"longitude":-79.85477},{"id":120544,"name":"Lincoln Park","latitude":40.31481,"longitude":-75.98549},{"id":120579,"name":"Linglestown","latitude":40.33398,"longitude":-76.78914},{"id":120586,"name":"Linntown","latitude":40.95897,"longitude":-76.89913},{"id":120593,"name":"Linwood","latitude":39.8265,"longitude":-75.42547},{"id":120594,"name":"Lionville","latitude":40.05372,"longitude":-75.65993},{"id":120612,"name":"Lititz","latitude":40.15732,"longitude":-76.3069},{"id":120634,"name":"Littlestown","latitude":39.74454,"longitude":-77.08804},{"id":120674,"name":"Lock Haven","latitude":41.13701,"longitude":-77.44693},{"id":120709,"name":"Loganville","latitude":39.85566,"longitude":-76.70747},{"id":120769,"name":"Lorane","latitude":40.28843,"longitude":-75.85465},{"id":120775,"name":"Loretto","latitude":40.50313,"longitude":-78.6303},{"id":120839,"name":"Lower Allen","latitude":40.22648,"longitude":-76.90053},{"id":120840,"name":"Lower Burrell","latitude":40.55312,"longitude":-79.75727},{"id":120854,"name":"Loyalhanna","latitude":40.32257,"longitude":-79.36226},{"id":120903,"name":"Luzerne","latitude":41.28564,"longitude":-75.90103},{"id":120904,"name":"Luzerne County","latitude":41.17701,"longitude":-75.98903},{"id":120905,"name":"Lycoming County","latitude":41.34338,"longitude":-77.06451},{"id":120907,"name":"Lykens","latitude":40.56675,"longitude":-76.70052},{"id":120932,"name":"Lynnwood-Pricedale","latitude":40.13071,"longitude":-79.85135},{"id":120974,"name":"Macungie","latitude":40.51593,"longitude":-75.55519},{"id":121040,"name":"Mahanoy City","latitude":40.81259,"longitude":-76.1416},{"id":121073,"name":"Malvern","latitude":40.03622,"longitude":-75.51381},{"id":121100,"name":"Manchester","latitude":40.06315,"longitude":-76.7183},{"id":121118,"name":"Manheim","latitude":40.16343,"longitude":-76.39496},{"id":121139,"name":"Manor","latitude":40.33396,"longitude":-79.67004},{"id":121147,"name":"Mansfield","latitude":41.8073,"longitude":-77.07747},{"id":121166,"name":"Maple Glen","latitude":40.17928,"longitude":-75.18045},{"id":121200,"name":"Marcus Hook","latitude":39.81928,"longitude":-75.41853},{"id":121210,"name":"Marianne","latitude":41.24645,"longitude":-79.42893},{"id":121214,"name":"Marienville","latitude":41.46895,"longitude":-79.1231},{"id":121218,"name":"Marietta","latitude":40.05704,"longitude":-76.55219},{"id":121298,"name":"Mars","latitude":40.6959,"longitude":-80.01173},{"id":121322,"name":"Marshallton","latitude":40.78675,"longitude":-76.5394},{"id":121347,"name":"Martinsburg","latitude":40.31119,"longitude":-78.32418},{"id":121359,"name":"Marysville","latitude":40.34259,"longitude":-76.92997},{"id":121384,"name":"Masontown","latitude":39.84674,"longitude":-79.89978},{"id":121398,"name":"Matamoras","latitude":41.3687,"longitude":-74.70016},{"id":121437,"name":"Mayfield","latitude":41.53814,"longitude":-75.53602},{"id":121453,"name":"Maytown","latitude":40.07537,"longitude":-76.58219},{"id":121461,"name":"McAdoo","latitude":40.90127,"longitude":-75.99106},{"id":121477,"name":"McConnellsburg","latitude":39.93259,"longitude":-77.99889},{"id":121478,"name":"McConnellstown","latitude":40.45257,"longitude":-78.08167},{"id":121491,"name":"McDonald","latitude":40.3709,"longitude":-80.23478},{"id":121503,"name":"McGovern","latitude":40.22896,"longitude":-80.21645},{"id":121516,"name":"McKean County","latitude":41.80775,"longitude":-78.56903},{"id":121518,"name":"McKees Rocks","latitude":40.46562,"longitude":-80.06561},{"id":121519,"name":"McKeesport","latitude":40.34785,"longitude":-79.86422},{"id":121543,"name":"McMurray","latitude":40.27785,"longitude":-80.08394},{"id":121551,"name":"McSherrystown","latitude":39.80732,"longitude":-77.01137},{"id":121570,"name":"Meadowood","latitude":40.84201,"longitude":-79.89394},{"id":121575,"name":"Meadville","latitude":41.64144,"longitude":-80.15145},{"id":121580,"name":"Mechanicsburg","latitude":40.21426,"longitude":-77.00859},{"id":121585,"name":"Mechanicsville","latitude":40.96648,"longitude":-76.58662},{"id":121598,"name":"Media","latitude":39.91678,"longitude":-75.38769},{"id":121674,"name":"Mercer","latitude":41.227,"longitude":-80.23979},{"id":121680,"name":"Mercer County","latitude":41.30218,"longitude":-80.2577},{"id":121683,"name":"Mercersburg","latitude":39.82787,"longitude":-77.90333},{"id":121693,"name":"Meridian","latitude":40.8484,"longitude":-79.962},{"id":121745,"name":"Meyersdale","latitude":39.81369,"longitude":-79.02475},{"id":121769,"name":"Middleburg","latitude":40.78592,"longitude":-77.0472},{"id":121792,"name":"Middletown","latitude":40.19981,"longitude":-76.73108},{"id":121799,"name":"Midland","latitude":40.63257,"longitude":-80.44645},{"id":121818,"name":"Midway","latitude":39.80843,"longitude":-77.00276},{"id":121825,"name":"Mifflin County","latitude":40.61041,"longitude":-77.61704},{"id":121826,"name":"Mifflinburg","latitude":40.91758,"longitude":-77.04775},{"id":121827,"name":"Mifflintown","latitude":40.5698,"longitude":-77.39693},{"id":121828,"name":"Mifflinville","latitude":41.03231,"longitude":-76.30799},{"id":121845,"name":"Milesburg","latitude":40.94173,"longitude":-77.785},{"id":121857,"name":"Milford","latitude":41.32232,"longitude":-74.80239},{"id":121865,"name":"Mill Hall","latitude":41.10729,"longitude":-77.48443},{"id":121870,"name":"Millbourne","latitude":39.96345,"longitude":-75.25018},{"id":121886,"name":"Millersburg","latitude":40.53953,"longitude":-76.96081},{"id":121889,"name":"Millersville","latitude":39.99788,"longitude":-76.35413},{"id":121903,"name":"Millvale","latitude":40.48007,"longitude":-79.97839},{"id":121910,"name":"Milroy","latitude":40.71396,"longitude":-77.59055},{"id":121917,"name":"Milton","latitude":41.01203,"longitude":-76.84774},{"id":121943,"name":"Minersville","latitude":40.69065,"longitude":-76.26217},{"id":122022,"name":"Mohnton","latitude":40.28593,"longitude":-75.98438},{"id":122032,"name":"Monaca","latitude":40.68729,"longitude":-80.27145},{"id":122038,"name":"Monessen","latitude":40.14841,"longitude":-79.88783},{"id":122055,"name":"Monongahela","latitude":40.20313,"longitude":-79.92616},{"id":122081,"name":"Monroe County","latitude":41.05807,"longitude":-75.33948},{"id":122086,"name":"Monroeville","latitude":40.42118,"longitude":-79.7881},{"id":122092,"name":"Mont Alto","latitude":39.84426,"longitude":-77.55832},{"id":122136,"name":"Montgomery","latitude":41.17036,"longitude":-76.87691},{"id":122155,"name":"Montgomery County","latitude":40.21083,"longitude":-75.3673},{"id":122157,"name":"Montgomeryville","latitude":40.24733,"longitude":-75.24379},{"id":122173,"name":"Montour County","latitude":41.02792,"longitude":-76.65856},{"id":122175,"name":"Montoursville","latitude":41.25425,"longitude":-76.92052},{"id":122183,"name":"Montrose","latitude":41.83397,"longitude":-75.87714},{"id":122216,"name":"Moosic","latitude":41.35341,"longitude":-75.73825},{"id":149547,"name":"Morningside","latitude":40.4814051,"longitude":-79.9344284},{"id":122286,"name":"Morrisville","latitude":40.2115,"longitude":-74.78794},{"id":122292,"name":"Morton","latitude":39.90983,"longitude":-75.32352},{"id":122299,"name":"Moscow","latitude":41.33675,"longitude":-75.51852},{"id":122337,"name":"Mount Carmel","latitude":40.79703,"longitude":-76.4119},{"id":122340,"name":"Mount Cobb","latitude":41.41342,"longitude":-75.49324},{"id":122351,"name":"Mount Holly Springs","latitude":40.11842,"longitude":-77.18998},{"id":122358,"name":"Mount Joy","latitude":40.10982,"longitude":-76.5033},{"id":122362,"name":"Mount Lebanon","latitude":40.35535,"longitude":-80.0495},{"id":122370,"name":"Mount Oliver","latitude":40.41424,"longitude":-79.98783},{"id":122373,"name":"Mount Penn","latitude":40.32815,"longitude":-75.89076},{"id":122380,"name":"Mount Pleasant","latitude":40.14896,"longitude":-79.54115},{"id":122384,"name":"Mount Pocono","latitude":41.12203,"longitude":-75.36463},{"id":122392,"name":"Mount Union","latitude":40.38452,"longitude":-77.88222},{"id":122407,"name":"Mount Wolf","latitude":40.06315,"longitude":-76.70386},{"id":122427,"name":"Mountain Top","latitude":41.16953,"longitude":-75.87742},{"id":122437,"name":"Mountainhome","latitude":41.1737,"longitude":-75.27102},{"id":122441,"name":"Mountville","latitude":40.03926,"longitude":-76.4308},{"id":122449,"name":"Muhlenberg Park","latitude":40.38482,"longitude":-75.94132},{"id":122466,"name":"Muncy","latitude":41.20564,"longitude":-76.78552},{"id":122469,"name":"Mundys Corner","latitude":40.44479,"longitude":-78.84113},{"id":122473,"name":"Munhall","latitude":40.39229,"longitude":-79.90005},{"id":122500,"name":"Murrysville","latitude":40.4284,"longitude":-79.69755},{"id":122507,"name":"Muse","latitude":40.29285,"longitude":-80.20034},{"id":122518,"name":"Myerstown","latitude":40.37454,"longitude":-76.30273},{"id":122541,"name":"Nanticoke","latitude":41.20536,"longitude":-76.00492},{"id":122544,"name":"Nanty Glo","latitude":40.47229,"longitude":-78.83336},{"id":122563,"name":"Narberth","latitude":40.00845,"longitude":-75.26046},{"id":122606,"name":"Nazareth","latitude":40.74038,"longitude":-75.30962},{"id":122640,"name":"Nescopeck","latitude":41.05203,"longitude":-76.22077},{"id":122642,"name":"Nesquehoning","latitude":40.86453,"longitude":-75.81103},{"id":122661,"name":"New Beaver","latitude":40.87645,"longitude":-80.37062},{"id":122665,"name":"New Berlinville","latitude":40.34537,"longitude":-75.63296},{"id":122667,"name":"New Bloomfield","latitude":40.41981,"longitude":-77.18637},{"id":122673,"name":"New Brighton","latitude":40.73034,"longitude":-80.31006},{"id":122675,"name":"New Britain","latitude":40.299,"longitude":-75.18101},{"id":122688,"name":"New Castle","latitude":41.00367,"longitude":-80.34701},{"id":122691,"name":"New Castle Northwest","latitude":41.02208,"longitude":-80.35682},{"id":122696,"name":"New Columbia","latitude":41.04092,"longitude":-76.86691},{"id":122697,"name":"New Cumberland","latitude":40.23231,"longitude":-76.8847},{"id":122702,"name":"New Eagle","latitude":40.20785,"longitude":-79.94699},{"id":122707,"name":"New Freedom","latitude":39.73788,"longitude":-76.70136},{"id":122721,"name":"New Holland","latitude":40.10176,"longitude":-76.08523},{"id":122727,"name":"New Hope","latitude":40.36427,"longitude":-74.95128},{"id":122733,"name":"New Kensington","latitude":40.56979,"longitude":-79.76477},{"id":122757,"name":"New Oxford","latitude":39.86371,"longitude":-77.05581},{"id":122762,"name":"New Philadelphia","latitude":40.71953,"longitude":-76.11577},{"id":122783,"name":"New Stanton","latitude":40.21924,"longitude":-79.60948},{"id":122792,"name":"New Wilmington","latitude":41.12228,"longitude":-80.33284},{"id":122835,"name":"Newmanstown","latitude":40.34954,"longitude":-76.21328},{"id":122848,"name":"Newport","latitude":40.47786,"longitude":-77.13054},{"id":122874,"name":"Newtown","latitude":40.22928,"longitude":-74.93683},{"id":122876,"name":"Newtown Grant","latitude":40.26011,"longitude":-74.95489},{"id":122877,"name":"Newville","latitude":40.17314,"longitude":-77.3986},{"id":122914,"name":"Nixon","latitude":40.7834,"longitude":-79.9295},{"id":122957,"name":"Norristown","latitude":40.1215,"longitude":-75.3399},{"id":122964,"name":"North Apollo","latitude":40.59618,"longitude":-79.5556},{"id":122980,"name":"North Belle Vernon","latitude":40.12924,"longitude":-79.8681},{"id":122992,"name":"North Braddock","latitude":40.39896,"longitude":-79.84088},{"id":123002,"name":"North Catasauqua","latitude":40.65982,"longitude":-75.47685},{"id":123004,"name":"North Charleroi","latitude":40.15118,"longitude":-79.90755},{"id":123018,"name":"North East","latitude":42.21561,"longitude":-79.83422},{"id":123122,"name":"North Versailles","latitude":40.37979,"longitude":-79.80949},{"id":123123,"name":"North Wales","latitude":40.21094,"longitude":-75.27823},{"id":123125,"name":"North Warren","latitude":41.87423,"longitude":-79.15227},{"id":123133,"name":"North York","latitude":39.97815,"longitude":-76.73302},{"id":123135,"name":"Northampton","latitude":40.68621,"longitude":-75.49685},{"id":123138,"name":"Northampton County","latitude":40.75423,"longitude":-75.30742},{"id":123147,"name":"Northern Cambria","latitude":40.65923,"longitude":-78.78169},{"id":123166,"name":"Northumberland","latitude":40.89175,"longitude":-76.79747},{"id":123168,"name":"Northumberland County","latitude":40.85198,"longitude":-76.70932},{"id":123175,"name":"Northwest Harborcreek","latitude":42.14944,"longitude":-79.99463},{"id":123198,"name":"Norwood","latitude":39.89178,"longitude":-75.29963},{"id":123247,"name":"Oak Hills","latitude":40.82479,"longitude":-79.91311},{"id":123273,"name":"Oakdale","latitude":40.39812,"longitude":-80.18561},{"id":123292,"name":"Oakland","latitude":40.30646,"longitude":-78.88752},{"id":123302,"name":"Oakmont","latitude":40.52173,"longitude":-79.84227},{"id":123311,"name":"Oakwood","latitude":41.01062,"longitude":-80.37951},{"id":123385,"name":"Ohioville","latitude":40.67923,"longitude":-80.49479},{"id":123387,"name":"Oil City","latitude":41.43395,"longitude":-79.70644},{"id":123419,"name":"Old Forge","latitude":41.37119,"longitude":-75.73491},{"id":123424,"name":"Old Orchard","latitude":40.65788,"longitude":-75.26212},{"id":123436,"name":"Oley","latitude":40.38759,"longitude":-75.78964},{"id":123442,"name":"Oliver","latitude":39.91869,"longitude":-79.71782},{"id":123462,"name":"Olyphant","latitude":41.46841,"longitude":-75.60297},{"id":123534,"name":"Orchard Hills","latitude":40.58618,"longitude":-79.53143},{"id":123550,"name":"Oreland","latitude":40.11844,"longitude":-75.17768},{"id":123585,"name":"Orwigsburg","latitude":40.65481,"longitude":-76.10077},{"id":123606,"name":"Osceola Mills","latitude":40.85006,"longitude":-78.27057},{"id":123680,"name":"Oxford","latitude":39.78539,"longitude":-75.97883},{"id":123756,"name":"Palmdale","latitude":40.29787,"longitude":-76.61858},{"id":123761,"name":"Palmer Heights","latitude":40.68732,"longitude":-75.2624},{"id":123763,"name":"Palmerton","latitude":40.8014,"longitude":-75.6119},{"id":123777,"name":"Palmyra","latitude":40.30898,"longitude":-76.5933},{"id":123780,"name":"Palo Alto","latitude":40.68731,"longitude":-76.17216},{"id":123812,"name":"Paoli","latitude":40.04205,"longitude":-75.47631},{"id":123817,"name":"Paradise","latitude":40.00982,"longitude":-76.12857},{"id":123846,"name":"Park Forest Village","latitude":40.80673,"longitude":-77.91695},{"id":123869,"name":"Parkesburg","latitude":39.95872,"longitude":-75.91939},{"id":123875,"name":"Parkside","latitude":39.86428,"longitude":-75.37853},{"id":123879,"name":"Parkville","latitude":39.78121,"longitude":-76.96331},{"id":123918,"name":"Patton","latitude":40.63396,"longitude":-78.6503},{"id":123940,"name":"Paxtang","latitude":40.25898,"longitude":-76.83192},{"id":123943,"name":"Paxtonia","latitude":40.31731,"longitude":-76.79442},{"id":124011,"name":"Pen Argyl","latitude":40.86871,"longitude":-75.2549},{"id":124012,"name":"Penbrook","latitude":40.27537,"longitude":-76.84803},{"id":124022,"name":"Penn Estates","latitude":41.0375,"longitude":-75.23956},{"id":124023,"name":"Penn Hills","latitude":40.50118,"longitude":-79.83922},{"id":124025,"name":"Penn Wynne","latitude":39.98622,"longitude":-75.27546},{"id":124027,"name":"Penndel","latitude":40.15205,"longitude":-74.91656},{"id":124036,"name":"Pennsburg","latitude":40.39093,"longitude":-75.49212},{"id":124037,"name":"Pennside","latitude":40.33732,"longitude":-75.87854},{"id":124038,"name":"Pennsport","latitude":39.92761,"longitude":-75.15045},{"id":124040,"name":"Pennville","latitude":39.78954,"longitude":-76.99804},{"id":124044,"name":"Penryn","latitude":40.20509,"longitude":-76.36829},{"id":124061,"name":"Perkasie","latitude":40.37205,"longitude":-75.29268},{"id":124082,"name":"Perry County","latitude":40.39841,"longitude":-77.2623},{"id":124086,"name":"Perryopolis","latitude":40.08702,"longitude":-79.7506},{"id":124126,"name":"Philadelphia","latitude":39.95233,"longitude":-75.16379},{"id":124128,"name":"Philadelphia County","latitude":40.00764,"longitude":-75.13396},{"id":124131,"name":"Philipsburg","latitude":40.89645,"longitude":-78.22057},{"id":124151,"name":"Phoenixville","latitude":40.13038,"longitude":-75.51491},{"id":124193,"name":"Pike County","latitude":41.33199,"longitude":-75.03383},{"id":124221,"name":"Pine Grove","latitude":40.54842,"longitude":-76.38468},{"id":124223,"name":"Pine Grove Mills","latitude":40.73367,"longitude":-77.88556},{"id":124244,"name":"Pine Ridge","latitude":41.14598,"longitude":-74.99116},{"id":124285,"name":"Pitcairn","latitude":40.40312,"longitude":-79.7781},{"id":124296,"name":"Pittsburgh","latitude":40.44062,"longitude":-79.99589},{"id":124304,"name":"Pittston","latitude":41.32591,"longitude":-75.78936},{"id":124323,"name":"Plains","latitude":41.27536,"longitude":-75.8502},{"id":124364,"name":"Pleasant Gap","latitude":40.86812,"longitude":-77.74667},{"id":124371,"name":"Pleasant Hill","latitude":40.3362,"longitude":-76.44163},{"id":124374,"name":"Pleasant Hills","latitude":40.33563,"longitude":-79.96061},{"id":124392,"name":"Plum","latitude":40.50035,"longitude":-79.74949},{"id":124398,"name":"Plumsteadville","latitude":40.38733,"longitude":-75.14656},{"id":124407,"name":"Plymouth","latitude":41.24036,"longitude":-75.94464},{"id":124411,"name":"Plymouth Meeting","latitude":40.10233,"longitude":-75.27435},{"id":124421,"name":"Pocono Pines","latitude":41.10675,"longitude":-75.45435},{"id":124422,"name":"Pocono Ranch Lands","latitude":41.16454,"longitude":-74.95212},{"id":124429,"name":"Point Marion","latitude":39.73897,"longitude":-79.89867},{"id":124491,"name":"Port Allegany","latitude":41.8109,"longitude":-78.27974},{"id":124501,"name":"Port Carbon","latitude":40.69648,"longitude":-76.16883},{"id":124538,"name":"Port Vue","latitude":40.3359,"longitude":-79.86977},{"id":124545,"name":"Portage","latitude":40.38868,"longitude":-78.67224},{"id":124592,"name":"Potter County","latitude":41.74492,"longitude":-77.89581},{"id":124598,"name":"Pottsgrove","latitude":40.26482,"longitude":-75.61185},{"id":124599,"name":"Pottstown","latitude":40.24537,"longitude":-75.64963},{"id":124601,"name":"Pottsville","latitude":40.68565,"longitude":-76.1955},{"id":124702,"name":"Progress","latitude":40.28509,"longitude":-76.83136},{"id":124707,"name":"Prospect","latitude":40.90451,"longitude":-80.04645},{"id":124709,"name":"Prospect Park","latitude":39.88789,"longitude":-75.30824},{"id":124751,"name":"Punxsutawney","latitude":40.94368,"longitude":-78.97087},{"id":124772,"name":"Pymatuning Central","latitude":41.58546,"longitude":-80.4796},{"id":124778,"name":"Quakertown","latitude":40.44177,"longitude":-75.34157},{"id":124781,"name":"Quarryville","latitude":39.89705,"longitude":-76.16357},{"id":124818,"name":"Radnor","latitude":40.04622,"longitude":-75.35991},{"id":124883,"name":"Rankin","latitude":40.41257,"longitude":-79.87922},{"id":124902,"name":"Raubsville","latitude":40.63566,"longitude":-75.19295},{"id":124931,"name":"Reading","latitude":40.33565,"longitude":-75.92687},{"id":124934,"name":"Reamstown","latitude":40.21148,"longitude":-76.12328},{"id":124947,"name":"Red Hill","latitude":40.37288,"longitude":-75.48101},{"id":124953,"name":"Red Lion","latitude":39.90093,"longitude":-76.6058},{"id":125009,"name":"Reiffton","latitude":40.31981,"longitude":-75.87354},{"id":125011,"name":"Reinholds","latitude":40.26676,"longitude":-76.1155},{"id":125018,"name":"Rennerdale","latitude":40.3984,"longitude":-80.14145},{"id":125022,"name":"Renovo","latitude":41.32646,"longitude":-77.75082},{"id":125031,"name":"Republic","latitude":39.96258,"longitude":-79.87671},{"id":125041,"name":"Reynolds Heights","latitude":41.34506,"longitude":-80.39423},{"id":125042,"name":"Reynoldsville","latitude":41.09701,"longitude":-78.88864},{"id":125044,"name":"Rheems","latitude":40.13009,"longitude":-76.57052},{"id":125060,"name":"Richboro","latitude":40.21511,"longitude":-75.01072},{"id":125071,"name":"Richland","latitude":40.35926,"longitude":-76.25828},{"id":125083,"name":"Richlandtown","latitude":40.4701,"longitude":-75.32046},{"id":125133,"name":"Ridgway","latitude":41.42034,"longitude":-78.72864},{"id":125134,"name":"Ridley Park","latitude":39.88122,"longitude":-75.3238},{"id":125189,"name":"River View Park","latitude":40.39259,"longitude":-75.95882},{"id":125208,"name":"Riverside","latitude":40.95536,"longitude":-76.62885},{"id":125233,"name":"Roaring Spring","latitude":40.33591,"longitude":-78.39085},{"id":125250,"name":"Robesonia","latitude":40.35176,"longitude":-76.13439},{"id":125268,"name":"Rochester","latitude":40.70229,"longitude":-80.28645},{"id":125312,"name":"Rockledge","latitude":40.08122,"longitude":-75.08962},{"id":125438,"name":"Roseto","latitude":40.88065,"longitude":-75.21462},{"id":125466,"name":"Rothsville","latitude":40.15121,"longitude":-76.25107},{"id":125497,"name":"Royalton","latitude":40.18731,"longitude":-76.72997},{"id":125498,"name":"Royersford","latitude":40.18427,"longitude":-75.53796},{"id":125535,"name":"Russell","latitude":41.94145,"longitude":-79.13505},{"id":125541,"name":"Russellton","latitude":40.61146,"longitude":-79.837},{"id":125550,"name":"Rutherford","latitude":40.26898,"longitude":-76.76803},{"id":125620,"name":"Saint Clair","latitude":40.72065,"longitude":-76.19105},{"id":125678,"name":"Saint Lawrence","latitude":40.32704,"longitude":-75.87187},{"id":125694,"name":"Saint Marys","latitude":41.42784,"longitude":-78.56086},{"id":125761,"name":"Salix","latitude":40.30008,"longitude":-78.7653},{"id":125775,"name":"Salunga","latitude":40.10093,"longitude":-76.42469},{"id":125852,"name":"Sanatoga","latitude":40.2451,"longitude":-75.59518},{"id":125858,"name":"Sand Hill","latitude":40.35954,"longitude":-76.43163},{"id":125879,"name":"Sandy","latitude":41.10784,"longitude":-78.77114},{"id":125979,"name":"Saw Creek","latitude":41.11259,"longitude":-75.05073},{"id":125985,"name":"Saxonburg","latitude":40.75395,"longitude":-79.81005},{"id":125987,"name":"Saylorsburg","latitude":40.89565,"longitude":-75.32352},{"id":125990,"name":"Sayre","latitude":41.97896,"longitude":-76.5155},{"id":126010,"name":"Schlusser","latitude":40.24175,"longitude":-77.17693},{"id":126011,"name":"Schnecksville","latitude":40.67514,"longitude":-75.62044},{"id":126012,"name":"Schoeneck","latitude":40.24148,"longitude":-76.17411},{"id":126026,"name":"Schuylkill County","latitude":40.7058,"longitude":-76.21595},{"id":126027,"name":"Schuylkill Haven","latitude":40.63065,"longitude":-76.17105},{"id":126028,"name":"Schwenksville","latitude":40.25621,"longitude":-75.46379},{"id":126035,"name":"Scotland","latitude":39.9687,"longitude":-77.58721},{"id":126056,"name":"Scottdale","latitude":40.10035,"longitude":-79.58698},{"id":126067,"name":"Scranton","latitude":41.40916,"longitude":-75.6649},{"id":126134,"name":"Selinsgrove","latitude":40.79897,"longitude":-76.86219},{"id":126136,"name":"Sellersville","latitude":40.35399,"longitude":-75.3049},{"id":126158,"name":"Seneca","latitude":41.37867,"longitude":-79.70394},{"id":126172,"name":"Seven Fields","latitude":40.69173,"longitude":-80.06256},{"id":126191,"name":"Sewickley","latitude":40.53646,"longitude":-80.1845},{"id":126214,"name":"Shamokin","latitude":40.78897,"longitude":-76.55885},{"id":126215,"name":"Shamokin Dam","latitude":40.8487,"longitude":-76.81969},{"id":126223,"name":"Shanor-Northvue","latitude":40.91045,"longitude":-79.91562},{"id":126229,"name":"Sharon","latitude":41.23311,"longitude":-80.4934},{"id":126231,"name":"Sharon Hill","latitude":39.9065,"longitude":-75.27157},{"id":126236,"name":"Sharpsburg","latitude":40.49451,"longitude":-79.92644},{"id":126237,"name":"Sharpsville","latitude":41.25922,"longitude":-80.47201},{"id":126243,"name":"Shavertown","latitude":41.3198,"longitude":-75.93798},{"id":126261,"name":"Sheffield","latitude":41.70395,"longitude":-79.0356},{"id":126304,"name":"Shenandoah","latitude":40.82037,"longitude":-76.20077},{"id":126307,"name":"Shenandoah Heights","latitude":40.82759,"longitude":-76.20688},{"id":126347,"name":"Shillington","latitude":40.30787,"longitude":-75.96549},{"id":126349,"name":"Shiloh","latitude":39.97815,"longitude":-76.79719},{"id":126352,"name":"Shinglehouse","latitude":41.96368,"longitude":-78.19084},{"id":126357,"name":"Shippensburg","latitude":40.05065,"longitude":-77.52026},{"id":126359,"name":"Shiremanstown","latitude":40.22342,"longitude":-76.95359},{"id":126365,"name":"Shoemakersville","latitude":40.50093,"longitude":-75.96993},{"id":126384,"name":"Shrewsbury","latitude":39.76871,"longitude":-76.67969},{"id":126405,"name":"Sierra View","latitude":41.01207,"longitude":-75.459},{"id":126448,"name":"Simpson","latitude":41.59175,"longitude":-75.48518},{"id":126455,"name":"Sinking Spring","latitude":40.32731,"longitude":-76.01105},{"id":126481,"name":"Skippack","latitude":40.22288,"longitude":-75.39879},{"id":126487,"name":"Skyline View","latitude":40.33926,"longitude":-76.72553},{"id":126492,"name":"Slatington","latitude":40.74843,"longitude":-75.61185},{"id":126503,"name":"Slippery Rock","latitude":41.06395,"longitude":-80.05645},{"id":126509,"name":"Smethport","latitude":41.81117,"longitude":-78.44474},{"id":126551,"name":"Snyder County","latitude":40.76984,"longitude":-77.07019},{"id":126584,"name":"Somerset","latitude":40.00841,"longitude":-79.07808},{"id":126589,"name":"Somerset County","latitude":39.97244,"longitude":-79.02827},{"id":126607,"name":"Souderton","latitude":40.31177,"longitude":-75.32518},{"id":126640,"name":"South Coatesville","latitude":39.97427,"longitude":-75.81995},{"id":126642,"name":"South Connellsville","latitude":39.99674,"longitude":-79.58587},{"id":126663,"name":"South Greensburg","latitude":40.2784,"longitude":-79.54476},{"id":126704,"name":"South Park Township","latitude":40.29864,"longitude":-79.99405},{"id":126715,"name":"South Pottstown","latitude":40.23954,"longitude":-75.65102},{"id":126734,"name":"South Temple","latitude":40.4,"longitude":-75.9},{"id":126738,"name":"South Uniontown","latitude":39.89285,"longitude":-79.74699},{"id":126744,"name":"South Waverly","latitude":41.99757,"longitude":-76.53717},{"id":126750,"name":"South Williamsport","latitude":41.23202,"longitude":-76.99913},{"id":126780,"name":"Southmont","latitude":40.31063,"longitude":-78.93864},{"id":126789,"name":"Southwest Greensburg","latitude":40.29118,"longitude":-79.54698},{"id":126797,"name":"Spangler","latitude":40.64285,"longitude":-78.7728},{"id":126819,"name":"Speers","latitude":40.12452,"longitude":-79.87977},{"id":126837,"name":"Spinnerstown","latitude":40.43899,"longitude":-75.43712},{"id":126852,"name":"Spring City","latitude":40.17677,"longitude":-75.54769},{"id":126857,"name":"Spring Grove","latitude":39.87454,"longitude":-76.86581},{"id":126864,"name":"Spring House","latitude":40.18539,"longitude":-75.22768},{"id":126870,"name":"Spring Mount","latitude":40.27566,"longitude":-75.45657},{"id":126873,"name":"Spring Ridge","latitude":40.35287,"longitude":-75.98994},{"id":126887,"name":"Springdale","latitude":40.5409,"longitude":-79.78394},{"id":126894,"name":"Springfield","latitude":39.93067,"longitude":-75.32019},{"id":126920,"name":"Spry","latitude":39.91843,"longitude":-76.68497},{"id":126992,"name":"State College","latitude":40.79339,"longitude":-77.86},{"id":126993,"name":"State Line","latitude":39.72482,"longitude":-77.72444},{"id":127013,"name":"Steelton","latitude":40.23537,"longitude":-76.84136},{"id":127053,"name":"Stewartstown","latitude":39.75371,"longitude":-76.59136},{"id":127058,"name":"Stiles","latitude":40.66537,"longitude":-75.50824},{"id":127086,"name":"Stoneboro","latitude":41.33922,"longitude":-80.10506},{"id":127097,"name":"Stony Creek Mills","latitude":40.34565,"longitude":-75.86993},{"id":127101,"name":"Stonybrook","latitude":39.98704,"longitude":-76.64413},{"id":127104,"name":"Stormstown","latitude":40.79339,"longitude":-78.01667},{"id":127113,"name":"Stowe","latitude":40.2526,"longitude":-75.67741},{"id":127119,"name":"Strasburg","latitude":39.98316,"longitude":-76.18412},{"id":127140,"name":"Stroudsburg","latitude":40.98676,"longitude":-75.19462},{"id":127148,"name":"Sturgeon","latitude":40.38479,"longitude":-80.21089},{"id":127174,"name":"Sugarcreek","latitude":41.42145,"longitude":-79.88117},{"id":127191,"name":"Sullivan County","latitude":41.44616,"longitude":-76.51214},{"id":127218,"name":"Summit Hill","latitude":40.82481,"longitude":-75.87103},{"id":127239,"name":"Sun Valley","latitude":40.98203,"longitude":-75.46602},{"id":127245,"name":"Sunbury","latitude":40.86259,"longitude":-76.79441},{"id":127268,"name":"Sunrise Lake","latitude":41.30981,"longitude":-74.96656},{"id":127297,"name":"Susquehanna","latitude":41.94341,"longitude":-75.59963},{"id":127298,"name":"Susquehanna County","latitude":41.82133,"longitude":-75.80068},{"id":127299,"name":"Susquehanna Trails","latitude":39.75872,"longitude":-76.36802},{"id":127330,"name":"Swarthmore","latitude":39.90206,"longitude":-75.34991},{"id":127333,"name":"Swartzville","latitude":40.23315,"longitude":-76.07828},{"id":127348,"name":"Swissvale","latitude":40.42368,"longitude":-79.88283},{"id":127350,"name":"Swoyersville","latitude":41.29175,"longitude":-75.87464},{"id":127353,"name":"Sykesville","latitude":41.05034,"longitude":-78.82225},{"id":127370,"name":"Tacony","latitude":40.03122,"longitude":-75.04434},{"id":127404,"name":"Tamaqua","latitude":40.79731,"longitude":-75.96937},{"id":127419,"name":"Tannersville","latitude":41.04009,"longitude":-75.30574},{"id":127429,"name":"Tarentum","latitude":40.60146,"longitude":-79.75977},{"id":127437,"name":"Tatamy","latitude":40.74093,"longitude":-75.25712},{"id":127449,"name":"Taylor","latitude":41.3948,"longitude":-75.70658},{"id":127487,"name":"Telford","latitude":40.32205,"longitude":-75.32795},{"id":127500,"name":"Temple","latitude":40.4087,"longitude":-75.9216},{"id":127522,"name":"Terre Hill","latitude":40.15732,"longitude":-76.0505},{"id":127560,"name":"The Hideout","latitude":41.42736,"longitude":-75.35255},{"id":127595,"name":"Thompsonville","latitude":40.2909,"longitude":-80.10811},{"id":127599,"name":"Thorndale","latitude":39.99288,"longitude":-75.74522},{"id":127626,"name":"Throop","latitude":41.45147,"longitude":-75.61185},{"id":127665,"name":"Tinicum","latitude":40.44844,"longitude":-75.10767},{"id":127670,"name":"Tioga County","latitude":41.77216,"longitude":-77.25426},{"id":127671,"name":"Tionesta","latitude":41.49534,"longitude":-79.45588},{"id":127677,"name":"Tipton","latitude":40.6359,"longitude":-78.29585},{"id":127686,"name":"Titusville","latitude":41.627,"longitude":-79.67366},{"id":127696,"name":"Toftrees","latitude":40.82604,"longitude":-77.8811},{"id":127737,"name":"Topton","latitude":40.50343,"longitude":-75.7013},{"id":127748,"name":"Toughkenamon","latitude":39.8315,"longitude":-75.75744},{"id":127750,"name":"Towamensing Trails","latitude":41.00787,"longitude":-75.58463},{"id":127752,"name":"Towanda","latitude":41.76758,"longitude":-76.44272},{"id":127754,"name":"Tower City","latitude":40.58925,"longitude":-76.55246},{"id":127776,"name":"Trafford","latitude":40.38562,"longitude":-79.75893},{"id":127779,"name":"Trainer","latitude":39.82761,"longitude":-75.41436},{"id":127782,"name":"Trappe","latitude":40.19899,"longitude":-75.47629},{"id":127791,"name":"Treasure Lake","latitude":41.17339,"longitude":-78.71586},{"id":127796,"name":"Tremont","latitude":40.62842,"longitude":-76.38718},{"id":127813,"name":"Trevorton","latitude":40.7812,"longitude":-76.67302},{"id":127814,"name":"Trevose","latitude":40.13928,"longitude":-74.981},{"id":127815,"name":"Trexlertown","latitude":40.54815,"longitude":-75.60574},{"id":127833,"name":"Trooper","latitude":40.14983,"longitude":-75.40185},{"id":127852,"name":"Troy","latitude":41.78591,"longitude":-76.78801},{"id":127854,"name":"Trucksville","latitude":41.30397,"longitude":-75.93214},{"id":127887,"name":"Tullytown","latitude":40.13928,"longitude":-74.81461},{"id":127894,"name":"Tunkhannock","latitude":41.53869,"longitude":-75.94659},{"id":127907,"name":"Turtle Creek","latitude":40.4059,"longitude":-79.82505},{"id":127950,"name":"Tyrone","latitude":40.67062,"longitude":-78.23862},{"id":127986,"name":"Union City","latitude":41.8995,"longitude":-79.84533},{"id":128000,"name":"Union County","latitude":40.96297,"longitude":-77.06225},{"id":128016,"name":"Uniontown","latitude":39.90008,"longitude":-79.71643},{"id":128037,"name":"Upland","latitude":39.85261,"longitude":-75.38269},{"id":128051,"name":"Upper Saint Clair","latitude":40.3359,"longitude":-80.08339},{"id":128111,"name":"Valley Green","latitude":40.15731,"longitude":-76.79275},{"id":128118,"name":"Valley View","latitude":39.9501,"longitude":-76.70108},{"id":128152,"name":"Vandergrift","latitude":40.60284,"longitude":-79.56477},{"id":128166,"name":"Venango County","latitude":41.40097,"longitude":-79.75795},{"id":128204,"name":"Verona","latitude":40.50646,"longitude":-79.8431},{"id":128211,"name":"Versailles","latitude":40.31563,"longitude":-79.83116},{"id":128248,"name":"Village Green-Green Ridge","latitude":39.86363,"longitude":-75.42548},{"id":128251,"name":"Village Shires","latitude":40.20316,"longitude":-74.97045},{"id":128267,"name":"Vinco","latitude":40.40507,"longitude":-78.85558},{"id":128402,"name":"Wallenpaupack Lake Estates","latitude":41.39898,"longitude":-75.27402},{"id":128424,"name":"Walnutport","latitude":40.75426,"longitude":-75.5988},{"id":128472,"name":"Warminster Heights","latitude":40.18705,"longitude":-75.08156},{"id":128483,"name":"Warren","latitude":41.84395,"longitude":-79.14504},{"id":128498,"name":"Warren County","latitude":41.81457,"longitude":-79.27414},{"id":128549,"name":"Washington","latitude":40.17396,"longitude":-80.24617},{"id":128573,"name":"Washington County","latitude":40.1894,"longitude":-80.24824},{"id":128607,"name":"Waterford","latitude":41.94283,"longitude":-79.9845},{"id":128640,"name":"Watsontown","latitude":41.08453,"longitude":-76.86385},{"id":128680,"name":"Waymart","latitude":41.58036,"longitude":-75.40824},{"id":128687,"name":"Wayne","latitude":40.044,"longitude":-75.38769},{"id":128702,"name":"Wayne County","latitude":41.64873,"longitude":-75.30326},{"id":128704,"name":"Wayne Heights","latitude":39.74371,"longitude":-77.55388},{"id":128707,"name":"Waynesboro","latitude":39.75593,"longitude":-77.57777},{"id":128710,"name":"Waynesburg","latitude":39.89646,"longitude":-80.17923},{"id":128719,"name":"Weatherly","latitude":40.94175,"longitude":-75.82964},{"id":128757,"name":"Weigelstown","latitude":39.98371,"longitude":-76.82247},{"id":128762,"name":"Weissport East","latitude":40.83697,"longitude":-75.68643},{"id":128788,"name":"Wellsboro","latitude":41.74868,"longitude":-77.30053},{"id":128806,"name":"Wernersville","latitude":40.33009,"longitude":-76.0805},{"id":128807,"name":"Wescosville","latitude":40.56676,"longitude":-75.55296},{"id":128812,"name":"Wesleyville","latitude":42.14033,"longitude":-80.01506},{"id":128845,"name":"West Chester","latitude":39.96097,"longitude":-75.60804},{"id":128851,"name":"West Conshohocken","latitude":40.06983,"longitude":-75.3163},{"id":128859,"name":"West Easton","latitude":40.67871,"longitude":-75.23684},{"id":128866,"name":"West Fairview","latitude":40.27509,"longitude":-76.91553},{"id":128881,"name":"West Grove","latitude":39.82205,"longitude":-75.82744},{"id":128883,"name":"West Hamburg","latitude":40.54759,"longitude":-76.00216},{"id":128892,"name":"West Hazleton","latitude":40.9587,"longitude":-75.99604},{"id":128896,"name":"West Hills","latitude":40.82423,"longitude":-79.5431},{"id":128900,"name":"West Homestead","latitude":40.39396,"longitude":-79.91199},{"id":128907,"name":"West Kittanning","latitude":40.81034,"longitude":-79.52949},{"id":128914,"name":"West Lawn","latitude":40.32981,"longitude":-75.99438},{"id":128915,"name":"West Leechburg","latitude":40.62229,"longitude":-79.61282},{"id":128926,"name":"West Mayfield","latitude":40.78006,"longitude":-80.3384},{"id":128931,"name":"West Mifflin","latitude":40.3634,"longitude":-79.86644},{"id":128940,"name":"West Newton","latitude":40.20979,"longitude":-79.76699},{"id":128941,"name":"West Norriton","latitude":40.12955,"longitude":-75.37852},{"id":128955,"name":"West Pittston","latitude":41.32758,"longitude":-75.79297},{"id":128967,"name":"West Reading","latitude":40.3337,"longitude":-75.94743},{"id":128999,"name":"West View","latitude":40.52229,"longitude":-80.03422},{"id":129006,"name":"West Wyoming","latitude":41.3198,"longitude":-75.84603},{"id":129007,"name":"West Wyomissing","latitude":40.32454,"longitude":-75.99077},{"id":129010,"name":"West York","latitude":39.9526,"longitude":-76.75136},{"id":129031,"name":"Westfield","latitude":41.91924,"longitude":-77.53887},{"id":129050,"name":"Westmont","latitude":40.31563,"longitude":-78.95169},{"id":129056,"name":"Westmoreland County","latitude":40.31073,"longitude":-79.46696},{"id":129101,"name":"Wharton","latitude":39.92678,"longitude":-75.15712},{"id":129125,"name":"Whitaker","latitude":40.3984,"longitude":-79.88977},{"id":129141,"name":"White Haven","latitude":41.06064,"longitude":-75.77408},{"id":129150,"name":"White Oak","latitude":40.33757,"longitude":-79.80921},{"id":129170,"name":"Whitehall","latitude":40.36118,"longitude":-79.99089},{"id":129173,"name":"Whitehall Township","latitude":40.66676,"longitude":-75.49991},{"id":129194,"name":"Whitfield","latitude":40.33593,"longitude":-76.00605},{"id":129202,"name":"Whitman","latitude":39.91678,"longitude":-75.15546},{"id":129220,"name":"Wickerham Manor-Fisher","latitude":40.17749,"longitude":-79.90684},{"id":129246,"name":"Wilkes-Barre","latitude":41.24591,"longitude":-75.88131},{"id":129249,"name":"Wilkinsburg","latitude":40.44174,"longitude":-79.88199},{"id":129271,"name":"Williamsburg","latitude":40.46202,"longitude":-78.19973},{"id":129281,"name":"Williamsport","latitude":41.24119,"longitude":-77.00108},{"id":129290,"name":"Williamstown","latitude":40.58009,"longitude":-76.61774},{"id":129306,"name":"Willow Grove","latitude":40.144,"longitude":-75.11573},{"id":129311,"name":"Willow Street","latitude":39.97927,"longitude":-76.27635},{"id":129319,"name":"Wilmerding","latitude":40.3909,"longitude":-79.81005},{"id":129332,"name":"Wilson","latitude":40.68399,"longitude":-75.24184},{"id":129363,"name":"Wind Gap","latitude":40.84815,"longitude":-75.29157},{"id":129366,"name":"Windber","latitude":40.2398,"longitude":-78.83502},{"id":129380,"name":"Windsor","latitude":39.91621,"longitude":-76.58441},{"id":129475,"name":"Wolfdale","latitude":40.19285,"longitude":-80.28784},{"id":129482,"name":"Womelsdorf","latitude":40.36176,"longitude":-76.18411},{"id":129497,"name":"Woodbourne","latitude":40.19233,"longitude":-74.88878},{"id":129529,"name":"Woodland Heights","latitude":41.40978,"longitude":-79.71172},{"id":129539,"name":"Woodlyn","latitude":39.87233,"longitude":-75.33713},{"id":129555,"name":"Woodside","latitude":40.22178,"longitude":-74.87544},{"id":129590,"name":"Wormleysburg","latitude":40.26287,"longitude":-76.91386},{"id":129600,"name":"Woxall","latitude":40.31066,"longitude":-75.44879},{"id":129615,"name":"Wrightsville","latitude":40.02565,"longitude":-76.52997},{"id":129629,"name":"Wyncote","latitude":40.09455,"longitude":-75.14879},{"id":129631,"name":"Wyndmoor","latitude":40.08122,"longitude":-75.18934},{"id":129638,"name":"Wyoming","latitude":41.31175,"longitude":-75.83742},{"id":129641,"name":"Wyoming County","latitude":41.51833,"longitude":-76.01655},{"id":129642,"name":"Wyomissing","latitude":40.32954,"longitude":-75.96521},{"id":129643,"name":"Wyomissing Hills","latitude":40.33759,"longitude":-75.97966},{"id":129664,"name":"Yardley","latitude":40.24566,"longitude":-74.846},{"id":129675,"name":"Yeadon","latitude":39.939,"longitude":-75.25546},{"id":129676,"name":"Yeagertown","latitude":40.64313,"longitude":-77.58055},{"id":129685,"name":"Yoe","latitude":39.90899,"longitude":-76.63691},{"id":129692,"name":"York","latitude":39.9626,"longitude":-76.72774},{"id":129699,"name":"York County","latitude":39.91996,"longitude":-76.72651},{"id":129702,"name":"Yorklyn","latitude":39.99232,"longitude":-76.64635},{"id":129720,"name":"Youngsville","latitude":41.85228,"longitude":-79.31866},{"id":129722,"name":"Youngwood","latitude":40.24035,"longitude":-79.57671},{"id":129746,"name":"Zelienople","latitude":40.79451,"longitude":-80.13673},{"id":129758,"name":"Zion","latitude":40.91423,"longitude":-77.68472}]