[{"id":79038,"name":"Alstahaug","latitude":65.97556,"longitude":12.56836},{"id":79041,"name":"Andenes","latitude":69.31428,"longitude":16.11939},{"id":79042,"name":"Andøy","latitude":69.08033,"longitude":15.77637},{"id":79061,"name":"Ballangen","latitude":68.34365,"longitude":16.83317},{"id":79067,"name":"Beiarn","latitude":67.00725,"longitude":14.57304},{"id":79074,"name":"Bindal","latitude":65.0878,"longitude":12.37747},{"id":79076,"name":"Bjerkvik","latitude":68.54917,"longitude":17.55709},{"id":79081,"name":"Bodø","latitude":67.28325,"longitude":14.38319},{"id":79082,"name":"Bogen","latitude":68.52647,"longitude":16.9928},{"id":79096,"name":"Bø","latitude":68.68823,"longitude":14.47899},{"id":79091,"name":"Brønnøy","latitude":65.46786,"longitude":12.20626},{"id":79092,"name":"Brønnøysund","latitude":65.47487,"longitude":12.21285},{"id":79108,"name":"Dønna","latitude":66.10606,"longitude":12.48189},{"id":79128,"name":"Evenes","latitude":68.52334,"longitude":17.00888},{"id":79130,"name":"Evjen","latitude":68.26667,"longitude":13.73333},{"id":79135,"name":"Fauske","latitude":67.25963,"longitude":15.3941},{"id":79146,"name":"Flakstad","latitude":68.09292,"longitude":13.2331},{"id":79175,"name":"Gildeskål","latitude":67.03394,"longitude":14.02582},{"id":79181,"name":"Gladstad","latitude":65.67683,"longitude":11.96218},{"id":79182,"name":"Glomfjord","latitude":66.81663,"longitude":13.94404},{"id":79186,"name":"Grane","latitude":65.53865,"longitude":13.38499},{"id":79189,"name":"Gravdal","latitude":68.11832,"longitude":13.55339},{"id":79197,"name":"Hadsel","latitude":68.56328,"longitude":14.90835},{"id":79202,"name":"Hamarøy","latitude":68.08381,"longitude":15.61671},{"id":79210,"name":"Hattfjelldal","latitude":65.59765,"longitude":13.98948},{"id":79213,"name":"Hauknes","latitude":66.28333,"longitude":14.06667},{"id":79215,"name":"Hemnes","latitude":66.07712,"longitude":13.8135},{"id":79216,"name":"Hemnesberget","latitude":66.22489,"longitude":13.61643},{"id":79220,"name":"Herøy","latitude":65.98427,"longitude":12.28916},{"id":79255,"name":"Inndyr","latitude":67.03353,"longitude":14.02663},{"id":79263,"name":"Kabelvåg","latitude":68.21066,"longitude":14.47554},{"id":79273,"name":"Kjøpsvik","latitude":68.09696,"longitude":16.37416},{"id":79285,"name":"Korgen","latitude":66.07662,"longitude":13.8216},{"id":79309,"name":"Leirfjord","latitude":66.06348,"longitude":12.93667},{"id":79313,"name":"Leknes","latitude":68.14746,"longitude":13.61151},{"id":79314,"name":"Leland","latitude":66.06406,"longitude":12.94325},{"id":79343,"name":"Løding","latitude":67.30055,"longitude":14.73852},{"id":79344,"name":"Lødingen","latitude":68.40998,"longitude":15.99012},{"id":79345,"name":"Løpsmarka","latitude":67.31343,"longitude":14.44934},{"id":79334,"name":"Lurøy","latitude":66.41887,"longitude":12.84248},{"id":79358,"name":"Melbu","latitude":68.50246,"longitude":14.79962},{"id":79362,"name":"Meløy","latitude":66.87204,"longitude":13.70763},{"id":79366,"name":"Mo i Rana","latitude":66.31278,"longitude":14.14278},{"id":79373,"name":"Mosjøen","latitude":65.83599,"longitude":13.19076},{"id":79374,"name":"Moskenes","latitude":67.93467,"longitude":13.09109},{"id":79377,"name":"Myre","latitude":68.914,"longitude":15.07843},{"id":79386,"name":"Narvik","latitude":68.43896,"longitude":17.42775},{"id":79393,"name":"Nesna","latitude":66.19796,"longitude":13.02229},{"id":79692,"name":"Øksnes","latitude":68.91463,"longitude":15.08703},{"id":79696,"name":"Ørnes","latitude":66.86878,"longitude":13.70579},{"id":79436,"name":"Rana","latitude":66.31122,"longitude":14.13996},{"id":79442,"name":"Reine","latitude":67.93249,"longitude":13.08955},{"id":79455,"name":"Rognan","latitude":67.10021,"longitude":15.39086},{"id":79466,"name":"Rødøy","latitude":66.71195,"longitude":13.2853},{"id":79470,"name":"Røst","latitude":67.51727,"longitude":12.11564},{"id":79475,"name":"Saltdal","latitude":67.10144,"longitude":15.39458},{"id":79484,"name":"Sandnessjøen","latitude":66.02166,"longitude":12.63158},{"id":79534,"name":"Sortland","latitude":68.69618,"longitude":15.41174},{"id":79577,"name":"Sømna","latitude":65.31379,"longitude":12.16729},{"id":79583,"name":"Sørfold","latitude":67.34803,"longitude":15.59445},{"id":79584,"name":"Sørland","latitude":67.66564,"longitude":12.69784},{"id":79540,"name":"Steigen","latitude":67.77625,"longitude":15.01621},{"id":79546,"name":"Stokmarknes","latitude":68.56462,"longitude":14.91075},{"id":79557,"name":"Straume","latitude":68.6888,"longitude":14.47205},{"id":79560,"name":"Straumen","latitude":67.34769,"longitude":15.60493},{"id":79571,"name":"Svolvær","latitude":68.23417,"longitude":14.56834},{"id":79591,"name":"Terråk","latitude":65.087,"longitude":12.37148},{"id":79595,"name":"Tjeldsund","latitude":68.55557,"longitude":16.36172},{"id":79611,"name":"Træna","latitude":66.50159,"longitude":12.09645},{"id":79607,"name":"Trofors","latitude":65.53335,"longitude":13.40631},{"id":79616,"name":"Tysfjord","latitude":68.09772,"longitude":16.37591},{"id":79663,"name":"Vågan","latitude":68.2322,"longitude":14.56226},{"id":79669,"name":"Værøy","latitude":67.66374,"longitude":12.69337},{"id":79637,"name":"Vefsn","latitude":65.84109,"longitude":13.20024},{"id":79638,"name":"Vega","latitude":65.67539,"longitude":11.96456},{"id":79647,"name":"Vestvågøy","latitude":68.1483,"longitude":13.61119},{"id":79648,"name":"Vevelstad","latitude":65.70002,"longitude":12.43921},{"id":79651,"name":"Vik","latitude":65.31254,"longitude":12.16734}]