[{"id":130677,"name":"Al Abdiyah","latitude":14.717,"longitude":45.3934},{"id":130704,"name":"Al Jubah","latitude":15.1249,"longitude":45.2868},{"id":130824,"name":"Bidbadah","latitude":15.3981,"longitude":44.7473},{"id":131012,"name":"Ḩarīb","latitude":14.93045,"longitude":45.3682},{"id":130856,"name":"Harib Al Qaramish","latitude":15.4735,"longitude":44.6153},{"id":130876,"name":"Jabal Murad","latitude":15.0474,"longitude":45.1887},{"id":130902,"name":"Ma'rib","latitude":15.46253,"longitude":45.32581},{"id":130905,"name":"Mahliyah","latitude":14.6821,"longitude":45.1832},{"id":130907,"name":"Majzar","latitude":15.8277,"longitude":44.7941},{"id":130912,"name":"Marib","latitude":15.6213,"longitude":46.0111},{"id":130913,"name":"Marib City","latitude":15.4156,"longitude":45.3034},{"id":130921,"name":"Medghal","latitude":15.6384,"longitude":45.0038},{"id":130948,"name":"Raghwan","latitude":15.7902,"longitude":45.0694},{"id":130949,"name":"Rahabah","latitude":14.951,"longitude":45.0885},{"id":130982,"name":"Sirwah","latitude":15.4369,"longitude":45.0115}]