[{"id":97586,"name":"Aleysk","latitude":52.4926,"longitude":82.7822},{"id":97587,"name":"Aleyskiy Rayon","latitude":52.41667,"longitude":82.75},{"id":97603,"name":"Altayskoye","latitude":51.95333,"longitude":85.3325},{"id":97641,"name":"Anton’yevka","latitude":51.9961,"longitude":83.974},{"id":97726,"name":"Aya","latitude":51.94532,"longitude":85.80168},{"id":97795,"name":"Barnaul","latitude":53.36056,"longitude":83.76361},{"id":97796,"name":"Barnaul Urban Okrug","latitude":53.33087,"longitude":83.64441},{"id":97808,"name":"Bastan","latitude":51.85889,"longitude":79.47444},{"id":97823,"name":"Bayevo","latitude":53.27065,"longitude":80.77921},{"id":97827,"name":"Bayunovskiye Klyuchi","latitude":53.32806,"longitude":84.18222},{"id":97856,"name":"Belokurikha","latitude":51.9959,"longitude":84.9896},{"id":97868,"name":"Beloyarsk","latitude":53.4461,"longitude":83.9048},{"id":97905,"name":"Berëzovka","latitude":52.35111,"longitude":85.82722},{"id":97942,"name":"Biysk","latitude":52.53639,"longitude":85.20722},{"id":97947,"name":"Blagoveshchenka","latitude":52.83333,"longitude":79.86667},{"id":97956,"name":"Bobrovka","latitude":53.18361,"longitude":83.87639},{"id":98036,"name":"Borovikha","latitude":53.5072,"longitude":83.8379},{"id":98082,"name":"Burla","latitude":53.3362,"longitude":78.3301},{"id":98102,"name":"Bystryanka","latitude":52.28611,"longitude":85.82833},{"id":98103,"name":"Bystryy Istok","latitude":52.371,"longitude":84.3873},{"id":98120,"name":"Charyshskoye","latitude":51.3978,"longitude":83.5598},{"id":98149,"name":"Cheremnoye","latitude":53.16972,"longitude":83.21333},{"id":98454,"name":"Gal’bshtadt","latitude":53.2264,"longitude":78.9845},{"id":98515,"name":"Gon’ba","latitude":53.4172,"longitude":83.5747},{"id":98537,"name":"Gornyak","latitude":50.99417,"longitude":81.46611},{"id":98590,"name":"Grishkovka","latitude":53.1487,"longitude":78.751},{"id":98680,"name":"Inya","latitude":53.5044,"longitude":82.6712},{"id":98796,"name":"Kalmanka","latitude":52.89917,"longitude":83.54333},{"id":98797,"name":"Kalmanskiy Rayon","latitude":53.0,"longitude":83.5},{"id":98824,"name":"Kamen’-na-Obi","latitude":53.7884,"longitude":81.3423},{"id":98950,"name":"Khabarskiy Rayon","latitude":53.58333,"longitude":79.5},{"id":98951,"name":"Khabary","latitude":53.62588,"longitude":79.5345},{"id":99111,"name":"Klyuchi","latitude":52.25303,"longitude":79.16868},{"id":99231,"name":"Kosikha","latitude":53.36167,"longitude":84.58222},{"id":99232,"name":"Kosikhinskiy Rayon","latitude":53.41667,"longitude":84.58333},{"id":99311,"name":"Krasnogorskoye","latitude":52.2953,"longitude":86.1979},{"id":99333,"name":"Krasnoshchekovo","latitude":51.67083,"longitude":82.72889},{"id":99379,"name":"Krasnyy Yar","latitude":52.3575,"longitude":85.33806},{"id":99403,"name":"Krutikha","latitude":53.9599,"longitude":81.2093},{"id":99437,"name":"Kulunda","latitude":52.566,"longitude":78.9385},{"id":99438,"name":"Kulundinskiy Rayon","latitude":52.58333,"longitude":79.0},{"id":99481,"name":"Kur’inskiy Rayon","latitude":51.41667,"longitude":82.41667},{"id":99484,"name":"Kusak","latitude":53.2238,"longitude":78.9337},{"id":99523,"name":"Kytmanovo","latitude":53.4593,"longitude":85.4479},{"id":99556,"name":"Lebyazh’ye","latitude":53.24361,"longitude":83.65333},{"id":99600,"name":"Lesnoye","latitude":52.46926,"longitude":85.25547},{"id":99650,"name":"Logovskoye","latitude":53.4943,"longitude":84.2016},{"id":99655,"name":"Loktevskiy Rayon","latitude":51.0,"longitude":81.58333},{"id":99757,"name":"Malinovoye Ozero","latitude":51.67528,"longitude":79.7825},{"id":99765,"name":"Malougrenevo","latitude":52.5568,"longitude":85.33908},{"id":99779,"name":"Mamontovo","latitude":52.7055,"longitude":81.6244},{"id":99780,"name":"Mamontovskiy Rayon","latitude":52.66667,"longitude":81.75},{"id":99805,"name":"Martynovo","latitude":53.26667,"longitude":85.88333},{"id":99902,"name":"Mikhaylovskiy Rayon","latitude":51.75,"longitude":79.66667},{"id":99906,"name":"Mikhaylovskoye","latitude":51.82389,"longitude":79.71722},{"id":100047,"name":"Nagornyy","latitude":52.7959,"longitude":83.5498},{"id":100053,"name":"Nalobikha","latitude":53.2009,"longitude":84.6},{"id":100064,"name":"Natsional’nyy Rayon Nemetskiy","latitude":53.25,"longitude":79.0},{"id":100066,"name":"Nauchnyy Gorodok","latitude":53.4203,"longitude":83.521},{"id":100135,"name":"Nikolayevka","latitude":51.92556,"longitude":79.41583},{"id":100214,"name":"Novichikha","latitude":52.204,"longitude":81.3877},{"id":100215,"name":"Novichikhinskiy Rayon","latitude":52.16667,"longitude":81.41667},{"id":100216,"name":"Novikovo","latitude":52.62231,"longitude":85.96392},{"id":100224,"name":"Novoaltaysk","latitude":53.3917,"longitude":83.9363},{"id":100304,"name":"Novosilikatnyy","latitude":53.30972,"longitude":83.62389},{"id":100318,"name":"Novotyryshkino","latitude":52.0833,"longitude":84.9089},{"id":100363,"name":"Novyye Zori","latitude":53.24778,"longitude":83.425},{"id":100538,"name":"Pankrushikha","latitude":53.83194,"longitude":80.34056},{"id":100539,"name":"Pankrushikhinskiy Rayon","latitude":53.83333,"longitude":80.33333},{"id":100573,"name":"Pavlovsk","latitude":53.31861,"longitude":82.98222},{"id":100582,"name":"Pavlovskiy Rayon","latitude":53.25,"longitude":83.0},{"id":100620,"name":"Pervomayskiy","latitude":52.9173,"longitude":81.6624},{"id":100623,"name":"Pervomayskiy Rayon","latitude":53.41667,"longitude":84.08333},{"id":100628,"name":"Pervomayskoye","latitude":52.59888,"longitude":85.25769},{"id":100655,"name":"Petropavlovskiy Rayon","latitude":52.16667,"longitude":84.25},{"id":100656,"name":"Petropavlovskoye","latitude":52.0712,"longitude":84.107},{"id":100732,"name":"Podsosnovo","latitude":53.3721,"longitude":78.9184},{"id":100786,"name":"Pospelikha","latitude":51.95,"longitude":81.76667},{"id":100787,"name":"Pospelikhinskiy Rayon","latitude":51.83333,"longitude":81.66667},{"id":100954,"name":"Rebrikha","latitude":53.07333,"longitude":82.34083},{"id":100955,"name":"Rebrikhinskiy Rayon","latitude":53.0,"longitude":82.25},{"id":100973,"name":"Rodino","latitude":52.49783,"longitude":80.20294},{"id":100974,"name":"Rodinskiy Rayon","latitude":52.5,"longitude":80.33333},{"id":100989,"name":"Romanovo","latitude":52.6182,"longitude":81.2271},{"id":100991,"name":"Romanovskiy Rayon","latitude":52.58333,"longitude":81.16667},{"id":101019,"name":"Rubtsovsk","latitude":51.51473,"longitude":81.20613},{"id":101020,"name":"Rubtsovskiy Rayon","latitude":51.5,"longitude":81.33333},{"id":101101,"name":"Sannikovo","latitude":53.3448,"longitude":83.9749},{"id":101201,"name":"Severka","latitude":52.13333,"longitude":79.28333},{"id":101236,"name":"Shakhi","latitude":53.3361,"longitude":83.3624},{"id":101290,"name":"Shelabolikha","latitude":53.4131,"longitude":82.6167},{"id":101291,"name":"Shelabolikhinskiy Rayon","latitude":53.41667,"longitude":82.25},{"id":101324,"name":"Shipunovo","latitude":52.1582,"longitude":82.2173},{"id":101325,"name":"Shipunovskiy Rayon","latitude":52.33333,"longitude":82.08333},{"id":101342,"name":"Shubenka","latitude":52.6551,"longitude":85.09858},{"id":101345,"name":"Shul’gin Log","latitude":52.16985,"longitude":85.85573},{"id":101367,"name":"Sibirskiy","latitude":53.5777,"longitude":83.7577},{"id":101399,"name":"Slavgorod","latitude":52.9978,"longitude":78.6449},{"id":101400,"name":"Slavgorodskoye","latitude":53.0214,"longitude":78.6435},{"id":101417,"name":"Smolenskiy Rayon","latitude":52.16667,"longitude":84.91667},{"id":101418,"name":"Smolenskoye","latitude":52.30447,"longitude":85.0785},{"id":101437,"name":"Sokolovo","latitude":52.5318,"longitude":84.7896},{"id":101464,"name":"Soloneshenskiy Rayon","latitude":51.66667,"longitude":84.5},{"id":101465,"name":"Soloneshnoye","latitude":51.6544,"longitude":84.3197},{"id":101468,"name":"Solton","latitude":52.8429,"longitude":86.4787},{"id":101469,"name":"Soltonskiy Rayon","latitude":52.83333,"longitude":86.5},{"id":101478,"name":"Sorokino","latitude":53.75,"longitude":84.91667},{"id":101518,"name":"Sovetskoye","latitude":52.28556,"longitude":85.41424},{"id":101550,"name":"Srostki","latitude":52.4209,"longitude":85.69923},{"id":101551,"name":"Stan-Bekhtemir","latitude":52.60665,"longitude":85.62619},{"id":101571,"name":"Staroaleyskoye","latitude":51.00611,"longitude":82.0},{"id":101574,"name":"Starobelokurikha","latitude":52.05206,"longitude":85.08765},{"id":101608,"name":"Staryy Togul","latitude":53.4291,"longitude":85.9006},{"id":101636,"name":"Stukovo","latitude":53.21278,"longitude":83.33778},{"id":101722,"name":"Sychëvka","latitude":52.0512,"longitude":84.7788},{"id":101739,"name":"Tabuny","latitude":52.7773,"longitude":78.7896},{"id":101757,"name":"Tal’menka","latitude":53.8183,"longitude":83.5677},{"id":101758,"name":"Tal’menskiy Rayon","latitude":53.75,"longitude":83.41667},{"id":101870,"name":"Togul","latitude":53.467,"longitude":85.9128},{"id":101871,"name":"Togul’skiy Rayon","latitude":53.66667,"longitude":86.08333},{"id":101893,"name":"Topchikha","latitude":52.8192,"longitude":83.1185},{"id":101896,"name":"Topol’noye","latitude":51.5105,"longitude":84.4813},{"id":101924,"name":"Troitskoye","latitude":52.9822,"longitude":84.68},{"id":101940,"name":"Tselinnoye","latitude":53.07822,"longitude":85.65363},{"id":102006,"name":"Tyumentsevo","latitude":53.3224,"longitude":81.498},{"id":102007,"name":"Tyumentsevskiy Rayon","latitude":53.25,"longitude":81.5},{"id":102038,"name":"Uglovskoye","latitude":51.3557,"longitude":80.1942},{"id":102117,"name":"Ust’-Charyshskaya Pristan’","latitude":52.3934,"longitude":83.6635},{"id":102120,"name":"Ust’-Isha","latitude":52.18201,"longitude":85.96757},{"id":102124,"name":"Ust’-Kalmanka","latitude":52.1207,"longitude":83.305},{"id":102143,"name":"Ust’yanka","latitude":53.4527,"longitude":78.7425},{"id":102148,"name":"Usyatskoye","latitude":52.56806,"longitude":85.76085},{"id":102231,"name":"Verkh-Katunskoye","latitude":52.45,"longitude":85.43162},{"id":102233,"name":"Verkh-Suetka","latitude":53.30401,"longitude":80.04675},{"id":102251,"name":"Verkhniy Bekhtemir","latitude":52.76582,"longitude":85.91011},{"id":102287,"name":"Veseloyarsk","latitude":51.28737,"longitude":81.10703},{"id":102331,"name":"Vlasikha","latitude":53.29722,"longitude":83.57417},{"id":102340,"name":"Volchikha","latitude":52.01356,"longitude":80.35715},{"id":102341,"name":"Volchikhinskiy Rayon","latitude":52.08333,"longitude":80.5},{"id":102504,"name":"Yarovoye","latitude":52.9273,"longitude":78.58},{"id":102526,"name":"Yegor’yevskiy Rayon","latitude":51.75,"longitude":81.0},{"id":102552,"name":"Yel’tsovskiy Rayon","latitude":53.25,"longitude":86.41667},{"id":102618,"name":"Yuzhnyy","latitude":53.25417,"longitude":83.69361},{"id":102638,"name":"Zalesovo","latitude":53.99389,"longitude":84.74306},{"id":102658,"name":"Zarinsk","latitude":53.7074,"longitude":84.9493},{"id":102659,"name":"Zarinskiy Rayon","latitude":53.91667,"longitude":85.33333},{"id":102662,"name":"Zarya","latitude":52.59696,"longitude":85.1757},{"id":102667,"name":"Zaton","latitude":53.29361,"longitude":83.80722},{"id":102682,"name":"Zav’yalovo","latitude":52.83805,"longitude":80.9197},{"id":102684,"name":"Zav’yalovskiy Rayon","latitude":52.91667,"longitude":81.0},{"id":102752,"name":"Zmeinogorsk","latitude":51.15776,"longitude":82.19534},{"id":102769,"name":"Zonal’noye","latitude":52.6665,"longitude":84.9331},{"id":102776,"name":"Zudilovo","latitude":53.4927,"longitude":83.8937}]