[{"id":97579,"name":"Alekseyevka","latitude":50.6309,"longitude":38.6903},{"id":97837,"name":"Bekhteyevka","latitude":50.80758,"longitude":37.21789},{"id":97848,"name":"Belgorod","latitude":50.61074,"longitude":36.58015},{"id":97849,"name":"Belgorodskiy Rayon","latitude":50.5,"longitude":36.5},{"id":97914,"name":"Bessonovka","latitude":50.52644,"longitude":36.30107},{"id":98028,"name":"Borisovka","latitude":50.60155,"longitude":36.01549},{"id":98029,"name":"Borisovskiy Rayon","latitude":50.58333,"longitude":36.0},{"id":98178,"name":"Chernyanka","latitude":50.94095,"longitude":37.80693},{"id":98179,"name":"Chernyanskiy Rayon","latitude":51.0,"longitude":37.91667},{"id":98507,"name":"Golovchino","latitude":50.5341,"longitude":35.797},{"id":98577,"name":"Grayvoron","latitude":50.4767,"longitude":35.6773},{"id":98578,"name":"Grayvoronskiy Rayon","latitude":50.5,"longitude":35.66667},{"id":98603,"name":"Gubkin","latitude":51.28167,"longitude":37.54583},{"id":98647,"name":"Ilovka","latitude":50.7053,"longitude":38.637},{"id":98739,"name":"Ivnya","latitude":51.06294,"longitude":36.13426},{"id":98740,"name":"Ivnyanskiy Rayon","latitude":51.0,"longitude":36.25},{"id":99212,"name":"Korocha","latitude":50.8132,"longitude":37.18598},{"id":99213,"name":"Korochanskiy Rayon","latitude":50.83333,"longitude":37.25},{"id":99286,"name":"Krasnaya Yaruga","latitude":50.80083,"longitude":35.65833},{"id":99288,"name":"Krasnenskiy Rayon","latitude":50.91667,"longitude":38.58333},{"id":99314,"name":"Krasnogvardeyskiy Rayon","latitude":50.66667,"longitude":38.33333},{"id":99318,"name":"Krasnogvardeyskoye","latitude":50.6492,"longitude":38.4036},{"id":99348,"name":"Krasnoyaruzhskiy Rayon","latitude":50.83333,"longitude":35.5},{"id":99350,"name":"Krasnoye","latitude":50.9297,"longitude":38.6817},{"id":99643,"name":"Livenka","latitude":50.4491,"longitude":38.2959},{"id":99810,"name":"Maslova Pristan’","latitude":50.45758,"longitude":36.72038},{"id":99831,"name":"Mayskiy","latitude":50.51988,"longitude":36.45878},{"id":100210,"name":"Novaya Tavolzhanka","latitude":50.35123,"longitude":36.8298},{"id":100276,"name":"Novooskol’skiy Rayon","latitude":50.75,"longitude":37.83333},{"id":100348,"name":"Novyy Oskol","latitude":50.7633,"longitude":37.86402},{"id":100857,"name":"Prokhorovka","latitude":51.03741,"longitude":36.73252},{"id":100858,"name":"Prokhorovskiy Rayon","latitude":51.00447,"longitude":36.74875},{"id":100864,"name":"Proletarskiy","latitude":50.79139,"longitude":35.77306},{"id":100911,"name":"Pyatnitskoye","latitude":50.4233,"longitude":37.8273},{"id":100932,"name":"Rakitnoye","latitude":50.8389,"longitude":35.8515},{"id":100933,"name":"Rakityanskiy Rayon","latitude":50.83333,"longitude":35.91667},{"id":100952,"name":"Razumnoye","latitude":50.53439,"longitude":36.68462},{"id":100984,"name":"Rogovatoye","latitude":51.23,"longitude":38.3818},{"id":101010,"name":"Roven’skiy Rayon","latitude":50.0,"longitude":39.0},{"id":101208,"name":"Severnyy","latitude":50.67704,"longitude":36.55324},{"id":101284,"name":"Shebekino","latitude":50.40967,"longitude":36.9136},{"id":101285,"name":"Shebekinskiy Rayon","latitude":50.5,"longitude":37.0},{"id":101390,"name":"Skorodnoye","latitude":51.07101,"longitude":37.22756},{"id":101607,"name":"Staryy Oskol","latitude":51.29667,"longitude":37.84167},{"id":101631,"name":"Stroitel’","latitude":50.78543,"longitude":36.4831},{"id":101883,"name":"Tomarovka","latitude":50.68338,"longitude":36.23309},{"id":101917,"name":"Troitskiy","latitude":51.3588,"longitude":37.5253},{"id":102073,"name":"Urazovo","latitude":50.0836,"longitude":38.0395},{"id":102183,"name":"Valuyki","latitude":50.2035,"longitude":38.1067},{"id":102184,"name":"Valuyskiy Rayon","latitude":50.16667,"longitude":38.0},{"id":102299,"name":"Veydelevka","latitude":50.1521,"longitude":38.4492},{"id":102358,"name":"Volokonovka","latitude":50.4827,"longitude":37.8563},{"id":102359,"name":"Volokonovskiy Rayon","latitude":50.5,"longitude":37.83333},{"id":102467,"name":"Yakovlevo","latitude":50.86033,"longitude":36.44784},{"id":102469,"name":"Yakovlevskiy Rayon","latitude":50.83333,"longitude":36.41667},{"id":102665,"name":"Zasosna","latitude":50.6307,"longitude":38.3965}]