[{"id":31967,"name":"Agullana","latitude":42.39408,"longitude":2.84666},{"id":31981,"name":"Aiguaviva","latitude":41.9384,"longitude":2.76217},{"id":151631,"name":"Albanyà","latitude":0.0,"longitude":0.0},{"id":32050,"name":"Albons","latitude":42.10389,"longitude":3.08433},{"id":151633,"name":"Alp","latitude":0.0,"longitude":0.0},{"id":151634,"name":"Amer","latitude":0.0,"longitude":0.0},{"id":32379,"name":"Anglès","latitude":41.95617,"longitude":2.63603},{"id":32427,"name":"Arbúcies","latitude":41.81667,"longitude":2.51667},{"id":32468,"name":"Argelaguer","latitude":42.21563,"longitude":2.64193},{"id":151635,"name":"Armentera L","latitude":0.0,"longitude":0.0},{"id":151636,"name":"Avinyonet de Puigventós","latitude":0.0,"longitude":0.0},{"id":32634,"name":"Banyoles","latitude":42.11667,"longitude":2.76667},{"id":33047,"name":"Bàscara","latitude":42.15998,"longitude":2.91028},{"id":32729,"name":"Begur","latitude":41.95,"longitude":3.21667},{"id":151638,"name":"Bellcaire dEmpordà","latitude":0.0,"longitude":0.0},{"id":32877,"name":"Besalú","latitude":42.19893,"longitude":2.69953},{"id":32878,"name":"Bescanó","latitude":41.96603,"longitude":2.73922},{"id":32883,"name":"Beuda","latitude":42.23722,"longitude":2.70942},{"id":151639,"name":"Bisbal dEmpordà La","latitude":0.0,"longitude":0.0},{"id":151728,"name":"Biure","latitude":0.0,"longitude":0.0},{"id":32909,"name":"Blanes","latitude":41.67419,"longitude":2.79036},{"id":151641,"name":"Boadella i les Escaules","latitude":0.0,"longitude":0.0},{"id":32942,"name":"Bolvir","latitude":42.41775,"longitude":1.87986},{"id":32952,"name":"Bordils","latitude":42.04336,"longitude":2.91088},{"id":32960,"name":"Borrassà","latitude":42.22316,"longitude":2.9261},{"id":32976,"name":"Breda","latitude":41.74833,"longitude":2.55964},{"id":151640,"name":"Brunyola","latitude":0.0,"longitude":0.0},{"id":33066,"name":"Cabanelles","latitude":42.23068,"longitude":2.81997},{"id":33116,"name":"Cadaqués","latitude":42.28856,"longitude":3.27706},{"id":151642,"name":"Caldes de Malavella","latitude":0.0,"longitude":0.0},{"id":33150,"name":"Calonge","latitude":41.85869,"longitude":3.07926},{"id":33215,"name":"Camós","latitude":42.08776,"longitude":2.76288},{"id":33185,"name":"Campdevànol","latitude":42.22445,"longitude":2.1686},{"id":151643,"name":"Campelles","latitude":0.0,"longitude":0.0},{"id":151644,"name":"Campllong","latitude":0.0,"longitude":0.0},{"id":33213,"name":"Camprodon","latitude":42.31185,"longitude":2.36506},{"id":151645,"name":"Canet dAdri","latitude":0.0,"longitude":0.0},{"id":33252,"name":"Cantallops","latitude":42.42216,"longitude":2.92524},{"id":33271,"name":"Capmany","latitude":42.37351,"longitude":2.92026},{"id":33395,"name":"Cassà de la Selva","latitude":41.88784,"longitude":2.87524},{"id":151649,"name":"Castell-Platja dAro","latitude":0.0,"longitude":0.0},{"id":151647,"name":"Castellfollit de la Roca","latitude":0.0,"longitude":0.0},{"id":151648,"name":"Castelló dEmpúries","latitude":0.0,"longitude":0.0},{"id":151712,"name":"Cellera de Ter La","latitude":0.0,"longitude":0.0},{"id":33566,"name":"Celrà","latitude":42.03333,"longitude":2.88333},{"id":33605,"name":"Cervià de Ter","latitude":42.0665,"longitude":2.90743},{"id":33692,"name":"Cistella","latitude":42.2687,"longitude":2.8478},{"id":33726,"name":"Colera","latitude":42.40394,"longitude":3.15153},{"id":151650,"name":"Colomers","latitude":0.0,"longitude":0.0},{"id":151651,"name":"Corçà","latitude":0.0,"longitude":0.0},{"id":33795,"name":"Cornellà del Terri","latitude":42.08333,"longitude":2.81667},{"id":33833,"name":"Crespià","latitude":42.18333,"longitude":2.8},{"id":151729,"name":"Cruïlles  Monells i Sant Sadurní de lHeura","latitude":0.0,"longitude":0.0},{"id":33912,"name":"Darnius","latitude":42.36667,"longitude":2.83333},{"id":151652,"name":"Das","latitude":0.0,"longitude":0.0},{"id":151653,"name":"Escala L","latitude":0.0,"longitude":0.0},{"id":151654,"name":"Espinelves","latitude":0.0,"longitude":0.0},{"id":34129,"name":"Espolla","latitude":42.3912,"longitude":3.00064},{"id":34130,"name":"Esponellà","latitude":42.16667,"longitude":2.8},{"id":151632,"name":"Far dEmpordà El","latitude":0.0,"longitude":0.0},{"id":34184,"name":"Figueres","latitude":42.26645,"longitude":2.96163},{"id":151655,"name":"Flaçà","latitude":0.0,"longitude":0.0},{"id":34199,"name":"Foixà","latitude":42.03626,"longitude":3.00021},{"id":151656,"name":"Fontanals de Cerdanya","latitude":0.0,"longitude":0.0},{"id":151657,"name":"Fontanilles","latitude":0.0,"longitude":0.0},{"id":151658,"name":"Fontcoberta","latitude":0.0,"longitude":0.0},{"id":151730,"name":"Forallac","latitude":0.0,"longitude":0.0},{"id":34225,"name":"Fornells de la Selva","latitude":41.93159,"longitude":2.80907},{"id":34230,"name":"Fortià","latitude":42.2432,"longitude":3.03881},{"id":34425,"name":"Garrigàs","latitude":42.19343,"longitude":2.95438},{"id":151659,"name":"Garrigoles","latitude":0.0,"longitude":0.0},{"id":34424,"name":"Garriguella","latitude":42.34392,"longitude":3.06506},{"id":151660,"name":"Ger","latitude":0.0,"longitude":0.0},{"id":34470,"name":"Girona","latitude":41.98311,"longitude":2.82493},{"id":151661,"name":"Gombrèn","latitude":0.0,"longitude":0.0},{"id":34534,"name":"Gualta","latitude":42.02953,"longitude":3.10312},{"id":151662,"name":"Guils de Cerdanya","latitude":0.0,"longitude":0.0},{"id":34671,"name":"Hostalric","latitude":41.75,"longitude":2.63333},{"id":151663,"name":"Isòvol","latitude":0.0,"longitude":0.0},{"id":34790,"name":"Jafre","latitude":42.07254,"longitude":3.01062},{"id":151664,"name":"Jonquera La","latitude":0.0,"longitude":0.0},{"id":34827,"name":"Juià","latitude":42.01667,"longitude":2.91667},{"id":35063,"name":"Lladó","latitude":42.24769,"longitude":2.81373},{"id":35064,"name":"Llagostera","latitude":41.82688,"longitude":2.89365},{"id":35066,"name":"Llambilles","latitude":41.92106,"longitude":2.85078},{"id":151665,"name":"Llanars","latitude":0.0,"longitude":0.0},{"id":35070,"name":"Llançà","latitude":42.36241,"longitude":3.15213},{"id":35077,"name":"Llers","latitude":42.29571,"longitude":2.91183},{"id":151666,"name":"Llívia","latitude":0.0,"longitude":0.0},{"id":35084,"name":"Lloret de Mar","latitude":41.69993,"longitude":2.84565},{"id":151667,"name":"Llosses Les","latitude":0.0,"longitude":0.0},{"id":151671,"name":"Maçanet de Cabrenys","latitude":0.0,"longitude":0.0},{"id":151672,"name":"Maçanet de la Selva","latitude":0.0,"longitude":0.0},{"id":35185,"name":"Madremanya","latitude":41.98333,"longitude":2.96667},{"id":151668,"name":"Maià de Montcal","latitude":0.0,"longitude":0.0},{"id":151670,"name":"Masarac","latitude":0.0,"longitude":0.0},{"id":35327,"name":"Massanes","latitude":41.76536,"longitude":2.65324},{"id":151669,"name":"Meranges","latitude":0.0,"longitude":0.0},{"id":151673,"name":"Mieres","latitude":0.0,"longitude":0.0},{"id":35487,"name":"Mollet de Peralada","latitude":42.35959,"longitude":3.00034},{"id":151674,"name":"Molló","latitude":0.0,"longitude":0.0},{"id":151676,"name":"Mont-ras","latitude":0.0,"longitude":0.0},{"id":151675,"name":"Montagut i Oix","latitude":0.0,"longitude":0.0},{"id":35786,"name":"Navata","latitude":42.22353,"longitude":2.8611},{"id":151677,"name":"Ogassa","latitude":0.0,"longitude":0.0},{"id":35912,"name":"Olot","latitude":42.18096,"longitude":2.49012},{"id":35940,"name":"Ordis","latitude":42.2183,"longitude":2.90705},{"id":151678,"name":"Osor","latitude":0.0,"longitude":0.0},{"id":36014,"name":"Palafrugell","latitude":41.91738,"longitude":3.1631},{"id":36015,"name":"Palamós","latitude":41.84843,"longitude":3.12912},{"id":151679,"name":"Palau de Santa Eulàlia","latitude":0.0,"longitude":0.0},{"id":36017,"name":"Palau-sator","latitude":41.98897,"longitude":3.11016},{"id":151680,"name":"Palau-saverdera","latitude":0.0,"longitude":0.0},{"id":36034,"name":"Palol de Revardit","latitude":42.06667,"longitude":2.8},{"id":36042,"name":"Pals","latitude":41.97102,"longitude":3.14814},{"id":151681,"name":"Pardines","latitude":0.0,"longitude":0.0},{"id":151682,"name":"Parlavà","latitude":0.0,"longitude":0.0},{"id":36083,"name":"Pau","latitude":42.31607,"longitude":3.11621},{"id":151683,"name":"Pedret i Marzà","latitude":0.0,"longitude":0.0},{"id":151684,"name":"Pera La","latitude":0.0,"longitude":0.0},{"id":151685,"name":"Peralada","latitude":0.0,"longitude":0.0},{"id":151686,"name":"Planes dHostoles Les","latitude":0.0,"longitude":0.0},{"id":36235,"name":"Planoles","latitude":42.31667,"longitude":2.1},{"id":36271,"name":"Pont de Molins","latitude":42.3144,"longitude":2.92996},{"id":36276,"name":"Pontós","latitude":42.18665,"longitude":2.91706},{"id":151687,"name":"Porqueres","latitude":0.0,"longitude":0.0},{"id":151689,"name":"Port de la Selva El","latitude":0.0,"longitude":0.0},{"id":36287,"name":"Portbou","latitude":42.4265,"longitude":3.15805},{"id":151688,"name":"Preses Les","latitude":0.0,"longitude":0.0},{"id":36462,"name":"Puigcerdà","latitude":42.4316,"longitude":1.92819},{"id":151690,"name":"Quart","latitude":0.0,"longitude":0.0},{"id":151646,"name":"Queralbs","latitude":0.0,"longitude":0.0},{"id":36537,"name":"Rabós","latitude":42.3789,"longitude":3.02828},{"id":36564,"name":"Regencós","latitude":41.95271,"longitude":3.17006},{"id":36617,"name":"Ribes de Freser","latitude":42.30417,"longitude":2.16757},{"id":151691,"name":"Riells i Viabrea","latitude":0.0,"longitude":0.0},{"id":36632,"name":"Ripoll","latitude":42.20064,"longitude":2.19033},{"id":151692,"name":"Riudarenes","latitude":0.0,"longitude":0.0},{"id":151693,"name":"Riudaura","latitude":0.0,"longitude":0.0},{"id":36636,"name":"Riudellots de la Selva","latitude":41.89327,"longitude":2.80452},{"id":36638,"name":"Riumors","latitude":42.22726,"longitude":3.0419},{"id":36679,"name":"Roses","latitude":42.26199,"longitude":3.17689},{"id":36704,"name":"Rupià","latitude":42.01667,"longitude":3.01667},{"id":36760,"name":"Sales de Llierca","latitude":42.23333,"longitude":2.65},{"id":36778,"name":"Salt","latitude":41.97489,"longitude":2.79281},{"id":36953,"name":"Sant Andreu Salou","latitude":41.86667,"longitude":2.83333},{"id":151709,"name":"Sant Aniol de Finestres","latitude":0.0,"longitude":0.0},{"id":151694,"name":"Sant Climent Sescebes","latitude":0.0,"longitude":0.0},{"id":151695,"name":"Sant Feliu de Buixalleu","latitude":0.0,"longitude":0.0},{"id":36964,"name":"Sant Feliu de Guíxols","latitude":41.78333,"longitude":3.03333},{"id":151696,"name":"Sant Feliu de Pallerols","latitude":0.0,"longitude":0.0},{"id":36966,"name":"Sant Ferriol","latitude":42.2,"longitude":2.66667},{"id":151697,"name":"Sant Gregori","latitude":0.0,"longitude":0.0},{"id":36970,"name":"Sant Hilari Sacalm","latitude":41.88333,"longitude":2.51667},{"id":151698,"name":"Sant Jaume de Llierca","latitude":0.0,"longitude":0.0},{"id":36976,"name":"Sant Joan de les Abadesses","latitude":42.23332,"longitude":2.28524},{"id":151699,"name":"Sant Joan de Mollet","latitude":0.0,"longitude":0.0},{"id":36977,"name":"Sant Joan les Fonts","latitude":42.21186,"longitude":2.51291},{"id":36979,"name":"Sant Jordi Desvalls","latitude":42.06667,"longitude":2.95},{"id":151700,"name":"Sant Julià de Ramis","latitude":0.0,"longitude":0.0},{"id":151731,"name":"Sant Julià del Llor i Bonmatí","latitude":0.0,"longitude":0.0},{"id":151702,"name":"Sant Llorenç de la Muga","latitude":0.0,"longitude":0.0},{"id":151703,"name":"Sant Martí de Llémena","latitude":0.0,"longitude":0.0},{"id":36987,"name":"Sant Martí Vell","latitude":42.01667,"longitude":2.93333},{"id":36991,"name":"Sant Miquel de Campmajor","latitude":42.13333,"longitude":2.68333},{"id":151704,"name":"Sant Miquel de Fluvià","latitude":0.0,"longitude":0.0},{"id":151705,"name":"Sant Mori","latitude":0.0,"longitude":0.0},{"id":151706,"name":"Sant Pau de Segúries","latitude":0.0,"longitude":0.0},{"id":36992,"name":"Sant Pere Pescador","latitude":42.18812,"longitude":3.08212},{"id":37016,"name":"Santa Coloma de Farners","latitude":41.86667,"longitude":2.66667},{"id":151707,"name":"Santa Cristina dAro","latitude":0.0,"longitude":0.0},{"id":151708,"name":"Santa Llogaia dÀlguema","latitude":0.0,"longitude":0.0},{"id":37096,"name":"Santa Pau","latitude":42.1443,"longitude":2.57123},{"id":37171,"name":"Sarrià de Ter","latitude":42.01667,"longitude":2.83333},{"id":151710,"name":"Saus  Camallera i Llampaies","latitude":0.0,"longitude":0.0},{"id":151711,"name":"Selva de Mar La","latitude":0.0,"longitude":0.0},{"id":151713,"name":"Serinyà","latitude":0.0,"longitude":0.0},{"id":37219,"name":"Serra de Daró","latitude":42.02877,"longitude":3.07222},{"id":151714,"name":"Setcases","latitude":0.0,"longitude":0.0},{"id":37257,"name":"Sils","latitude":41.80842,"longitude":2.74507},{"id":37268,"name":"Siurana","latitude":42.20916,"longitude":2.99392},{"id":37334,"name":"Susqueda","latitude":41.97776,"longitude":2.51652},{"id":151715,"name":"Tallada dEmpordà La","latitude":0.0,"longitude":0.0},{"id":151716,"name":"Terrades","latitude":0.0,"longitude":0.0},{"id":37565,"name":"Torrent","latitude":41.95243,"longitude":3.12684},{"id":37590,"name":"Torroella de Fluvià","latitude":42.17522,"longitude":3.04025},{"id":37591,"name":"Torroella de Montgrí","latitude":42.04254,"longitude":3.12703},{"id":151717,"name":"Tortellà","latitude":0.0,"longitude":0.0},{"id":151718,"name":"Toses","latitude":0.0,"longitude":0.0},{"id":37604,"name":"Tossa de Mar","latitude":41.71667,"longitude":2.93333},{"id":37683,"name":"Ullà","latitude":42.04964,"longitude":3.10754},{"id":151719,"name":"Ullastret","latitude":0.0,"longitude":0.0},{"id":37684,"name":"Ultramort","latitude":42.0364,"longitude":3.03455},{"id":37702,"name":"Urús","latitude":42.35131,"longitude":1.85343},{"id":151637,"name":"Vajol La","latitude":0.0,"longitude":0.0},{"id":151721,"name":"Vall de Bianya La","latitude":0.0,"longitude":0.0},{"id":151720,"name":"Vall den Bas La","latitude":0.0,"longitude":0.0},{"id":151722,"name":"Vall-llobrega","latitude":0.0,"longitude":0.0},{"id":151701,"name":"Vallfogona de Ripollès","latitude":0.0,"longitude":0.0},{"id":37939,"name":"Ventalló","latitude":42.14921,"longitude":3.02635},{"id":37953,"name":"Verges","latitude":42.06283,"longitude":3.04579},{"id":37967,"name":"Vidrà","latitude":42.12285,"longitude":2.30977},{"id":37966,"name":"Vidreres","latitude":41.78333,"longitude":2.78333},{"id":151726,"name":"Vila-sacra","latitude":0.0,"longitude":0.0},{"id":37975,"name":"Vilabertran","latitude":42.28255,"longitude":2.98144},{"id":37976,"name":"Vilablareix","latitude":41.95746,"longitude":2.77377},{"id":151723,"name":"Viladamat","latitude":0.0,"longitude":0.0},{"id":37977,"name":"Viladasens","latitude":42.08333,"longitude":2.93333},{"id":37979,"name":"Vilademuls","latitude":42.1389,"longitude":2.88819},{"id":37980,"name":"Viladrau","latitude":41.84746,"longitude":2.39019},{"id":37981,"name":"Vilafant","latitude":42.24668,"longitude":2.9382},{"id":37986,"name":"Vilajuïga","latitude":42.32533,"longitude":3.09302},{"id":151725,"name":"Vilallonga de Ter","latitude":0.0,"longitude":0.0},{"id":37988,"name":"Vilamacolum","latitude":42.19618,"longitude":3.05662},{"id":37989,"name":"Vilamalla","latitude":42.2172,"longitude":2.97009},{"id":37990,"name":"Vilamaniscle","latitude":42.37522,"longitude":3.06755},{"id":37992,"name":"Vilanant","latitude":42.25471,"longitude":2.88923},{"id":151724,"name":"Vilaür","latitude":0.0,"longitude":0.0},{"id":151727,"name":"Vilobí dOnyar","latitude":0.0,"longitude":0.0},{"id":38382,"name":"Vilopriu","latitude":42.1,"longitude":3.0}]