[{"id":107067,"name":"Adıyaman","latitude":37.76441,"longitude":38.27629},{"id":107173,"name":"Aralık İlçesi","latitude":39.88314,"longitude":44.5233},{"id":107332,"name":"Besni","latitude":37.69278,"longitude":37.86111},{"id":108814,"name":"Çelikhan","latitude":38.0256,"longitude":38.23665},{"id":107666,"name":"Gerger","latitude":37.95,"longitude":39.01667},{"id":107688,"name":"Gölbaşı","latitude":37.78361,"longitude":37.63667},{"id":108069,"name":"Kâhta","latitude":37.78552,"longitude":38.6237},{"id":108194,"name":"Merkez","latitude":37.74454,"longitude":38.26801},{"id":108379,"name":"Samsat","latitude":37.58194,"longitude":38.47417},{"id":108471,"name":"Sincik","latitude":38.03645,"longitude":38.61257},{"id":108606,"name":"Tut","latitude":37.79529,"longitude":37.9161}]