[{"id":76761,"name":"Akankpa","latitude":5.1264,"longitude":8.1898},{"id":76821,"name":"Calabar","latitude":4.95893,"longitude":8.32695},{"id":76873,"name":"Gakem","latitude":6.76963,"longitude":8.9912},{"id":76931,"name":"Ikang","latitude":4.78978,"longitude":8.5316},{"id":77122,"name":"Ugep","latitude":5.80865,"longitude":8.08098}]