[{"id":81137,"name":"Abulug","latitude":18.44528,"longitude":121.45333},{"id":81138,"name":"Abut","latitude":17.35423,"longitude":121.60138},{"id":81143,"name":"Accusilian","latitude":17.74791,"longitude":121.46254},{"id":81149,"name":"Afusing Centro","latitude":17.8526,"longitude":121.6269},{"id":81158,"name":"Aggugaddah","latitude":17.70016,"longitude":121.8025},{"id":81178,"name":"Alabug","latitude":17.73261,"longitude":121.46773},{"id":81190,"name":"Alannay","latitude":18.06114,"longitude":121.58616},{"id":81195,"name":"Alcala","latitude":17.9021,"longitude":121.65595},{"id":81209,"name":"Alibago","latitude":17.11667,"longitude":121.86667},{"id":81215,"name":"Alicia","latitude":16.77936,"longitude":121.69734},{"id":81222,"name":"Allacapan","latitude":18.22598,"longitude":121.55615},{"id":81226,"name":"Almaguer North","latitude":16.3497,"longitude":121.0926},{"id":81252,"name":"Amulung","latitude":17.8357,"longitude":121.72375},{"id":81265,"name":"Angadanan","latitude":16.75526,"longitude":121.74834},{"id":81278,"name":"Antagan Segunda","latitude":17.28268,"longitude":121.87153},{"id":81292,"name":"Aparri","latitude":18.3566,"longitude":121.6406},{"id":81314,"name":"Aritao","latitude":16.2979,"longitude":121.0345},{"id":81329,"name":"Atulayan","latitude":17.6648,"longitude":121.6937},{"id":81334,"name":"Aurora","latitude":16.99065,"longitude":121.63664},{"id":81338,"name":"Awallan","latitude":17.92439,"longitude":121.91305},{"id":81360,"name":"Bacnor East","latitude":17.03449,"longitude":121.70375},{"id":81395,"name":"Baggabag B","latitude":16.50588,"longitude":121.19014},{"id":81401,"name":"Bagong Tanza","latitude":16.98269,"longitude":121.61109},{"id":81406,"name":"Bagu","latitude":18.42441,"longitude":121.35573},{"id":81413,"name":"Bagumbayan","latitude":17.72271,"longitude":121.44695},{"id":81489,"name":"Ballesteros","latitude":18.4126,"longitude":121.5152},{"id":81511,"name":"Bambang","latitude":16.3865,"longitude":121.1066},{"id":81525,"name":"Bangad","latitude":17.49543,"longitude":121.77714},{"id":81528,"name":"Banganan","latitude":16.3144,"longitude":121.0544},{"id":81546,"name":"Banquero","latitude":17.02305,"longitude":121.77834},{"id":81588,"name":"Barucboc Norte","latitude":17.25857,"longitude":121.60561},{"id":81598,"name":"Basco","latitude":20.44865,"longitude":121.97017},{"id":81612,"name":"Batal","latitude":16.6875,"longitude":121.60083},{"id":81634,"name":"Battung","latitude":17.72261,"longitude":121.45914},{"id":81641,"name":"Bauan","latitude":17.72256,"longitude":121.68028},{"id":81667,"name":"Bayombong","latitude":16.4812,"longitude":121.1497},{"id":81676,"name":"Belance","latitude":16.18333,"longitude":121.25},{"id":81678,"name":"Benito Soliven","latitude":16.98155,"longitude":121.95994},{"id":81709,"name":"Binalan","latitude":18.3275,"longitude":121.5451},{"id":81719,"name":"Binguang","latitude":17.45893,"longitude":121.79519},{"id":81729,"name":"Bintawan","latitude":16.57588,"longitude":121.18764},{"id":81740,"name":"Bitag Grande","latitude":17.90244,"longitude":121.85013},{"id":81786,"name":"Bone South","latitude":16.2446,"longitude":120.9958},{"id":81850,"name":"Buguey","latitude":18.28823,"longitude":121.8331},{"id":81880,"name":"Buliwao","latitude":16.48333,"longitude":121.23333},{"id":81884,"name":"Bulu","latitude":17.33333,"longitude":121.76667},{"id":81910,"name":"Burgos","latitude":17.08914,"longitude":121.70254},{"id":81917,"name":"Busilak","latitude":16.4775,"longitude":121.1241},{"id":81939,"name":"Cabagan","latitude":17.42782,"longitude":121.76955},{"id":81951,"name":"Cabannungan Second","latitude":17.1249,"longitude":121.8506},{"id":81953,"name":"Cabaritan East","latitude":18.41781,"longitude":121.48872},{"id":81954,"name":"Cabarroguis","latitude":16.51105,"longitude":121.52118},{"id":81958,"name":"Cabatuan","latitude":16.95655,"longitude":121.66854},{"id":81970,"name":"Cabiraoan","latitude":18.32377,"longitude":122.08595},{"id":81982,"name":"Cabulay","latitude":16.74556,"longitude":121.4975},{"id":82014,"name":"Calamagui East","latitude":17.48815,"longitude":121.76845},{"id":82025,"name":"Calantac","latitude":17.90904,"longitude":121.7228},{"id":82028,"name":"Calaoagan","latitude":18.04279,"longitude":121.72325},{"id":82053,"name":"Calinaoan Malasin","latitude":17.35189,"longitude":121.74074},{"id":82061,"name":"Calog Norte","latitude":18.36359,"longitude":121.38533},{"id":82077,"name":"Camalaniugan","latitude":18.274,"longitude":121.6748},{"id":82138,"name":"Capissayan Sur","latitude":18.0509,"longitude":121.8177},{"id":82162,"name":"Carig","latitude":17.65929,"longitude":121.74357},{"id":82188,"name":"Casambalangan","latitude":18.37646,"longitude":122.12745},{"id":82207,"name":"Catayauan","latitude":18.16072,"longitude":121.65271},{"id":82251,"name":"Claveria","latitude":18.60742,"longitude":121.08322},{"id":82290,"name":"Cordon","latitude":16.6744,"longitude":121.4658},{"id":82317,"name":"Cullalabo del Sur","latitude":17.10267,"longitude":121.70394},{"id":82341,"name":"Dagupan","latitude":17.70039,"longitude":121.50448},{"id":82345,"name":"Dalaoig","latitude":17.94917,"longitude":121.7148},{"id":82383,"name":"Daragutan","latitude":17.0,"longitude":122.03333},{"id":82389,"name":"Dassun","latitude":17.74517,"longitude":121.71137},{"id":82413,"name":"Diadi","latitude":16.7262,"longitude":121.3589},{"id":82414,"name":"Diamantina","latitude":16.91795,"longitude":121.62674},{"id":82417,"name":"Dibuluan","latitude":16.51907,"longitude":121.76472},{"id":82418,"name":"Dicabisagan","latitude":17.08184,"longitude":122.41574},{"id":82419,"name":"Dicamay","latitude":16.75606,"longitude":122.00374},{"id":82421,"name":"Diffun","latitude":16.59,"longitude":121.5057},{"id":82446,"name":"Divisoria","latitude":17.52268,"longitude":121.77421},{"id":82448,"name":"Dodan","latitude":17.64107,"longitude":121.79449},{"id":82480,"name":"Dumabato","latitude":16.31667,"longitude":121.7},{"id":82501,"name":"Echague","latitude":16.70509,"longitude":121.67633},{"id":82502,"name":"Eden","latitude":17.03809,"longitude":121.59799},{"id":82508,"name":"Enrile","latitude":17.5596,"longitude":121.6974},{"id":82523,"name":"Esperanza East","latitude":17.02327,"longitude":121.68402},{"id":82529,"name":"Estefania","latitude":17.79952,"longitude":121.7231},{"id":82542,"name":"Furao","latitude":17.03466,"longitude":121.79689},{"id":82551,"name":"Gadu","latitude":17.6292,"longitude":121.6105},{"id":82558,"name":"Gammad","latitude":17.7104,"longitude":121.7437},{"id":82559,"name":"Gamu","latitude":17.04975,"longitude":121.83604},{"id":82561,"name":"Ganapi","latitude":17.20174,"longitude":121.86524},{"id":82568,"name":"Gappal","latitude":16.83646,"longitude":121.82184},{"id":82573,"name":"Gattaran","latitude":18.06157,"longitude":121.6441},{"id":82607,"name":"Gonzaga","latitude":18.25937,"longitude":121.99495},{"id":82619,"name":"Guiddam","latitude":18.33493,"longitude":121.46617},{"id":82711,"name":"Ibung","latitude":16.60938,"longitude":121.18614},{"id":82722,"name":"Iguig","latitude":17.7506,"longitude":121.73645},{"id":82723,"name":"Ilagan","latitude":17.14854,"longitude":121.88924},{"id":82748,"name":"Ineangan","latitude":16.3181,"longitude":121.093},{"id":82760,"name":"Iraga","latitude":17.7015,"longitude":121.6546},{"id":82774,"name":"Itbayat","latitude":20.78733,"longitude":121.84177},{"id":82776,"name":"Ivana","latitude":20.37005,"longitude":121.91457},{"id":82809,"name":"Jones","latitude":16.5571,"longitude":121.7029},{"id":82875,"name":"Kasibu","latitude":16.3167,"longitude":121.2965},{"id":82950,"name":"La Paz","latitude":16.91075,"longitude":121.66824},{"id":82992,"name":"Lallayug","latitude":17.70684,"longitude":121.44175},{"id":83020,"name":"Lanna","latitude":17.696,"longitude":121.70014},{"id":83032,"name":"Lapi","latitude":17.716,"longitude":121.89775},{"id":83043,"name":"Larion Alto","latitude":17.63082,"longitude":121.76062},{"id":83046,"name":"Lasam","latitude":18.06519,"longitude":121.60065},{"id":83199,"name":"Lucban","latitude":18.33644,"longitude":121.43082},{"id":83229,"name":"Luna","latitude":16.96975,"longitude":121.72924},{"id":83267,"name":"Mabasa","latitude":16.321,"longitude":121.1262},{"id":83281,"name":"Mabini","latitude":17.09936,"longitude":121.73454},{"id":83291,"name":"Mabuttal East","latitude":18.3762,"longitude":121.5147},{"id":83311,"name":"Maddarulug Norte","latitude":17.60732,"longitude":121.6767},{"id":83312,"name":"Maddela","latitude":16.3414,"longitude":121.6849},{"id":83317,"name":"Magalalag","latitude":17.57732,"longitude":121.73497},{"id":83325,"name":"Magapit","latitude":18.13741,"longitude":121.66942},{"id":83326,"name":"Magapit Aguiguican","latitude":18.10788,"longitude":121.67705},{"id":83333,"name":"Magdalena","latitude":16.95225,"longitude":121.66548},{"id":83344,"name":"Magsaysay","latitude":17.30813,"longitude":121.77755},{"id":83350,"name":"Maguilling","latitude":17.76982,"longitude":121.49778},{"id":83359,"name":"Mahatao","latitude":20.41585,"longitude":121.94707},{"id":83409,"name":"Malasin","latitude":16.3045,"longitude":121.1062},{"id":83450,"name":"Mallig","latitude":17.21284,"longitude":121.61074},{"id":83460,"name":"Maluno Sur","latitude":16.99885,"longitude":121.96434},{"id":83494,"name":"Manaring","latitude":17.17294,"longitude":121.90254},{"id":83509,"name":"Manga","latitude":17.70123,"longitude":121.86048},{"id":83600,"name":"Masaya Sur","latitude":16.50017,"longitude":121.74743},{"id":83604,"name":"Masipi West","latitude":17.37933,"longitude":121.83861},{"id":83642,"name":"Maxingal","latitude":18.21488,"longitude":121.66815},{"id":83678,"name":"Minallo","latitude":16.98685,"longitude":121.85394},{"id":83679,"name":"Minanga Norte","latitude":17.45233,"longitude":121.78533},{"id":83680,"name":"Minante Segundo","latitude":16.9022,"longitude":121.76191},{"id":83688,"name":"Minuri","latitude":16.53233,"longitude":121.85532},{"id":83719,"name":"Mozzozzin Sur","latitude":17.45685,"longitude":121.74607},{"id":83724,"name":"Mungo","latitude":17.72412,"longitude":121.47096},{"id":83730,"name":"Muñoz East","latitude":17.15754,"longitude":121.61354},{"id":83735,"name":"Nabannagan West","latitude":18.07156,"longitude":121.5363},{"id":83749,"name":"Nagrumbuan","latitude":16.89955,"longitude":121.70974},{"id":83751,"name":"Nagtipunan","latitude":16.21667,"longitude":121.6},{"id":83755,"name":"Naguilian","latitude":17.02315,"longitude":121.83704},{"id":83768,"name":"Namuac","latitude":18.6109,"longitude":121.1657},{"id":83790,"name":"Nattapian","latitude":17.67536,"longitude":121.70296},{"id":83879,"name":"Paddaya","latitude":18.32361,"longitude":121.73866},{"id":83908,"name":"Palagao Norte","latitude":18.04406,"longitude":121.71871},{"id":83940,"name":"Pamplona","latitude":18.46639,"longitude":121.34111},{"id":83969,"name":"Pangal Sur","latitude":16.60036,"longitude":121.66979},{"id":84037,"name":"Pata","latitude":17.7152,"longitude":121.5018},{"id":84054,"name":"Pattao","latitude":18.24694,"longitude":121.8147},{"id":84077,"name":"Peñablanca","latitude":17.63342,"longitude":121.78117},{"id":84082,"name":"Piat","latitude":17.7905,"longitude":121.478},{"id":84098,"name":"Pilig","latitude":17.34278,"longitude":121.77389},{"id":84114,"name":"Pinoma","latitude":16.87421,"longitude":121.70669},{"id":84190,"name":"Province of Batanes","latitude":20.45798,"longitude":121.9941},{"id":84195,"name":"Province of Cagayan","latitude":18.0,"longitude":121.83333},{"id":84213,"name":"Province of Isabela","latitude":17.0,"longitude":122.0},{"id":84230,"name":"Province of Nueva Vizcaya","latitude":16.33333,"longitude":121.33333},{"id":84235,"name":"Province of Quirino","latitude":16.28333,"longitude":121.58333},{"id":84298,"name":"Quezon","latitude":17.31303,"longitude":121.60654},{"id":84303,"name":"Quibal","latitude":17.7159,"longitude":121.81135},{"id":84314,"name":"Quirino","latitude":17.13333,"longitude":121.7},{"id":84318,"name":"Ragan Norte","latitude":17.32318,"longitude":121.77428},{"id":84323,"name":"Ramon","latitude":16.78416,"longitude":121.53504},{"id":84326,"name":"Ramos West","latitude":16.6984,"longitude":121.6136},{"id":84336,"name":"Reina Mercedes","latitude":16.98545,"longitude":121.82664},{"id":84344,"name":"Rizal","latitude":16.71861,"longitude":121.55528},{"id":84361,"name":"Roxas","latitude":17.11894,"longitude":121.62014},{"id":84375,"name":"Sabtang","latitude":20.33566,"longitude":121.87157},{"id":84394,"name":"Saguday","latitude":16.5428,"longitude":121.5638},{"id":84411,"name":"Salinas","latitude":16.3695,"longitude":121.0188},{"id":84413,"name":"Salinungan Proper","latitude":16.86906,"longitude":121.61454},{"id":84450,"name":"San Antonio","latitude":17.27329,"longitude":121.79121},{"id":84457,"name":"San Bernardo","latitude":17.40481,"longitude":121.75155},{"id":84483,"name":"San Fernando","latitude":16.3892,"longitude":121.1324},{"id":84495,"name":"San Guillermo","latitude":16.7254,"longitude":121.8098},{"id":84513,"name":"San Jose","latitude":17.15,"longitude":121.6},{"id":84531,"name":"San Juan","latitude":17.40562,"longitude":121.74745},{"id":84542,"name":"San Luis","latitude":16.96455,"longitude":121.82784},{"id":84545,"name":"San Manuel","latitude":17.02375,"longitude":121.63574},{"id":84550,"name":"San Mariano","latitude":16.98265,"longitude":122.01404},{"id":84554,"name":"San Mateo","latitude":17.13754,"longitude":121.74534},{"id":84582,"name":"San Pedro","latitude":17.2,"longitude":121.88333},{"id":84625,"name":"San Vicente","latitude":18.50746,"longitude":122.15035},{"id":84628,"name":"Sandiat Centro","latitude":17.07295,"longitude":121.63752},{"id":84639,"name":"Santa Ana","latitude":18.46986,"longitude":122.14775},{"id":84655,"name":"Santa Cruz","latitude":18.51646,"longitude":121.31052},{"id":84669,"name":"Santa Fe","latitude":16.1595,"longitude":120.9381},{"id":84689,"name":"Santa Maria","latitude":18.1414,"longitude":121.66473},{"id":84695,"name":"Santa Praxedes","latitude":18.56667,"longitude":121.0},{"id":84705,"name":"Santa Teresita","latitude":18.2472,"longitude":121.9127},{"id":84715,"name":"Santiago","latitude":16.68808,"longitude":121.5487},{"id":84721,"name":"Santo Domingo","latitude":17.15999,"longitude":121.75183},{"id":84726,"name":"Santo Niño","latitude":17.8861,"longitude":121.5691},{"id":84733,"name":"Santo Tomas","latitude":17.39972,"longitude":121.76455},{"id":84782,"name":"Siempre Viva","latitude":17.22874,"longitude":121.63294},{"id":84794,"name":"Sillawit","latitude":16.87316,"longitude":121.75924},{"id":84800,"name":"Simanu Sur","latitude":17.48523,"longitude":121.83426},{"id":84802,"name":"Simimbaan","latitude":17.11856,"longitude":121.58138},{"id":84810,"name":"Sinamar","latitude":16.9,"longitude":121.56667},{"id":84814,"name":"Sindon","latitude":17.06034,"longitude":122.01514},{"id":84840,"name":"Solana","latitude":17.6528,"longitude":121.691},{"id":84842,"name":"Solano","latitude":16.51918,"longitude":121.18124},{"id":84850,"name":"Soyung","latitude":16.7001,"longitude":121.6655},{"id":84949,"name":"Taguing","latitude":17.94636,"longitude":121.75521},{"id":85049,"name":"Tapel","latitude":18.28907,"longitude":122.02915},{"id":85180,"name":"Tuao","latitude":16.58833,"longitude":121.25778},{"id":85212,"name":"Tuguegarao","latitude":17.61577,"longitude":121.72285},{"id":85222,"name":"Tumauini","latitude":17.27663,"longitude":121.80854},{"id":85231,"name":"Tupang","latitude":17.90483,"longitude":121.64099},{"id":85242,"name":"Uddiawan","latitude":16.55888,"longitude":121.15124},{"id":85243,"name":"Ugac Sur","latitude":17.61325,"longitude":121.71583},{"id":85244,"name":"Ugad","latitude":17.3075,"longitude":121.80042},{"id":85263,"name":"Upi","latitude":17.08262,"longitude":121.83453},{"id":85274,"name":"Uyugan","latitude":20.35045,"longitude":121.93777},{"id":85319,"name":"Yeban Norte","latitude":17.02195,"longitude":121.94194}]