[{"id":31061,"name":"El Palmar","latitude":18.41139,"longitude":-71.24558},{"id":31074,"name":"Galván","latitude":18.50228,"longitude":-71.34271},{"id":31109,"name":"La Uvilla","latitude":18.36186,"longitude":-71.21046},{"id":31122,"name":"Los Ríos","latitude":18.52131,"longitude":-71.59106},{"id":31138,"name":"Neiba","latitude":18.48137,"longitude":-71.41965},{"id":31203,"name":"Tamayo","latitude":18.5,"longitude":-71.16667},{"id":31218,"name":"Villa Jaragua","latitude":18.49077,"longitude":-71.48377}]