[{"id":105249,"name":"Amphoe Benchalak","latitude":14.78319,"longitude":104.71879},{"id":105259,"name":"Amphoe Bueng Bun","latitude":15.30288,"longitude":104.06166},{"id":105358,"name":"Amphoe Huai Thap Than","latitude":15.01808,"longitude":104.03875},{"id":105371,"name":"Amphoe Kantharalak","latitude":14.568,"longitude":104.6708},{"id":105372,"name":"Amphoe Kanthararom","latitude":15.12447,"longitude":104.57318},{"id":105431,"name":"Amphoe Khukhan","latitude":14.73783,"longitude":104.1859},{"id":105432,"name":"Amphoe Khun Han","latitude":14.53455,"longitude":104.40739},{"id":105537,"name":"Amphoe Mueang Chan","latitude":15.18249,"longitude":104.02471},{"id":105590,"name":"Amphoe Mueang Sisaket","latitude":15.08168,"longitude":104.35126},{"id":105635,"name":"Amphoe Nam Kliang","latitude":14.91022,"longitude":104.52545},{"id":105650,"name":"Amphoe Non Khun","latitude":14.90188,"longitude":104.69564},{"id":105735,"name":"Amphoe Phayu","latitude":14.90639,"longitude":104.38293},{"id":105747,"name":"Amphoe Pho Si Suwan","latitude":15.2337,"longitude":104.06739},{"id":105767,"name":"Amphoe Phrai Bueng","latitude":14.77989,"longitude":104.36599},{"id":105782,"name":"Amphoe Phu Sing","latitude":14.48873,"longitude":104.15603},{"id":105797,"name":"Amphoe Prang Ku","latitude":14.85443,"longitude":104.0374},{"id":105805,"name":"Amphoe Rasi Salai","latitude":15.34637,"longitude":104.18617},{"id":106221,"name":"Amphoe Si Rattana","latitude":14.81062,"longitude":104.47634},{"id":106236,"name":"Amphoe Sila Lat","latitude":15.4807,"longitude":104.09478},{"id":106328,"name":"Amphoe Uthumphon Phisai","latitude":15.12305,"longitude":104.16002},{"id":106337,"name":"Amphoe Wang Hin","latitude":14.96133,"longitude":104.21928},{"id":106374,"name":"Amphoe Yang Chum Noi","latitude":15.23688,"longitude":104.39083},{"id":106513,"name":"Kantharalak","latitude":14.64056,"longitude":104.64992},{"id":106648,"name":"Phrai Bueng","latitude":14.74833,"longitude":104.36261},{"id":106700,"name":"Si Sa Ket","latitude":15.11481,"longitude":104.32938}]