[{"id":97522,"name":"Agryz","latitude":56.52034,"longitude":52.99422},{"id":97523,"name":"Agryzskiy Rayon","latitude":56.25,"longitude":52.83333},{"id":97545,"name":"Aksubayevskiy Rayon","latitude":54.83333,"longitude":50.83333},{"id":97546,"name":"Aktanysh","latitude":55.72156,"longitude":54.08293},{"id":97547,"name":"Aktanyshskiy Rayon","latitude":55.75,"longitude":53.83333},{"id":97549,"name":"Aktyubinskiy","latitude":54.81372,"longitude":52.80559},{"id":97607,"name":"Al’keyevskiy Rayon","latitude":54.91667,"longitude":50.0},{"id":97608,"name":"Al’met’yevsk","latitude":54.90442,"longitude":52.3154},{"id":97609,"name":"Al’met’yevskiy Rayon","latitude":54.91667,"longitude":52.41667},{"id":97581,"name":"Alekseyevskiy Rayon","latitude":55.16667,"longitude":50.0},{"id":97582,"name":"Alekseyevskoye","latitude":55.30706,"longitude":50.11353},{"id":97647,"name":"Apastovo","latitude":55.20293,"longitude":48.51091},{"id":97648,"name":"Apastovskiy Rayon","latitude":55.25,"longitude":48.5},{"id":97681,"name":"Arsk","latitude":56.09151,"longitude":49.87783},{"id":97682,"name":"Arskiy Rayon","latitude":56.16667,"longitude":49.91667},{"id":97716,"name":"Atninskiy Rayon","latitude":56.25,"longitude":49.41667},{"id":97730,"name":"Aysha","latitude":55.87035,"longitude":48.63187},{"id":97733,"name":"Aznakayevskiy Rayon","latitude":54.91667,"longitude":53.0},{"id":97780,"name":"Baltasi","latitude":56.3462,"longitude":50.2062},{"id":97781,"name":"Baltasinskiy Rayon","latitude":56.33333,"longitude":50.25},{"id":97818,"name":"Bavlinskiy Rayon","latitude":54.25,"longitude":53.25},{"id":97819,"name":"Bavly","latitude":54.39304,"longitude":53.26023},{"id":97831,"name":"Bazarnyye Mataki","latitude":54.88333,"longitude":49.93333},{"id":97930,"name":"Bilyarsk","latitude":54.98358,"longitude":50.38671},{"id":97964,"name":"Bogatyye Saby","latitude":56.0102,"longitude":50.4483},{"id":97990,"name":"Bolgar","latitude":54.95,"longitude":49.06667},{"id":98067,"name":"Bugul’ma","latitude":54.5378,"longitude":52.7985},{"id":98068,"name":"Bugul’minskiy Rayon","latitude":54.58333,"longitude":52.91667},{"id":98071,"name":"Buinsk","latitude":54.97119,"longitude":48.29184},{"id":98072,"name":"Buinskiy Rayon","latitude":55.0,"longitude":48.25},{"id":98150,"name":"Cheremshan","latitude":54.66667,"longitude":51.5},{"id":98152,"name":"Cheremshanskiy Rayon","latitude":54.75,"longitude":51.5},{"id":98200,"name":"Chistopol’","latitude":55.36311,"longitude":50.64244},{"id":98201,"name":"Chistopol’skiy Rayon","latitude":55.33333,"longitude":50.75},{"id":98327,"name":"Drozhzhanovskiy Rayon","latitude":54.75,"longitude":47.58333},{"id":98372,"name":"Dzhalil’","latitude":55.0239,"longitude":52.7358},{"id":98548,"name":"Gorod Buinsk","latitude":54.96694,"longitude":48.285},{"id":98551,"name":"Gorod Kazan’","latitude":55.75,"longitude":49.13333},{"id":98553,"name":"Gorod Nizhnekamsk","latitude":55.63333,"longitude":51.81667},{"id":98555,"name":"Gorod Yelabuga","latitude":55.75,"longitude":52.06667},{"id":98556,"name":"Gorod Zainsk","latitude":55.31667,"longitude":52.05},{"id":98557,"name":"Gorod Zelënodol’sk","latitude":55.83333,"longitude":48.5},{"id":98827,"name":"Kamsko-Ust’inskiy Rayon","latitude":55.16667,"longitude":49.0},{"id":98852,"name":"Karabash","latitude":54.693,"longitude":52.58359},{"id":98918,"name":"Kaybitskiy Rayon","latitude":55.41667,"longitude":48.16667},{"id":98926,"name":"Kazan","latitude":55.78874,"longitude":49.12214},{"id":99425,"name":"Kukmor","latitude":56.1855,"longitude":50.8944},{"id":99426,"name":"Kukmorskiy Rayon","latitude":56.25,"longitude":50.66667},{"id":99496,"name":"Kuybyshevskiy Zaton","latitude":55.1593,"longitude":49.1701},{"id":99535,"name":"Laishevo","latitude":55.40464,"longitude":49.55037},{"id":99536,"name":"Laishevskiy Rayon","latitude":55.5,"longitude":49.58333},{"id":99566,"name":"Leninogorsk","latitude":54.60256,"longitude":52.46087},{"id":99567,"name":"Leninogorskiy Rayon","latitude":54.58333,"longitude":52.08333},{"id":99677,"name":"Lubyany","latitude":56.0378,"longitude":51.40001},{"id":99774,"name":"Mamadysh","latitude":55.71525,"longitude":51.40797},{"id":99775,"name":"Mamadyshskiy Rayon","latitude":55.66667,"longitude":51.25},{"id":99863,"name":"Mendeleyevsk","latitude":55.90819,"longitude":52.29047},{"id":99865,"name":"Mendeleyevskiy Rayon","latitude":55.91667,"longitude":52.33333},{"id":99866,"name":"Menzelinsk","latitude":55.72706,"longitude":53.10258},{"id":99867,"name":"Menzelinskiy Rayon","latitude":55.75,"longitude":53.0},{"id":100019,"name":"Muslyumovo","latitude":55.30333,"longitude":53.19472},{"id":100021,"name":"Muslyumovskiy Rayon","latitude":55.25,"longitude":53.25},{"id":100037,"name":"Naberezhnyye Chelny","latitude":55.72545,"longitude":52.41122},{"id":100155,"name":"Nizhnekamsk","latitude":55.63657,"longitude":51.82447},{"id":100156,"name":"Nizhnekamskiy Rayon","latitude":55.41667,"longitude":51.58333},{"id":100180,"name":"Nizhniye Vyazovyye","latitude":55.79877,"longitude":48.52476},{"id":100183,"name":"Nizhnyaya Maktama","latitude":54.86356,"longitude":52.4281},{"id":100300,"name":"Novosheshminsk","latitude":55.06513,"longitude":51.23376},{"id":100301,"name":"Novosheshminskiy Rayon","latitude":55.08333,"longitude":51.25},{"id":100370,"name":"Nurlat","latitude":54.42766,"longitude":50.80511},{"id":100371,"name":"Nurlatskiy rayon","latitude":54.5,"longitude":50.75},{"id":100488,"name":"Osinovo","latitude":55.8809,"longitude":48.881},{"id":100641,"name":"Pestrechinskiy Rayon","latitude":55.75,"longitude":49.75},{"id":100642,"name":"Pestretsy","latitude":55.75313,"longitude":49.65454},{"id":101032,"name":"Russkiy Aktash","latitude":55.0384,"longitude":52.1214},{"id":101050,"name":"Rybnaya Sloboda","latitude":55.46129,"longitude":50.1409},{"id":101051,"name":"Rybno-Slobodskiy Rayon","latitude":55.58333,"longitude":50.16667},{"id":101061,"name":"Sabinskiy Rayon","latitude":56.0,"longitude":50.5},{"id":101120,"name":"Sarmanovo","latitude":55.25529,"longitude":52.58907},{"id":101121,"name":"Sarmanovskiy Rayon","latitude":55.25,"longitude":52.58333},{"id":101295,"name":"Shemordan","latitude":56.1856,"longitude":50.3972},{"id":101344,"name":"Shugurovo","latitude":54.50828,"longitude":52.13265},{"id":101531,"name":"Spasskiy Rayon","latitude":55.0,"longitude":49.5},{"id":101600,"name":"Staroye Arakchino","latitude":55.8041,"longitude":48.9709},{"id":101601,"name":"Staroye Drozhzhanoye","latitude":54.72657,"longitude":47.56766},{"id":101621,"name":"Stolbishchi","latitude":55.64679,"longitude":49.21595},{"id":101711,"name":"Sviyazhsk","latitude":55.77329,"longitude":48.66051},{"id":101842,"name":"Tetyushi","latitude":54.93821,"longitude":48.83656},{"id":101843,"name":"Tetyushskiy Rayon","latitude":55.0,"longitude":48.75},{"id":101965,"name":"Tukayevskiy Rayon","latitude":55.66667,"longitude":52.25},{"id":102002,"name":"Tyulyachi","latitude":55.89125,"longitude":50.23992},{"id":102003,"name":"Tyulyachinskiy Rayon","latitude":55.91667,"longitude":50.25},{"id":102090,"name":"Urussu","latitude":54.59812,"longitude":53.46313},{"id":102198,"name":"Vasil’yevo","latitude":55.83595,"longitude":48.6582},{"id":102243,"name":"Verkhneuslonskiy Rayon","latitude":55.66667,"longitude":48.75},{"id":102259,"name":"Verkhniy Uslon","latitude":55.7701,"longitude":48.9823},{"id":102444,"name":"Vysokaya Gora","latitude":55.91278,"longitude":49.30167},{"id":102448,"name":"Vysokogorskiy Rayon","latitude":55.9,"longitude":49.31667},{"id":102532,"name":"Yelabuga","latitude":55.76127,"longitude":52.06493},{"id":102533,"name":"Yelabuzhskiy Rayon","latitude":55.83333,"longitude":51.83333},{"id":102610,"name":"Yutazinskiy Rayon","latitude":54.66667,"longitude":53.5},{"id":102631,"name":"Zainsk","latitude":55.3195,"longitude":52.06942},{"id":102632,"name":"Zainskiy Rayon","latitude":55.3,"longitude":52.0},{"id":102694,"name":"Zelenodol’skiy Rayon","latitude":55.91667,"longitude":48.75},{"id":102693,"name":"Zelenodolsk","latitude":55.84376,"longitude":48.51784}]