[{"id":89693,"name":"Água de Pena","latitude":32.70143,"longitude":-16.77874},{"id":88978,"name":"Arco da Calheta","latitude":32.71502,"longitude":-17.14974},{"id":89038,"name":"Boaventura","latitude":32.81846,"longitude":-16.97268},{"id":89068,"name":"Calheta","latitude":32.71667,"longitude":-17.18333},{"id":89071,"name":"Camacha","latitude":32.67919,"longitude":-16.84462},{"id":89139,"name":"Câmara de Lobos","latitude":32.65043,"longitude":-16.97718},{"id":89074,"name":"Campanário","latitude":32.66578,"longitude":-17.03576},{"id":89084,"name":"Canhas","latitude":32.69465,"longitude":-17.09867},{"id":89086,"name":"Caniçal","latitude":32.73834,"longitude":-16.73836},{"id":89087,"name":"Caniço","latitude":32.65078,"longitude":-16.83749},{"id":89138,"name":"Curral das Freiras","latitude":32.72029,"longitude":-16.96993},{"id":89156,"name":"Estreito da Calheta","latitude":32.73704,"longitude":-17.18674},{"id":89161,"name":"Faial","latitude":32.78333,"longitude":-16.85},{"id":89162,"name":"Fajã da Ovelha","latitude":32.77457,"longitude":-17.23412},{"id":89197,"name":"Funchal","latitude":32.66568,"longitude":-16.92547},{"id":89262,"name":"Machico","latitude":32.7162,"longitude":-16.76758},{"id":89351,"name":"Nossa Senhora do Monte","latitude":32.66667,"longitude":-16.9},{"id":89414,"name":"Ponta do Sol","latitude":32.6798,"longitude":-17.1},{"id":89432,"name":"Porto da Cruz","latitude":32.76667,"longitude":-16.83333},{"id":89429,"name":"Porto Moniz","latitude":32.86681,"longitude":-17.16667},{"id":89431,"name":"Porto Santo","latitude":33.07145,"longitude":-16.34304},{"id":89465,"name":"Ribeira Brava","latitude":32.67483,"longitude":-17.06288},{"id":89499,"name":"Santa Cruz","latitude":32.68806,"longitude":-16.79388},{"id":89509,"name":"Santana","latitude":32.8,"longitude":-16.88333},{"id":89563,"name":"São Jorge","latitude":32.81667,"longitude":-16.9},{"id":89575,"name":"São Martinho","latitude":32.6448,"longitude":-16.93843},{"id":89585,"name":"São Roque","latitude":32.66667,"longitude":-16.91667},{"id":89591,"name":"São Vicente","latitude":32.79673,"longitude":-17.04323}]