[{"id":129896,"name":"Angren","latitude":41.01667,"longitude":70.14361},{"id":129900,"name":"Bekobod","latitude":40.22083,"longitude":69.26972},{"id":129907,"name":"Bo‘ka","latitude":40.81108,"longitude":69.19417},{"id":129914,"name":"Chinoz","latitude":40.93633,"longitude":68.76128},{"id":129915,"name":"Chirchiq","latitude":41.46889,"longitude":69.58222},{"id":129930,"name":"G‘azalkent","latitude":41.55806,"longitude":69.77083},{"id":129936,"name":"Iskandar","latitude":41.55389,"longitude":69.70083},{"id":129953,"name":"Kyzyldzhar","latitude":41.56667,"longitude":70.01667},{"id":129966,"name":"Ohangaron","latitude":40.90639,"longitude":69.63833},{"id":129967,"name":"Olmaliq","latitude":40.84472,"longitude":69.59833},{"id":129974,"name":"Parkent","latitude":41.29444,"longitude":69.67639},{"id":129979,"name":"Piskent","latitude":40.89722,"longitude":69.35056},{"id":129982,"name":"Qibray","latitude":41.38972,"longitude":69.465},{"id":129994,"name":"Salor","latitude":41.37222,"longitude":69.38167},{"id":130010,"name":"Tŭytepa","latitude":41.0321,"longitude":69.36253},{"id":130028,"name":"Ŭrtaowul","latitude":41.18667,"longitude":69.14528},{"id":130020,"name":"Yangiobod","latitude":41.11919,"longitude":70.09406},{"id":130024,"name":"Yangiyŭl","latitude":41.11202,"longitude":69.0471},{"id":130026,"name":"Zafar","latitude":40.98333,"longitude":68.9}]