[{"id":107250,"name":"Aşkale","latitude":39.92083,"longitude":40.695},{"id":107237,"name":"Aziziye","latitude":39.94028,"longitude":41.11153},{"id":108786,"name":"Çat İlçesi","latitude":39.61055,"longitude":40.97851},{"id":107603,"name":"Erzurum","latitude":39.90861,"longitude":41.27694},{"id":107842,"name":"Hınıs","latitude":39.35766,"longitude":41.69253},{"id":107836,"name":"Horasan","latitude":40.03885,"longitude":42.16366},{"id":107848,"name":"Ilıca","latitude":39.94653,"longitude":41.0952},{"id":108918,"name":"İspir","latitude":40.47981,"longitude":40.99373},{"id":107921,"name":"Karaçoban","latitude":39.34364,"longitude":42.09918},{"id":107919,"name":"Karayazı","latitude":39.69604,"longitude":42.14277},{"id":108076,"name":"Köprüköy İlçesi","latitude":39.97178,"longitude":41.86804},{"id":108241,"name":"Narman","latitude":40.34449,"longitude":41.86088},{"id":108265,"name":"Oltu","latitude":40.53945,"longitude":41.98722},{"id":108267,"name":"Olur","latitude":40.82165,"longitude":42.13055},{"id":108307,"name":"Palandöken","latitude":39.8556,"longitude":41.27975},{"id":108314,"name":"Pasinler","latitude":39.97975,"longitude":41.66997},{"id":108331,"name":"Pazaryolu","latitude":40.41142,"longitude":40.7678},{"id":108950,"name":"Şenkaya","latitude":40.55652,"longitude":42.34266},{"id":108562,"name":"Tekman","latitude":39.64111,"longitude":41.50542},{"id":108589,"name":"Tortum","latitude":40.28892,"longitude":41.54096},{"id":108636,"name":"Uzundere","latitude":40.53218,"longitude":41.53832},{"id":108663,"name":"Yakutiye","latitude":40.00132,"longitude":41.30997}]