[{"id":105434,"name":"Amphoe Khun Yuam","latitude":18.82643,"longitude":97.93303},{"id":105502,"name":"Amphoe Mae La Noi","latitude":18.47823,"longitude":97.98295},{"id":105512,"name":"Amphoe Mae Sariang","latitude":18.26474,"longitude":97.77057},{"id":105550,"name":"Amphoe Mueang Mae Hong Son","latitude":19.28862,"longitude":98.00607},{"id":105699,"name":"Amphoe Pai","latitude":19.36036,"longitude":98.40638},{"id":105711,"name":"Amphoe Pang Mapha","latitude":19.60451,"longitude":98.2056},{"id":106248,"name":"Amphoe Sop Moei","latitude":17.96333,"longitude":97.93149},{"id":106563,"name":"Mae Hong Son","latitude":19.30029,"longitude":97.96852}]