[{"id":31623,"name":"Kanepi","latitude":57.98306,"longitude":26.75639},{"id":31624,"name":"Kanepi vald","latitude":57.98058,"longitude":26.76151},{"id":31685,"name":"P천lva","latitude":58.06028,"longitude":27.06944},{"id":31686,"name":"P천lva vald","latitude":58.08368,"longitude":26.98242},{"id":31699,"name":"R채pina","latitude":58.09806,"longitude":27.46361},{"id":31700,"name":"R채pina vald","latitude":58.10777,"longitude":27.3858}]