[{"id":109065,"name":"Dodoma","latitude":-6.17221,"longitude":35.73947},{"id":109101,"name":"Kibakwe","latitude":-6.71667,"longitude":36.36667},{"id":109125,"name":"Kisasa","latitude":-6.17526,"longitude":35.79266},{"id":109135,"name":"Kondoa","latitude":-4.70931,"longitude":35.86227},{"id":109136,"name":"Kongwa","latitude":-6.2,"longitude":36.41667},{"id":109211,"name":"Mpwapwa","latitude":-6.35,"longitude":36.48333},{"id":109212,"name":"Msanga","latitude":-6.05,"longitude":36.03333}]