[{"id":17487,"name":"Bezirk Hinterland","latitude":47.3647,"longitude":9.2735},{"id":17500,"name":"Bezirk Mittelland","latitude":47.377,"longitude":9.43469},{"id":17517,"name":"Bezirk Vorderland","latitude":47.44167,"longitude":9.53869},{"id":17597,"name":"Bühler","latitude":47.37348,"longitude":9.42507},{"id":17819,"name":"Gais","latitude":47.3615,"longitude":9.45356},{"id":17901,"name":"Heiden","latitude":47.44255,"longitude":9.53293},{"id":17907,"name":"Herisau","latitude":47.38615,"longitude":9.27916},{"id":18359,"name":"Rehetobel","latitude":47.42611,"longitude":9.483},{"id":18477,"name":"Schwellbrunn","latitude":47.35255,"longitude":9.24894},{"id":18532,"name":"Speicher","latitude":47.4109,"longitude":9.44335},{"id":18579,"name":"Teufen","latitude":47.3908,"longitude":9.38644},{"id":18605,"name":"Trogen","latitude":47.40782,"longitude":9.46498},{"id":18643,"name":"Urnäsch","latitude":47.31669,"longitude":9.2795},{"id":18712,"name":"Waldstatt","latitude":47.35627,"longitude":9.28345},{"id":18720,"name":"Walzenhausen","latitude":47.44867,"longitude":9.60495}]