[{"id":66993,"name":"Ajdabiya","latitude":30.75545,"longitude":20.22625},{"id":66997,"name":"Al Burayqah","latitude":30.40624,"longitude":19.57386},{"id":67006,"name":"Awjilah","latitude":29.10806,"longitude":21.28694},{"id":67007,"name":"Az Zuwaytīnah","latitude":30.9522,"longitude":20.12022},{"id":67017,"name":"Gialo","latitude":29.03333,"longitude":21.55},{"id":67020,"name":"Marādah","latitude":29.22054,"longitude":19.20454}]