[{"id":106925,"name":"Bir el Hafey","latitude":34.93212,"longitude":9.19321},{"id":106949,"name":"Er Regueb","latitude":34.85932,"longitude":9.78654},{"id":106967,"name":"Jilma","latitude":35.27311,"longitude":9.42385},{"id":106995,"name":"Mezzouna","latitude":34.57758,"longitude":9.84193},{"id":107024,"name":"Sidi Bouzid","latitude":35.03823,"longitude":9.48494}]