[{"id":67443,"name":"Izvor","latitude":42.20322,"longitude":21.57812},{"id":67469,"name":"Lipkovo","latitude":42.15639,"longitude":21.58528},{"id":67473,"name":"Lojane","latitude":42.23276,"longitude":21.6655},{"id":67480,"name":"Matejce","latitude":42.12556,"longitude":21.59778},{"id":67502,"name":"Otlja","latitude":42.14315,"longitude":21.58675},{"id":67547,"name":"Vaksince","latitude":42.20611,"longitude":21.66306},{"id":67579,"name":"Слупчане","latitude":42.17333,"longitude":21.62778}]