[{"id":102804,"name":"Abha","latitude":18.21639,"longitude":42.50528},{"id":102827,"name":"Al Majāridah","latitude":19.12361,"longitude":41.91111},{"id":148594,"name":"Al Qahab","latitude":18.9256,"longitude":41.955},{"id":102861,"name":"Khamis Mushait","latitude":18.3,"longitude":42.73333},{"id":148596,"name":"Ma`riyah","latitude":18.85,"longitude":41.9667},{"id":148597,"name":"Mifa","latitude":18.8917,"longitude":41.9633},{"id":148598,"name":"Munayzir","latitude":18.9464,"longitude":41.9164},{"id":102882,"name":"Tabālah","latitude":19.95,"longitude":42.4}]