[{"id":31643,"name":"Kuressaare","latitude":58.24806,"longitude":22.50389},{"id":31649,"name":"Liiva","latitude":58.60194,"longitude":23.24694},{"id":31660,"name":"Muhu vald","latitude":58.58486,"longitude":23.25609},{"id":31670,"name":"Orissaare","latitude":58.55917,"longitude":23.08262},{"id":31696,"name":"Ruhnu","latitude":57.80028,"longitude":23.24833},{"id":31697,"name":"Ruhnu vald","latitude":57.80309,"longitude":23.2425},{"id":31723,"name":"Tehumardi","latitude":58.18027,"longitude":22.24646}]