[{"id":104379,"name":"Bánovce nad Bebravou","latitude":48.7213,"longitude":18.25754},{"id":104373,"name":"Bojnice","latitude":48.78511,"longitude":18.5864},{"id":104377,"name":"Brezová pod Bradlom","latitude":48.66349,"longitude":17.53905},{"id":104586,"name":"Čachtice","latitude":48.71226,"longitude":17.78704},{"id":104384,"name":"Dubnica nad Váhom","latitude":48.95981,"longitude":18.16634},{"id":104394,"name":"Handlová","latitude":48.7276,"longitude":18.76012},{"id":104402,"name":"Ilava","latitude":48.99769,"longitude":18.2353},{"id":104419,"name":"Lehota pod Vtáčnikom","latitude":48.69138,"longitude":18.59944},{"id":104436,"name":"Myjava","latitude":48.75876,"longitude":17.56866},{"id":104437,"name":"Nemšová","latitude":48.96702,"longitude":18.11892},{"id":104441,"name":"Nová Dubnica","latitude":48.93479,"longitude":18.14632},{"id":104443,"name":"Nováky","latitude":48.71106,"longitude":18.53389},{"id":104444,"name":"Nové Mesto nad Váhom","latitude":48.75763,"longitude":17.8309},{"id":104457,"name":"Okres Bánovce nad Bebravou","latitude":48.71908,"longitude":18.25773},{"id":104465,"name":"Okres Ilava","latitude":48.99641,"longitude":18.23374},{"id":104479,"name":"Okres Myjava","latitude":48.75,"longitude":17.58333},{"id":104482,"name":"Okres Nové Mesto nad Váhom","latitude":48.75466,"longitude":17.83506},{"id":104484,"name":"Okres Partizánske","latitude":48.62613,"longitude":18.37957},{"id":104489,"name":"Okres Považská Bystrica","latitude":49.11667,"longitude":18.45},{"id":104491,"name":"Okres Prievidza","latitude":48.76667,"longitude":18.63333},{"id":104492,"name":"Okres Púchov","latitude":49.12406,"longitude":18.32477},{"id":104508,"name":"Okres Trenčín","latitude":48.8952,"longitude":18.04264},{"id":104523,"name":"Partizánske","latitude":48.62861,"longitude":18.38455},{"id":104529,"name":"Považská Bystrica","latitude":49.12153,"longitude":18.42169},{"id":104532,"name":"Prievidza","latitude":48.77446,"longitude":18.6275},{"id":104533,"name":"Púchov","latitude":49.12494,"longitude":18.32597},{"id":104551,"name":"Stará Turá","latitude":48.77721,"longitude":17.69433},{"id":104566,"name":"Trenčianske Teplice","latitude":48.91063,"longitude":18.16691},{"id":104567,"name":"Trenčín","latitude":48.89452,"longitude":18.04436}]