[{"id":64777,"name":"Busia","latitude":0.46005,"longitude":34.11169},{"id":64821,"name":"Luanda","latitude":0.31354,"longitude":34.07146},{"id":64822,"name":"Lugulu","latitude":0.39337,"longitude":34.30399},{"id":64826,"name":"Malaba","latitude":0.63513,"longitude":34.28165},{"id":64848,"name":"Nambare","latitude":0.45813,"longitude":34.25353},{"id":64861,"name":"Port Victoria","latitude":0.09809,"longitude":33.97248}]