[{"id":131022,"name":"Amajuba District Municipality","latitude":-27.73558,"longitude":30.13537},{"id":131027,"name":"Ballito","latitude":-29.53897,"longitude":31.21439},{"id":131033,"name":"Berea","latitude":-29.85185,"longitude":30.99337},{"id":131091,"name":"Dundee","latitude":-28.16678,"longitude":30.23371},{"id":131092,"name":"Durban","latitude":-29.8579,"longitude":31.0292},{"id":131102,"name":"Ekuvukeni","latitude":-28.46752,"longitude":30.15513},{"id":131320,"name":"eMkhomazi","latitude":-30.20674,"longitude":30.79776},{"id":131104,"name":"Empangeni","latitude":-28.76197,"longitude":31.89329},{"id":131106,"name":"Eshowe","latitude":-28.88649,"longitude":31.4699},{"id":131321,"name":"eSikhaleni","latitude":-28.87097,"longitude":31.89961},{"id":131322,"name":"eThekwini Metropolitan Municipality","latitude":-29.8667,"longitude":31.0167},{"id":131118,"name":"Glencoe","latitude":-28.17827,"longitude":30.14702},{"id":131122,"name":"Greytown","latitude":-29.06415,"longitude":30.59279},{"id":131130,"name":"Hluhluwe","latitude":-28.01895,"longitude":32.26762},{"id":131132,"name":"Howick","latitude":-29.47795,"longitude":30.23057},{"id":131323,"name":"iLembe District Municipality","latitude":-29.27326,"longitude":31.14253},{"id":131144,"name":"Kokstad","latitude":-30.54723,"longitude":29.42412},{"id":131155,"name":"KwaDukuza","latitude":-29.32816,"longitude":31.28954},{"id":131172,"name":"Margate","latitude":-30.8636,"longitude":30.37052},{"id":131183,"name":"Mondlo","latitude":-27.98299,"longitude":30.71769},{"id":131185,"name":"Mooirivier","latitude":-29.20824,"longitude":29.9946},{"id":131189,"name":"Mpophomeni","latitude":-29.56822,"longitude":30.18618},{"id":131190,"name":"Mpumalanga","latitude":-29.81292,"longitude":30.63646},{"id":131192,"name":"Mtubatuba","latitude":-28.41789,"longitude":32.18483},{"id":131196,"name":"Ndwedwe","latitude":-29.51686,"longitude":30.92687},{"id":131199,"name":"Newcastle","latitude":-27.75796,"longitude":29.9318},{"id":131218,"name":"Pietermaritzburg","latitude":-29.61679,"longitude":30.39278},{"id":131227,"name":"Port Shepstone","latitude":-30.74137,"longitude":30.45499},{"id":131239,"name":"Richards Bay","latitude":-28.78301,"longitude":32.03768},{"id":131240,"name":"Richmond","latitude":-29.87196,"longitude":30.27235},{"id":131251,"name":"Scottburgh","latitude":-30.28666,"longitude":30.75316},{"id":131256,"name":"Sisonke District Municipality","latitude":-30.11082,"longitude":29.66009},{"id":131267,"name":"Sundumbili","latitude":-29.13371,"longitude":31.39752},{"id":131278,"name":"Ugu District Municipality","latitude":-30.54365,"longitude":30.2748},{"id":131280,"name":"Ulundi","latitude":-28.33523,"longitude":31.41617},{"id":131324,"name":"uMgungundlovu District Municipality","latitude":-29.50927,"longitude":30.19838},{"id":131325,"name":"uMkhanyakude District Municipality","latitude":-27.62236,"longitude":32.32945},{"id":131326,"name":"uMzinyathi District Municipality","latitude":-28.5857,"longitude":30.55883},{"id":131327,"name":"uThukela District Municipality","latitude":-28.7192,"longitude":29.65799},{"id":131328,"name":"uThungulu District Municipality","latitude":-28.70046,"longitude":31.51527},{"id":131282,"name":"Utrecht","latitude":-27.65862,"longitude":30.32166},{"id":131297,"name":"Vryheid","latitude":-27.76952,"longitude":30.79165},{"id":131318,"name":"Zululand District Municipality","latitude":-27.81139,"longitude":31.29426}]