[{"id":129769,"name":"‘Āhuimanu","latitude":21.44472,"longitude":-157.83778},{"id":129764,"name":"‘Aiea","latitude":21.38222,"longitude":-157.93361},{"id":129765,"name":"‘Ele‘ele","latitude":21.90738,"longitude":-159.58322},{"id":129766,"name":"‘Ewa Beach","latitude":21.31556,"longitude":-158.00722},{"id":129767,"name":"‘Ewa Gentry","latitude":21.33999,"longitude":-158.03039},{"id":129768,"name":"‘Ewa Villages","latitude":21.34127,"longitude":-158.0397},{"id":129770,"name":"‘Ōma‘o","latitude":21.92581,"longitude":-159.48818},{"id":111068,"name":"Ainaloa","latitude":19.52694,"longitude":-154.99306},{"id":111300,"name":"Anahola","latitude":22.14226,"longitude":-159.31388},{"id":113378,"name":"Captain Cook","latitude":19.49694,"longitude":-155.92167},{"id":115693,"name":"East Honolulu","latitude":21.28906,"longitude":-157.71734},{"id":116481,"name":"Fern Acres","latitude":19.51222,"longitude":-155.08028},{"id":117841,"name":"Haiku-Pauwela","latitude":20.92187,"longitude":-156.30508},{"id":118859,"name":"Hālawa","latitude":21.37944,"longitude":-157.92167},{"id":118860,"name":"Hālawa Heights","latitude":21.37848,"longitude":-157.91388},{"id":117854,"name":"Hale‘iwa","latitude":21.59284,"longitude":-158.10339},{"id":117941,"name":"Hana","latitude":20.75806,"longitude":-155.99028},{"id":117943,"name":"Hanamā‘ulu","latitude":21.99773,"longitude":-159.35918},{"id":117944,"name":"Hanapēpē","latitude":21.90733,"longitude":-159.5944},{"id":117945,"name":"Hanapēpē Heights","latitude":21.91633,"longitude":-159.58995},{"id":118144,"name":"Hau‘ula","latitude":21.6076,"longitude":-157.90868},{"id":118157,"name":"Hawaii County","latitude":19.6024,"longitude":-155.52289},{"id":118158,"name":"Hawaiian Acres","latitude":19.53806,"longitude":-155.05222},{"id":118159,"name":"Hawaiian Beaches","latitude":19.54306,"longitude":-154.91583},{"id":118161,"name":"Hawaiian Ocean View","latitude":19.06861,"longitude":-155.765},{"id":118162,"name":"Hawaiian Paradise Park","latitude":19.59333,"longitude":-154.97306},{"id":118861,"name":"Hāwī","latitude":20.24122,"longitude":-155.83351},{"id":118353,"name":"He‘eia","latitude":21.43054,"longitude":-157.81611},{"id":118360,"name":"Hickam Field","latitude":21.33967,"longitude":-157.96018},{"id":118472,"name":"Hilo","latitude":19.72991,"longitude":-155.09073},{"id":118862,"name":"Hōlualoa","latitude":19.61979,"longitude":-155.94831},{"id":118613,"name":"Honalo","latitude":19.54639,"longitude":-155.93194},{"id":118614,"name":"Honaunau-Napoopoo","latitude":19.45627,"longitude":-155.86466},{"id":118622,"name":"Honoka‘a","latitude":20.07931,"longitude":-155.46691},{"id":118623,"name":"Honolulu","latitude":21.30694,"longitude":-157.85833},{"id":118624,"name":"Honolulu County","latitude":21.45543,"longitude":-157.96138},{"id":119001,"name":"Iroquois Point","latitude":21.32776,"longitude":-157.98301},{"id":119404,"name":"Ka‘a‘awa","latitude":21.55445,"longitude":-157.85103},{"id":119730,"name":"Kā‘anapali","latitude":20.92881,"longitude":-156.69422},{"id":119348,"name":"Kaanapali Landing","latitude":20.9309,"longitude":-156.68778},{"id":119352,"name":"Kahalu‘u","latitude":21.45759,"longitude":-157.84431},{"id":119351,"name":"Kahaluu-Keauhou","latitude":19.57181,"longitude":-155.96172},{"id":119354,"name":"Kahuku","latitude":21.68048,"longitude":-157.95237},{"id":119355,"name":"Kahului","latitude":20.88953,"longitude":-156.47432},{"id":119357,"name":"Kailua","latitude":21.40241,"longitude":-157.74054},{"id":119358,"name":"Kailua-Kona","latitude":19.64016,"longitude":-155.99912},{"id":119369,"name":"Kalāheo","latitude":21.92416,"longitude":-159.52686},{"id":119362,"name":"Kalaoa","latitude":19.72861,"longitude":-155.98167},{"id":119363,"name":"Kalawao County","latitude":21.18569,"longitude":-156.95944},{"id":119379,"name":"Kaneohe","latitude":21.39994,"longitude":-157.79895},{"id":119386,"name":"Kapa‘a","latitude":22.07521,"longitude":-159.31895},{"id":119385,"name":"Kapaau","latitude":20.23389,"longitude":-155.80194},{"id":119388,"name":"Kapolei","latitude":21.33555,"longitude":-158.0582},{"id":119396,"name":"Kauai County","latitude":22.01108,"longitude":-159.70544},{"id":119400,"name":"Kaunakakai","latitude":21.09363,"longitude":-157.02613},{"id":119415,"name":"Kea‘au","latitude":19.62265,"longitude":-155.03744},{"id":119405,"name":"Kealakekua","latitude":19.52083,"longitude":-155.9225},{"id":119427,"name":"Kekaha","latitude":21.96686,"longitude":-159.71186},{"id":119731,"name":"Kēōkea","latitude":20.70711,"longitude":-156.35446},{"id":119732,"name":"Kīhei","latitude":20.76462,"longitude":-156.44578},{"id":119733,"name":"Kīlauea","latitude":22.21208,"longitude":-159.41342},{"id":119697,"name":"Ko Olina","latitude":21.33993,"longitude":-158.12562},{"id":119703,"name":"Koloa","latitude":21.9069,"longitude":-159.46994},{"id":119721,"name":"Kualapu‘u","latitude":21.15306,"longitude":-157.03677},{"id":119722,"name":"Kula","latitude":20.79094,"longitude":-156.32695},{"id":119727,"name":"Kurtistown","latitude":19.60361,"longitude":-155.05722},{"id":120947,"name":"Lā‘ie","latitude":21.64547,"longitude":-157.9225},{"id":119860,"name":"Lahaina","latitude":20.87429,"longitude":-156.67663},{"id":120078,"name":"Lanai City","latitude":20.82757,"longitude":-156.92399},{"id":120221,"name":"Lawai","latitude":21.92159,"longitude":-159.50376},{"id":120339,"name":"Leilani Estates","latitude":19.46972,"longitude":-154.91778},{"id":120483,"name":"Lihue","latitude":21.98121,"longitude":-159.3721},{"id":122530,"name":"Mā‘ili","latitude":21.41629,"longitude":-158.17531},{"id":122528,"name":"Mākaha","latitude":21.46627,"longitude":-158.21037},{"id":122529,"name":"Mākaha Valley","latitude":21.47583,"longitude":-158.19918},{"id":121054,"name":"Makakilo City","latitude":21.34694,"longitude":-158.08583},{"id":121055,"name":"Makawao","latitude":20.85694,"longitude":-156.31306},{"id":121226,"name":"Marine Corps Base Hawaii - MCBH","latitude":21.44336,"longitude":-157.74981},{"id":121419,"name":"Maui County","latitude":20.86774,"longitude":-156.61706},{"id":121422,"name":"Maunawili","latitude":21.37278,"longitude":-157.77056},{"id":121861,"name":"Mililani Town","latitude":21.45,"longitude":-158.00111},{"id":122025,"name":"Mokulēia","latitude":21.57967,"longitude":-158.15313},{"id":122432,"name":"Mountain View","latitude":19.55583,"longitude":-155.10806},{"id":123224,"name":"Nānākuli","latitude":21.39362,"longitude":-158.15429},{"id":122539,"name":"Nanawale Estates","latitude":19.50611,"longitude":-154.91194},{"id":122551,"name":"Napili-Honokowai","latitude":20.97533,"longitude":-156.67826},{"id":123334,"name":"Ocean Pointe","latitude":21.31066,"longitude":-158.03638},{"id":123540,"name":"Orchidlands Estates","latitude":19.56084,"longitude":-155.01527},{"id":124773,"name":"Pāhala","latitude":19.20297,"longitude":-155.4786},{"id":123725,"name":"Paia","latitude":20.90333,"longitude":-156.36944},{"id":124774,"name":"Pāpa‘ikou","latitude":19.78718,"longitude":-155.09326},{"id":123965,"name":"Pearl City","latitude":21.39734,"longitude":-157.97516},{"id":124052,"name":"Pepeekeo","latitude":19.83361,"longitude":-155.10722},{"id":124696,"name":"Princeville","latitude":22.21758,"longitude":-159.47888},{"id":124731,"name":"Puhi","latitude":21.96888,"longitude":-159.40012},{"id":124732,"name":"Pukalani","latitude":20.83667,"longitude":-156.33667},{"id":124747,"name":"Punalu‘u","latitude":21.57045,"longitude":-157.87557},{"id":124752,"name":"Pupukea","latitude":21.65456,"longitude":-158.06065},{"id":125489,"name":"Royal Kunia","latitude":21.39392,"longitude":-158.0267},{"id":126014,"name":"Schofield Barracks","latitude":21.49837,"longitude":-158.06515},{"id":128249,"name":"Village Park","latitude":21.39806,"longitude":-158.03028},{"id":128299,"name":"Volcano","latitude":19.44276,"longitude":-155.23398},{"id":128331,"name":"Wahiawā","latitude":21.50279,"longitude":-158.02464},{"id":128336,"name":"Waialua","latitude":21.57688,"longitude":-158.13154},{"id":128337,"name":"Waianae","latitude":21.43785,"longitude":-158.18555},{"id":128338,"name":"Waihee-Waiehu","latitude":20.93022,"longitude":-156.50458},{"id":128339,"name":"Waikapū","latitude":20.85806,"longitude":-156.50694},{"id":128340,"name":"Waikoloa","latitude":19.93942,"longitude":-155.78931},{"id":128341,"name":"Wailea","latitude":20.68973,"longitude":-156.4419},{"id":128342,"name":"Wailua","latitude":22.05271,"longitude":-159.33781},{"id":128343,"name":"Wailua Homesteads","latitude":22.07244,"longitude":-159.37677},{"id":128344,"name":"Wailuku","latitude":20.89133,"longitude":-156.50604},{"id":128345,"name":"Waimalu","latitude":21.40472,"longitude":-157.94333},{"id":128346,"name":"Waimanalo","latitude":21.34614,"longitude":-157.7238},{"id":128348,"name":"Waimānalo Beach","latitude":21.33407,"longitude":-157.70003},{"id":128347,"name":"Waimea","latitude":20.02323,"longitude":-155.67288},{"id":128349,"name":"Wainaku","latitude":19.74472,"longitude":-155.095},{"id":128350,"name":"Waipahu","latitude":21.38667,"longitude":-158.00917},{"id":128352,"name":"Waipi‘o Acres","latitude":21.46485,"longitude":-158.01331},{"id":128351,"name":"Waipio","latitude":21.41823,"longitude":-157.99906},{"id":129207,"name":"Whitmore Village","latitude":21.51429,"longitude":-158.02464}]