[{"id":65860,"name":"Champasak","latitude":14.89204,"longitude":105.87787},{"id":65868,"name":"Muang Bachiangchaleunsook","latitude":15.24426,"longitude":105.96716},{"id":65869,"name":"Muang Champasak","latitude":14.85704,"longitude":105.75334},{"id":65874,"name":"Muang Không","latitude":14.14696,"longitude":105.95938},{"id":65882,"name":"Muang Mounlapamôk","latitude":14.28922,"longitude":105.56832},{"id":65887,"name":"Muang Pakxé","latitude":15.13139,"longitude":105.81612},{"id":65886,"name":"Muang Pakxong","latitude":15.0981,"longitude":106.43398},{"id":65888,"name":"Muang Pathoumphon","latitude":14.68453,"longitude":106.06357},{"id":65894,"name":"Muang Phônthong","latitude":15.10669,"longitude":105.6489},{"id":65901,"name":"Muang Soukhouma","latitude":14.6256,"longitude":105.6752},{"id":65913,"name":"Muang Xanasômboun","latitude":15.34107,"longitude":105.73703},{"id":65917,"name":"Pakse","latitude":15.12022,"longitude":105.79898},{"id":65919,"name":"Pakxong","latitude":15.18154,"longitude":106.23038}]