[{"id":130196,"name":"Dien Bien Phu","latitude":21.38602,"longitude":103.02301},{"id":130528,"name":"Huyện Điện Biên Đông","latitude":21.25266,"longitude":103.269},{"id":130365,"name":"Huyện Mường Nhé","latitude":22.10353,"longitude":102.58465},{"id":130493,"name":"Huyện Tủa Chùa","latitude":21.95357,"longitude":103.37332},{"id":130478,"name":"Huyện Tuần Giáo","latitude":21.69481,"longitude":103.41758},{"id":130611,"name":"Thị Xã Mưòng Lay","latitude":22.03374,"longitude":103.12331}]