[{"id":107133,"name":"Alpu","latitude":39.76903,"longitude":30.9606},{"id":107339,"name":"Beylikova","latitude":39.68694,"longitude":31.20556},{"id":107378,"name":"Bozan","latitude":39.78806,"longitude":31.10167},{"id":108827,"name":"Çifteler","latitude":39.38306,"longitude":31.03917},{"id":107608,"name":"Eskişehir","latitude":39.77667,"longitude":30.52056},{"id":107748,"name":"Günyüzü İlçesi","latitude":39.3941,"longitude":31.814},{"id":107786,"name":"Han","latitude":39.15917,"longitude":30.86139},{"id":108906,"name":"İnönü","latitude":39.81534,"longitude":30.14549},{"id":108103,"name":"Kırka","latitude":39.27944,"longitude":30.52639},{"id":108138,"name":"Mahmudiye İlçesi","latitude":39.50724,"longitude":30.99247},{"id":108208,"name":"Mihalgazi","latitude":40.02621,"longitude":30.57707},{"id":108210,"name":"Mihalıçcık İlçesi","latitude":39.87564,"longitude":31.50091},{"id":108260,"name":"Odunpazarı","latitude":39.76699,"longitude":30.54113},{"id":108398,"name":"Sarıcakaya İlçesi","latitude":40.04671,"longitude":30.61994},{"id":108446,"name":"Sevinç","latitude":39.78,"longitude":30.68889},{"id":108453,"name":"Seyitgazi","latitude":39.44472,"longitude":30.69472},{"id":108481,"name":"Sivrihisar","latitude":39.45037,"longitude":31.53409},{"id":108566,"name":"Tepebaşı","latitude":39.7843,"longitude":30.50206}]