[{"id":38771,"name":"Hietalahti","latitude":63.0848,"longitude":21.61716},{"id":38792,"name":"Isokyrö","latitude":63.01172,"longitude":22.33332},{"id":38795,"name":"Jakobstad","latitude":63.67486,"longitude":22.70256},{"id":38834,"name":"Kaskinen","latitude":62.38444,"longitude":21.22331},{"id":38869,"name":"Korsholm","latitude":63.11418,"longitude":21.68216},{"id":38870,"name":"Korsnäs","latitude":62.78333,"longitude":21.2},{"id":38875,"name":"Kristinestad","latitude":62.27429,"longitude":21.37596},{"id":38876,"name":"Kronoby","latitude":63.72859,"longitude":23.03387},{"id":38893,"name":"Laihia","latitude":62.97609,"longitude":22.01143},{"id":38902,"name":"Larsmo","latitude":63.75388,"longitude":22.74728},{"id":38927,"name":"Malax","latitude":62.94225,"longitude":21.57311},{"id":38960,"name":"Nykarleby","latitude":63.52277,"longitude":22.53073},{"id":38961,"name":"Oravais","latitude":63.30135,"longitude":22.37821},{"id":38974,"name":"Pedersöre","latitude":63.65,"longitude":22.68333},{"id":39022,"name":"Replot","latitude":63.22882,"longitude":21.41691},{"id":39026,"name":"Ristinummi","latitude":63.09192,"longitude":21.72297},{"id":39072,"name":"Teeriniemi","latitude":63.09705,"longitude":21.6959},{"id":39095,"name":"Vaasa","latitude":63.096,"longitude":21.61577},{"id":39117,"name":"Vähäkyrö","latitude":63.05635,"longitude":22.10584},{"id":39120,"name":"Vörå","latitude":63.13607,"longitude":22.25223}]