[{"id":39132,"name":"Äänekoski","latitude":62.6,"longitude":25.73333},{"id":38760,"name":"Hankasalmi","latitude":62.38333,"longitude":26.43333},{"id":38809,"name":"Jämsä","latitude":61.8642,"longitude":25.19002},{"id":38810,"name":"Jämsänkoski","latitude":61.919,"longitude":25.17011},{"id":38801,"name":"Joutsa","latitude":61.73333,"longitude":26.11667},{"id":38807,"name":"Jyväskylä","latitude":62.24147,"longitude":25.72088},{"id":38823,"name":"Kannonkoski","latitude":62.96667,"longitude":25.25},{"id":38831,"name":"Karstula","latitude":62.86667,"longitude":24.78333},{"id":38849,"name":"Keuruu","latitude":62.26667,"longitude":24.7},{"id":38855,"name":"Kinnula","latitude":63.38333,"longitude":24.95},{"id":38862,"name":"Kivijärvi","latitude":63.11984,"longitude":25.07835},{"id":38866,"name":"Konnevesi","latitude":62.61667,"longitude":26.31667},{"id":38868,"name":"Korpilahti","latitude":62.01667,"longitude":25.55},{"id":38878,"name":"Kuhmoinen","latitude":61.56667,"longitude":25.18333},{"id":38887,"name":"Kyyjärvi","latitude":63.03333,"longitude":24.56667},{"id":38903,"name":"Laukaa","latitude":62.41407,"longitude":25.95194},{"id":38907,"name":"Leivonmäki","latitude":61.91198,"longitude":26.12796},{"id":38921,"name":"Luhanka","latitude":61.79682,"longitude":25.70457},{"id":38939,"name":"Multia","latitude":62.41667,"longitude":24.78333},{"id":38942,"name":"Muurame","latitude":62.13333,"longitude":25.66667},{"id":38982,"name":"Petäjävesi","latitude":62.25,"longitude":25.2},{"id":38985,"name":"Pihtipudas","latitude":63.38333,"longitude":25.56667},{"id":39008,"name":"Pylkönmäki","latitude":62.66667,"longitude":24.8},{"id":39035,"name":"Saarijärvi","latitude":62.70486,"longitude":25.25396},{"id":39066,"name":"Säynätsalo","latitude":62.14025,"longitude":25.76948},{"id":39058,"name":"Sumiainen","latitude":62.65736,"longitude":26.04642},{"id":39059,"name":"Suolahti","latitude":62.56421,"longitude":25.85363},{"id":39079,"name":"Toivakka","latitude":62.1,"longitude":26.08333},{"id":39092,"name":"Uurainen","latitude":62.5,"longitude":25.45},{"id":39110,"name":"Viitasaari","latitude":63.06667,"longitude":25.86667}]