[{"id":105478,"name":"Amphoe Lamae","latitude":9.75567,"longitude":99.04378},{"id":105483,"name":"Amphoe Lang Suan","latitude":9.93386,"longitude":99.05292},{"id":105541,"name":"Amphoe Mueang Chumphon","latitude":10.46077,"longitude":99.10608},{"id":105713,"name":"Amphoe Pathio","latitude":10.81008,"longitude":99.33938},{"id":105731,"name":"Amphoe Phato","latitude":9.81066,"longitude":98.80178},{"id":106204,"name":"Amphoe Sawi","latitude":10.24008,"longitude":99.01865},{"id":106283,"name":"Amphoe Tha Sae","latitude":10.76864,"longitude":99.09878},{"id":106318,"name":"Amphoe Thung Tako","latitude":10.09223,"longitude":99.05337},{"id":106403,"name":"Ban Nam Yuen","latitude":9.87686,"longitude":98.86592},{"id":106484,"name":"Chumphon","latitude":10.4957,"longitude":99.17971},{"id":106553,"name":"Lang Suan","latitude":9.94561,"longitude":99.07847}]