[{"id":19332,"name":"Beijing","latitude":39.9075,"longitude":116.39723},{"id":19370,"name":"Changping","latitude":40.21612,"longitude":116.23471},{"id":19439,"name":"Daxing","latitude":39.74025,"longitude":116.32693},{"id":19499,"name":"Fangshan","latitude":39.68699,"longitude":115.99658},{"id":19817,"name":"Liangxiang","latitude":39.73598,"longitude":116.13295},{"id":19916,"name":"Mentougou","latitude":39.93819,"longitude":116.09307},{"id":20126,"name":"Shunyi","latitude":40.12175,"longitude":116.64783},{"id":20197,"name":"Tongzhou","latitude":39.90395,"longitude":116.66183}]