[{"id":65180,"name":"Anak","latitude":38.51083,"longitude":125.49417},{"id":65203,"name":"Hŭkkyo-ri","latitude":38.79861,"longitude":125.79194},{"id":65200,"name":"Hwangju-ŭp","latitude":38.67028,"longitude":125.77611},{"id":65212,"name":"Koksan","latitude":38.78194,"longitude":126.66639},{"id":65237,"name":"Sariwŏn","latitude":38.50722,"longitude":125.75583},{"id":65240,"name":"Sinmak","latitude":38.41667,"longitude":126.23333},{"id":65243,"name":"Songnim","latitude":38.75417,"longitude":125.645}]