[{"id":8069,"name":"Ceyranbatan","latitude":40.54194,"longitude":49.66073},{"id":8073,"name":"Digah","latitude":40.49257,"longitude":49.87477},{"id":8085,"name":"Gyuzdek","latitude":40.37444,"longitude":49.68194},{"id":8099,"name":"Khirdalan","latitude":40.44808,"longitude":49.75502},{"id":8148,"name":"Qobu","latitude":40.40472,"longitude":49.71306},{"id":8169,"name":"Saray","latitude":40.53299,"longitude":49.71681}]