[{"id":130039,"name":"Altagracia de Orituco","latitude":9.86005,"longitude":-66.38139},{"id":130053,"name":"Calabozo","latitude":8.92416,"longitude":-67.42929},{"id":130150,"name":"San Juan de los Morros","latitude":9.91152,"longitude":-67.35381},{"id":130167,"name":"Valle de La Pascua","latitude":9.21554,"longitude":-66.00734},{"id":130171,"name":"Zaraza","latitude":9.35029,"longitude":-65.32452}]