[{"id":56405,"name":"Kabupaten Fakfak","latitude":-2.92641,"longitude":132.29608},{"id":56435,"name":"Kabupaten Kaimana","latitude":-3.66093,"longitude":133.77451},{"id":56527,"name":"Kabupaten Manokwari","latitude":-0.9,"longitude":133.75},{"id":56528,"name":"Kabupaten Manokwari Selatan","latitude":-1.0798,"longitude":133.96729},{"id":56531,"name":"Kabupaten Maybrat","latitude":-1.2155,"longitude":132.35092},{"id":56608,"name":"Kabupaten Raja Ampat","latitude":-0.5,"longitude":130.0},{"id":56641,"name":"Kabupaten Sorong","latitude":-1.16667,"longitude":131.5},{"id":56642,"name":"Kabupaten Sorong Selatan","latitude":-1.50495,"longitude":132.28638},{"id":56660,"name":"Kabupaten Tambrauw","latitude":-0.60515,"longitude":132.48962},{"id":56677,"name":"Kabupaten Teluk Bintuni","latitude":-1.88037,"longitude":133.33105},{"id":56678,"name":"Kabupaten Teluk Wondama","latitude":-2.7,"longitude":134.5},{"id":56799,"name":"Kota Sorong","latitude":-0.86507,"longitude":131.25152},{"id":56860,"name":"Manokwari","latitude":-0.86291,"longitude":134.06402},{"id":56995,"name":"Sorong","latitude":-0.87956,"longitude":131.26104}]