[{"id":130275,"name":"Huyện Cẩm Khê","latitude":21.40683,"longitude":105.09845},{"id":130530,"name":"Huyện Đoan Hùng","latitude":21.61776,"longitude":105.1611},{"id":130312,"name":"Huyện Hạ Hòa","latitude":21.57763,"longitude":104.99464},{"id":130203,"name":"Huyen Lam Thao","latitude":21.29971,"longitude":105.31119},{"id":130434,"name":"Huyện Thanh Ba","latitude":21.47816,"longitude":105.15881},{"id":130515,"name":"Huyện Yên Lập","latitude":21.35569,"longitude":105.00493},{"id":130603,"name":"Thành Phố Việt Trì","latitude":21.32958,"longitude":105.39217},{"id":130615,"name":"Thị xã Phú Thọ","latitude":21.41664,"longitude":105.23636},{"id":130623,"name":"Việt Trì","latitude":21.32274,"longitude":105.40198}]