[{"id":52055,"name":"Bolnisi","latitude":41.44794,"longitude":44.53838},{"id":52056,"name":"Bolnisis Munitsip’alit’et’i","latitude":41.36667,"longitude":44.51667},{"id":52060,"name":"Didi Lilo","latitude":41.73611,"longitude":44.96472},{"id":52062,"name":"Dmanisis Munitsip’alit’et’i","latitude":41.35,"longitude":44.13333},{"id":52068,"name":"Gardabani","latitude":41.46054,"longitude":45.09283},{"id":52069,"name":"Gardabnis Munitsip’alit’et’i","latitude":41.61667,"longitude":45.0},{"id":52094,"name":"Manglisi","latitude":41.69698,"longitude":44.38448},{"id":52095,"name":"Marneuli","latitude":41.47588,"longitude":44.80895},{"id":52096,"name":"Marneulis Munitsip’alit’et’i","latitude":41.38333,"longitude":44.85},{"id":52101,"name":"Naghvarevi","latitude":41.35272,"longitude":44.76178},{"id":52113,"name":"Rust’avi","latitude":41.54949,"longitude":44.99323},{"id":52140,"name":"T’et’ri Tsqaro","latitude":41.54448,"longitude":44.46153},{"id":52128,"name":"Tetrits’q’alos Munitsip’alit’et’i","latitude":41.6,"longitude":44.5},{"id":52138,"name":"Ts’alk’is Munitsip’alit’et’i","latitude":41.63333,"longitude":43.96667},{"id":52133,"name":"Tsalka","latitude":41.5946,"longitude":44.08909}]