[{"id":111046,"name":"Adrian","latitude":41.89755,"longitude":-84.03717},{"id":111126,"name":"Albion","latitude":42.2431,"longitude":-84.75303},{"id":111133,"name":"Alcona County","latitude":44.71161,"longitude":-83.34366},{"id":111161,"name":"Alger County","latitude":46.4511,"longitude":-86.54755},{"id":111165,"name":"Algonac","latitude":42.61858,"longitude":-82.5323},{"id":111178,"name":"Allegan","latitude":42.5292,"longitude":-85.8553},{"id":111179,"name":"Allegan County","latitude":42.51766,"longitude":-85.91034},{"id":111192,"name":"Allen Park","latitude":42.25754,"longitude":-83.21104},{"id":111194,"name":"Allendale","latitude":42.97225,"longitude":-85.95365},{"id":111209,"name":"Alma","latitude":43.37892,"longitude":-84.65973},{"id":111213,"name":"Almont","latitude":42.92058,"longitude":-83.04493},{"id":111218,"name":"Alpena","latitude":45.06168,"longitude":-83.43275},{"id":111219,"name":"Alpena County","latitude":45.0635,"longitude":-83.46039},{"id":111345,"name":"Ann Arbor","latitude":42.27756,"longitude":-83.74088},{"id":111377,"name":"Antrim County","latitude":45.00737,"longitude":-85.17579},{"id":111445,"name":"Arenac County","latitude":44.04289,"longitude":-83.74725},{"id":111447,"name":"Argentine","latitude":42.79142,"longitude":-83.84634},{"id":111476,"name":"Armada","latitude":42.8442,"longitude":-82.88437},{"id":111578,"name":"Athens","latitude":42.08866,"longitude":-85.23471},{"id":111593,"name":"Atlanta","latitude":45.00473,"longitude":-84.14389},{"id":111616,"name":"Au Sable","latitude":44.41085,"longitude":-83.33219},{"id":111626,"name":"Auburn","latitude":43.60336,"longitude":-84.0697},{"id":111634,"name":"Auburn Hills","latitude":42.68753,"longitude":-83.2341},{"id":111721,"name":"Bad Axe","latitude":43.80196,"longitude":-83.00078},{"id":111755,"name":"Baldwin","latitude":43.90112,"longitude":-85.85173},{"id":111791,"name":"Bangor","latitude":42.31254,"longitude":-86.11308},{"id":111809,"name":"Baraga","latitude":46.77854,"longitude":-88.48902},{"id":111810,"name":"Baraga County","latitude":46.69976,"longitude":-88.35215},{"id":111827,"name":"Barnes Lake-Millers Lake","latitude":43.17956,"longitude":-83.3123},{"id":111856,"name":"Barry County","latitude":42.59503,"longitude":-85.30897},{"id":111896,"name":"Bath","latitude":42.81864,"longitude":-84.44859},{"id":111904,"name":"Battle Creek","latitude":42.3173,"longitude":-85.17816},{"id":111922,"name":"Bay City","latitude":43.59447,"longitude":-83.88886},{"id":111925,"name":"Bay County","latitude":43.72137,"longitude":-83.94184},{"id":111926,"name":"Bay Harbor","latitude":45.36413,"longitude":-85.08208},{"id":112009,"name":"Beaverton","latitude":43.88225,"longitude":-84.48473},{"id":112040,"name":"Beecher","latitude":43.09003,"longitude":-83.6944},{"id":112042,"name":"Beechwood","latitude":42.79697,"longitude":-86.12588},{"id":112053,"name":"Belding","latitude":43.09781,"longitude":-85.22891},{"id":112076,"name":"Bellaire","latitude":44.98028,"longitude":-85.21117},{"id":112105,"name":"Belleville","latitude":42.20476,"longitude":-83.48521},{"id":112112,"name":"Bellevue","latitude":42.44337,"longitude":-85.01805},{"id":112208,"name":"Benton Harbor","latitude":42.11671,"longitude":-86.45419},{"id":112209,"name":"Benton Heights","latitude":42.13115,"longitude":-86.40724},{"id":112212,"name":"Benzie County","latitude":44.61687,"longitude":-86.13899},{"id":112230,"name":"Berkley","latitude":42.50309,"longitude":-83.18354},{"id":112250,"name":"Berrien County","latitude":41.91863,"longitude":-86.42807},{"id":112251,"name":"Berrien Springs","latitude":41.94643,"longitude":-86.3389},{"id":112268,"name":"Bessemer","latitude":46.48134,"longitude":-90.05295},{"id":112295,"name":"Beulah","latitude":44.63194,"longitude":-86.09092},{"id":112305,"name":"Beverly Hills","latitude":42.52392,"longitude":-83.22326},{"id":112330,"name":"Big Rapids","latitude":43.69808,"longitude":-85.48366},{"id":112350,"name":"Bingham Farms","latitude":42.51587,"longitude":-83.27326},{"id":112354,"name":"Birch Run","latitude":43.25086,"longitude":-83.79413},{"id":112359,"name":"Birmingham","latitude":42.5467,"longitude":-83.21132},{"id":112431,"name":"Blissfield","latitude":41.83255,"longitude":-83.86244},{"id":112441,"name":"Bloomfield Hills","latitude":42.58364,"longitude":-83.24549},{"id":112651,"name":"Boyne City","latitude":45.21668,"longitude":-85.01394},{"id":112685,"name":"Branch County","latitude":41.91611,"longitude":-85.05903},{"id":112711,"name":"Breckenridge","latitude":43.40808,"longitude":-84.475},{"id":112762,"name":"Bridgeport","latitude":43.35947,"longitude":-83.88164},{"id":112778,"name":"Bridgman","latitude":41.9431,"longitude":-86.55697},{"id":112789,"name":"Brighton","latitude":42.52948,"longitude":-83.78022},{"id":112845,"name":"Bronson","latitude":41.87227,"longitude":-85.1947},{"id":112871,"name":"Brooklyn","latitude":42.10587,"longitude":-84.24828},{"id":112906,"name":"Brown City","latitude":43.21225,"longitude":-82.98966},{"id":112919,"name":"Brownlee Park","latitude":42.31893,"longitude":-85.14249},{"id":112971,"name":"Buchanan","latitude":41.82727,"longitude":-86.36112},{"id":113002,"name":"Buena Vista","latitude":43.4203,"longitude":-83.89858},{"id":113094,"name":"Burt","latitude":43.23669,"longitude":-83.90636},{"id":113097,"name":"Burton","latitude":42.99947,"longitude":-83.61634},{"id":113147,"name":"Byron Center","latitude":42.81225,"longitude":-85.72281},{"id":113164,"name":"Cadillac","latitude":44.25195,"longitude":-85.40116},{"id":113189,"name":"Caledonia","latitude":42.7892,"longitude":-85.51669},{"id":113210,"name":"Calhoun County","latitude":42.24653,"longitude":-85.00559},{"id":113316,"name":"Canadian Lakes","latitude":43.57919,"longitude":-85.3017},{"id":113345,"name":"Canton","latitude":42.30865,"longitude":-83.48216},{"id":113362,"name":"Capac","latitude":43.01253,"longitude":-82.92799},{"id":113398,"name":"Carleton","latitude":42.05921,"longitude":-83.39077},{"id":113432,"name":"Caro","latitude":43.49073,"longitude":-83.39885},{"id":113471,"name":"Carrollton","latitude":43.45864,"longitude":-83.93025},{"id":113477,"name":"Carson City","latitude":43.17698,"longitude":-84.84639},{"id":113525,"name":"Cass City","latitude":43.60085,"longitude":-83.17467},{"id":113531,"name":"Cass County","latitude":41.9154,"longitude":-85.99346},{"id":113538,"name":"Cassopolis","latitude":41.91171,"longitude":-86.01001},{"id":113623,"name":"Cedar Springs","latitude":43.22336,"longitude":-85.55142},{"id":113644,"name":"Center Line","latitude":42.48504,"longitude":-83.0277},{"id":113696,"name":"Centreville","latitude":41.92338,"longitude":-85.52832},{"id":113774,"name":"Charlevoix","latitude":45.31806,"longitude":-85.2584},{"id":113775,"name":"Charlevoix County","latitude":45.26715,"longitude":-85.24017},{"id":113779,"name":"Charlotte","latitude":42.56365,"longitude":-84.83582},{"id":113821,"name":"Cheboygan","latitude":45.64696,"longitude":-84.47448},{"id":113822,"name":"Cheboygan County","latitude":45.47294,"longitude":-84.49206},{"id":113833,"name":"Chelsea","latitude":42.31807,"longitude":-84.02181},{"id":113872,"name":"Chesaning","latitude":43.18475,"longitude":-84.11497},{"id":113973,"name":"Chippewa County","latitude":46.32818,"longitude":-84.52936},{"id":114102,"name":"Clare","latitude":43.81947,"longitude":-84.76863},{"id":114103,"name":"Clare County","latitude":43.98787,"longitude":-84.84784},{"id":114149,"name":"Clarkston","latitude":42.73586,"longitude":-83.41883},{"id":114163,"name":"Clawson","latitude":42.53337,"longitude":-83.14632},{"id":114282,"name":"Clinton","latitude":42.07199,"longitude":-83.97161},{"id":114294,"name":"Clinton County","latitude":42.94365,"longitude":-84.60152},{"id":114297,"name":"Clinton Township","latitude":42.58698,"longitude":-82.91992},{"id":114302,"name":"Clio","latitude":43.17753,"longitude":-83.73413},{"id":114394,"name":"Coldwater","latitude":41.94033,"longitude":-85.00052},{"id":114399,"name":"Coleman","latitude":43.75669,"longitude":-84.58584},{"id":114443,"name":"Coloma","latitude":42.18615,"longitude":-86.30836},{"id":114444,"name":"Colon","latitude":41.95838,"longitude":-85.32498},{"id":114530,"name":"Comstock Northwest","latitude":42.32182,"longitude":-85.51759},{"id":114531,"name":"Comstock Park","latitude":43.03864,"longitude":-85.67003},{"id":114539,"name":"Concord","latitude":42.17782,"longitude":-84.64302},{"id":114573,"name":"Constantine","latitude":41.84116,"longitude":-85.6686},{"id":114608,"name":"Coopersville","latitude":43.06391,"longitude":-85.93477},{"id":114679,"name":"Corunna","latitude":42.98197,"longitude":-84.11775},{"id":114781,"name":"Crawford County","latitude":44.68361,"longitude":-84.6103},{"id":114857,"name":"Croswell","latitude":43.27558,"longitude":-82.62104},{"id":114877,"name":"Crystal Falls","latitude":46.09801,"longitude":-88.33402},{"id":114950,"name":"Cutlerville","latitude":42.84086,"longitude":-85.66364},{"id":115078,"name":"Davison","latitude":43.03475,"longitude":-83.51801},{"id":115145,"name":"Dearborn","latitude":42.32226,"longitude":-83.17631},{"id":115147,"name":"Dearborn Heights","latitude":42.33698,"longitude":-83.27326},{"id":115157,"name":"Decatur","latitude":42.1081,"longitude":-85.97446},{"id":115225,"name":"Delta County","latitude":45.79162,"longitude":-86.8706},{"id":115291,"name":"Detroit","latitude":42.33143,"longitude":-83.04575},{"id":115292,"name":"Detroit Beach","latitude":41.93116,"longitude":-83.32688},{"id":115140,"name":"DeWitt","latitude":42.84226,"longitude":-84.56915},{"id":115309,"name":"Dexter","latitude":42.33834,"longitude":-83.88954},{"id":115329,"name":"Dickinson County","latitude":46.00935,"longitude":-87.87021},{"id":115350,"name":"Dimondale","latitude":42.64559,"longitude":-84.64887},{"id":115388,"name":"Dollar Bay","latitude":47.11965,"longitude":-88.51151},{"id":115422,"name":"Douglas","latitude":42.64336,"longitude":-86.20059},{"id":115458,"name":"Dowagiac","latitude":41.98421,"longitude":-86.10862},{"id":115529,"name":"Dundee","latitude":41.95727,"longitude":-83.65966},{"id":115563,"name":"Durand","latitude":42.91198,"longitude":-83.98468},{"id":115610,"name":"Eagle River","latitude":47.41381,"longitude":-88.29566},{"id":115671,"name":"East Grand Rapids","latitude":42.94114,"longitude":-85.61003},{"id":115697,"name":"East Jordan","latitude":45.15806,"longitude":-85.12423},{"id":115703,"name":"East Lansing","latitude":42.73698,"longitude":-84.48387},{"id":115764,"name":"East Tawas","latitude":44.27946,"longitude":-83.49025},{"id":115794,"name":"Eastpointe","latitude":42.46837,"longitude":-82.95547},{"id":115800,"name":"Eastwood","latitude":42.3031,"longitude":-85.55028},{"id":115803,"name":"Eaton County","latitude":42.59607,"longitude":-84.83831},{"id":115804,"name":"Eaton Rapids","latitude":42.5092,"longitude":-84.65581},{"id":115818,"name":"Ecorse","latitude":42.24448,"longitude":-83.14576},{"id":115846,"name":"Edgemont Park","latitude":42.7467,"longitude":-84.59359},{"id":115882,"name":"Edmore","latitude":43.40809,"longitude":-85.03863},{"id":115892,"name":"Edwardsburg","latitude":41.7956,"longitude":-86.08084},{"id":115991,"name":"Elk Rapids","latitude":44.89556,"longitude":-85.41646},{"id":116103,"name":"Emmet County","latitude":45.58754,"longitude":-84.98147},{"id":116181,"name":"Escanaba","latitude":45.74525,"longitude":-87.06458},{"id":116201,"name":"Essexville","latitude":43.6153,"longitude":-83.84192},{"id":116256,"name":"Evart","latitude":43.90058,"longitude":-85.2581},{"id":116288,"name":"Fair Plain","latitude":42.08699,"longitude":-86.45586},{"id":116417,"name":"Farmington","latitude":42.46448,"longitude":-83.37632},{"id":116423,"name":"Farmington Hills","latitude":42.48531,"longitude":-83.37716},{"id":116473,"name":"Fennville","latitude":42.59392,"longitude":-86.1017},{"id":116475,"name":"Fenton","latitude":42.79781,"longitude":-83.70495},{"id":116487,"name":"Ferndale","latitude":42.46059,"longitude":-83.13465},{"id":116500,"name":"Ferrysburg","latitude":43.08446,"longitude":-86.22033},{"id":116552,"name":"Flat Rock","latitude":42.09643,"longitude":-83.29187},{"id":116566,"name":"Flint","latitude":43.01253,"longitude":-83.68746},{"id":116613,"name":"Flushing","latitude":43.06308,"longitude":-83.85107},{"id":116657,"name":"Forest Hills","latitude":42.95947,"longitude":-85.48975},{"id":116795,"name":"Fowler","latitude":43.0017,"longitude":-84.73972},{"id":116798,"name":"Fowlerville","latitude":42.66059,"longitude":-84.07301},{"id":116817,"name":"Frankenmuth","latitude":43.33169,"longitude":-83.73802},{"id":116821,"name":"Frankfort","latitude":44.63361,"longitude":-86.23454},{"id":116836,"name":"Franklin","latitude":42.52226,"longitude":-83.30604},{"id":116880,"name":"Fraser","latitude":42.5392,"longitude":-82.94937},{"id":116905,"name":"Freeland","latitude":43.52503,"longitude":-84.12276},{"id":116921,"name":"Fremont","latitude":43.46752,"longitude":-85.942},{"id":116974,"name":"Fruitport","latitude":43.13196,"longitude":-86.15478},{"id":117028,"name":"Galesburg","latitude":42.28865,"longitude":-85.41806},{"id":117057,"name":"Garden City","latitude":42.32559,"longitude":-83.33104},{"id":117127,"name":"Gaylord","latitude":45.02751,"longitude":-84.67475},{"id":117135,"name":"Genesee County","latitude":43.02172,"longitude":-83.70671},{"id":117185,"name":"Gibraltar","latitude":42.09504,"longitude":-83.18965},{"id":117237,"name":"Gladstone","latitude":45.85274,"longitude":-87.0218},{"id":117240,"name":"Gladwin","latitude":43.98085,"longitude":-84.4864},{"id":117241,"name":"Gladwin County","latitude":43.99067,"longitude":-84.38825},{"id":117337,"name":"Gogebic County","latitude":46.49552,"longitude":-89.79555},{"id":117389,"name":"Goodrich","latitude":42.91697,"longitude":-83.50634},{"id":117450,"name":"Grand Blanc","latitude":42.92753,"longitude":-83.62995},{"id":117460,"name":"Grand Haven","latitude":43.06307,"longitude":-86.22839},{"id":117466,"name":"Grand Ledge","latitude":42.75337,"longitude":-84.74638},{"id":117473,"name":"Grand Rapids","latitude":42.96336,"longitude":-85.66809},{"id":117477,"name":"Grand Traverse County","latitude":44.71624,"longitude":-85.5522},{"id":117483,"name":"Grandville","latitude":42.90975,"longitude":-85.76309},{"id":117542,"name":"Grass Lake","latitude":42.25087,"longitude":-84.21301},{"id":117544,"name":"Gratiot County","latitude":43.29273,"longitude":-84.60491},{"id":117556,"name":"Grayling","latitude":44.6614,"longitude":-84.71475},{"id":117690,"name":"Greenville","latitude":43.17753,"longitude":-85.2528},{"id":117719,"name":"Greilickville","latitude":44.78306,"longitude":-85.63869},{"id":117743,"name":"Grosse Ile","latitude":42.12921,"longitude":-83.14437},{"id":117744,"name":"Grosse Pointe","latitude":42.38615,"longitude":-82.91186},{"id":117745,"name":"Grosse Pointe Farms","latitude":42.4092,"longitude":-82.89186},{"id":117746,"name":"Grosse Pointe Park","latitude":42.37587,"longitude":-82.93742},{"id":117747,"name":"Grosse Pointe Shores","latitude":42.4367,"longitude":-82.87686},{"id":117748,"name":"Grosse Pointe Woods","latitude":42.44365,"longitude":-82.90686},{"id":117820,"name":"Gwinn","latitude":46.28106,"longitude":-87.44097},{"id":117940,"name":"Hamtramck","latitude":42.39282,"longitude":-83.04964},{"id":117949,"name":"Hancock","latitude":47.12687,"longitude":-88.58096},{"id":117988,"name":"Harbor Beach","latitude":43.84474,"longitude":-82.65132},{"id":117991,"name":"Harbor Springs","latitude":45.43168,"longitude":-84.992},{"id":118035,"name":"Harper Woods","latitude":42.43309,"longitude":-82.92408},{"id":118057,"name":"Harrison","latitude":44.01919,"longitude":-84.79947},{"id":118074,"name":"Harrisville","latitude":44.6564,"longitude":-83.29469},{"id":118080,"name":"Hart","latitude":43.69834,"longitude":-86.36397},{"id":118088,"name":"Hartford","latitude":42.20671,"longitude":-86.16669},{"id":118113,"name":"Harvey","latitude":46.49466,"longitude":-87.35431},{"id":118129,"name":"Haslett","latitude":42.74698,"longitude":-84.40108},{"id":118131,"name":"Hastings","latitude":42.64587,"longitude":-85.29084},{"id":118206,"name":"Hazel Park","latitude":42.46254,"longitude":-83.10409},{"id":118265,"name":"Hemlock","latitude":43.41475,"longitude":-84.23054},{"id":118412,"name":"Highland Park","latitude":42.40559,"longitude":-83.09687},{"id":118460,"name":"Hillsdale","latitude":41.92005,"longitude":-84.63051},{"id":118462,"name":"Hillsdale County","latitude":41.88777,"longitude":-84.59293},{"id":118539,"name":"Holland","latitude":42.78752,"longitude":-86.10893},{"id":118555,"name":"Holly","latitude":42.79197,"longitude":-83.62773},{"id":118575,"name":"Holt","latitude":42.64059,"longitude":-84.51525},{"id":118595,"name":"Homer","latitude":42.14588,"longitude":-84.80886},{"id":118689,"name":"Houghton","latitude":47.12187,"longitude":-88.56901},{"id":118691,"name":"Houghton County","latitude":46.99155,"longitude":-88.65206},{"id":118692,"name":"Houghton Lake","latitude":44.31474,"longitude":-84.76475},{"id":118711,"name":"Howard City","latitude":43.39558,"longitude":-85.46782},{"id":118722,"name":"Howell","latitude":42.60726,"longitude":-83.9294},{"id":118733,"name":"Hubbard Lake","latitude":44.75973,"longitude":-83.54442},{"id":118741,"name":"Hudson","latitude":41.85505,"longitude":-84.35384},{"id":118753,"name":"Hudsonville","latitude":42.87086,"longitude":-85.86504},{"id":118809,"name":"Huntington Woods","latitude":42.48059,"longitude":-83.16687},{"id":118826,"name":"Huron County","latitude":43.91007,"longitude":-82.85551},{"id":118879,"name":"Imlay City","latitude":43.02475,"longitude":-83.07772},{"id":118912,"name":"Indian River","latitude":45.41251,"longitude":-84.61254},{"id":118935,"name":"Ingham County","latitude":42.5971,"longitude":-84.37354},{"id":118943,"name":"Inkster","latitude":42.2942,"longitude":-83.30993},{"id":118971,"name":"Ionia","latitude":42.98725,"longitude":-85.07112},{"id":118972,"name":"Ionia County","latitude":42.94509,"longitude":-85.0746},{"id":118973,"name":"Iosco County","latitude":44.30125,"longitude":-83.51395},{"id":118989,"name":"Iron County","latitude":46.20869,"longitude":-88.53053},{"id":118992,"name":"Iron Mountain","latitude":45.82023,"longitude":-88.06596},{"id":118993,"name":"Iron River","latitude":46.09273,"longitude":-88.64235},{"id":118999,"name":"Ironwood","latitude":46.45467,"longitude":-90.17101},{"id":119016,"name":"Isabella County","latitude":43.6406,"longitude":-84.8468},{"id":119020,"name":"Ishpeming","latitude":46.48855,"longitude":-87.66764},{"id":119043,"name":"Ithaca","latitude":43.2917,"longitude":-84.6075},{"id":119071,"name":"Jackson","latitude":42.24587,"longitude":-84.40135},{"id":119091,"name":"Jackson County","latitude":42.24849,"longitude":-84.42344},{"id":119213,"name":"Jenison","latitude":42.90725,"longitude":-85.79198},{"id":119312,"name":"Jonesville","latitude":41.98421,"longitude":-84.6619},{"id":119347,"name":"K. I. Sawyer Air Force Base","latitude":46.34651,"longitude":-87.38632},{"id":119360,"name":"Kalamazoo","latitude":42.29171,"longitude":-85.58723},{"id":119361,"name":"Kalamazoo County","latitude":42.24545,"longitude":-85.53118},{"id":119366,"name":"Kalkaska","latitude":44.73417,"longitude":-85.17589},{"id":119367,"name":"Kalkaska County","latitude":44.68466,"longitude":-85.09023},{"id":119418,"name":"Keego Harbor","latitude":42.60809,"longitude":-83.34382},{"id":119489,"name":"Kent City","latitude":43.22002,"longitude":-85.75115},{"id":119492,"name":"Kent County","latitude":43.03216,"longitude":-85.5493},{"id":119501,"name":"Kentwood","latitude":42.86947,"longitude":-85.64475},{"id":119536,"name":"Keweenaw County","latitude":47.28296,"longitude":-88.21198},{"id":119562,"name":"Kilmanagh","latitude":43.75613,"longitude":-83.3569},{"id":119612,"name":"Kingsford","latitude":45.79496,"longitude":-88.07207},{"id":119618,"name":"Kingsley","latitude":44.58473,"longitude":-85.5359},{"id":119734,"name":"L'Anse","latitude":46.7566,"longitude":-88.45291},{"id":119861,"name":"Laingsburg","latitude":42.89031,"longitude":-84.35136},{"id":119884,"name":"Lake City","latitude":44.33529,"longitude":-85.21505},{"id":119893,"name":"Lake County","latitude":43.99001,"longitude":-85.8017},{"id":119908,"name":"Lake Fenton","latitude":42.84614,"longitude":-83.70773},{"id":119922,"name":"Lake Isabella","latitude":43.64364,"longitude":-84.99725},{"id":119941,"name":"Lake Michigan Beach","latitude":42.22087,"longitude":-86.36947},{"id":119953,"name":"Lake Odessa","latitude":42.78476,"longitude":-85.13834},{"id":119954,"name":"Lake Orion","latitude":42.78448,"longitude":-83.23966},{"id":120038,"name":"Lakeview","latitude":43.44642,"longitude":-85.2742},{"id":120053,"name":"Lakewood Club","latitude":43.37112,"longitude":-86.26034},{"id":120068,"name":"Lambertville","latitude":41.76588,"longitude":-83.62799},{"id":120127,"name":"Lansing","latitude":42.73253,"longitude":-84.55553},{"id":120131,"name":"Lapeer","latitude":43.05142,"longitude":-83.31883},{"id":120132,"name":"Lapeer County","latitude":43.09015,"longitude":-83.22178},{"id":120171,"name":"Lathrup Village","latitude":42.49642,"longitude":-83.22271},{"id":120211,"name":"Laurium","latitude":47.23743,"longitude":-88.44317},{"id":120251,"name":"Lawton","latitude":42.16726,"longitude":-85.84695},{"id":120322,"name":"Leelanau County","latitude":45.15177,"longitude":-86.0385},{"id":120351,"name":"Leland","latitude":45.02305,"longitude":-85.75981},{"id":120368,"name":"Lenawee County","latitude":41.89508,"longitude":-84.06636},{"id":120396,"name":"Leslie","latitude":42.45143,"longitude":-84.43247},{"id":120403,"name":"Level Park-Oak Park","latitude":42.36418,"longitude":-85.2665},{"id":120424,"name":"Lewiston","latitude":44.8839,"longitude":-84.30557},{"id":120451,"name":"Lexington","latitude":43.26808,"longitude":-82.53076},{"id":120541,"name":"Lincoln Park","latitude":42.25059,"longitude":-83.17854},{"id":120563,"name":"Linden","latitude":42.81447,"longitude":-83.78245},{"id":120606,"name":"Litchfield","latitude":42.04393,"longitude":-84.75746},{"id":120657,"name":"Livingston County","latitude":42.60292,"longitude":-83.91153},{"id":120662,"name":"Livonia","latitude":42.36837,"longitude":-83.35271},{"id":120837,"name":"Lowell","latitude":42.93364,"longitude":-85.34196},{"id":120863,"name":"Luce County","latitude":46.36778,"longitude":-85.50934},{"id":120868,"name":"Ludington","latitude":43.95528,"longitude":-86.45258},{"id":120885,"name":"Luna Pier","latitude":41.80699,"longitude":-83.44243},{"id":120959,"name":"Mackinac County","latitude":45.87184,"longitude":-84.76227},{"id":120962,"name":"Macomb County","latitude":42.67279,"longitude":-82.91016},{"id":121021,"name":"Madison Heights","latitude":42.48587,"longitude":-83.1052},{"id":121087,"name":"Mancelona","latitude":44.90223,"longitude":-85.06088},{"id":121096,"name":"Manchester","latitude":42.15032,"longitude":-84.03772},{"id":121121,"name":"Manistee","latitude":44.24445,"longitude":-86.32425},{"id":121122,"name":"Manistee County","latitude":44.23831,"longitude":-86.28799},{"id":121123,"name":"Manistique","latitude":45.95775,"longitude":-86.24625},{"id":121125,"name":"Manitou Beach-Devils Lake","latitude":41.97565,"longitude":-84.28616},{"id":121158,"name":"Manton","latitude":44.41084,"longitude":-85.39894},{"id":121194,"name":"Marcellus","latitude":42.02588,"longitude":-85.81556},{"id":121225,"name":"Marine City","latitude":42.71948,"longitude":-82.49213},{"id":121282,"name":"Marlette","latitude":43.32697,"longitude":-83.08022},{"id":121292,"name":"Marquette","latitude":46.54354,"longitude":-87.39542},{"id":121293,"name":"Marquette County","latitude":46.66295,"longitude":-87.5735},{"id":121307,"name":"Marshall","latitude":42.27226,"longitude":-84.96331},{"id":121358,"name":"Marysville","latitude":42.91253,"longitude":-82.48686},{"id":121373,"name":"Mason","latitude":42.5792,"longitude":-84.44358},{"id":121381,"name":"Mason County","latitude":43.95625,"longitude":-86.42258},{"id":121410,"name":"Mattawan","latitude":42.20948,"longitude":-85.78445},{"id":121589,"name":"Mecosta County","latitude":43.6408,"longitude":-85.32462},{"id":121637,"name":"Melvindale","latitude":42.28254,"longitude":-83.1752},{"id":121640,"name":"Memphis","latitude":42.89642,"longitude":-82.76881},{"id":121662,"name":"Menominee","latitude":45.10776,"longitude":-87.61427},{"id":121663,"name":"Menominee County","latitude":45.52514,"longitude":-87.50969},{"id":121759,"name":"Michigan Center","latitude":42.23309,"longitude":-84.32718},{"id":121795,"name":"Middleville","latitude":42.71309,"longitude":-85.46196},{"id":121798,"name":"Midland","latitude":43.61558,"longitude":-84.24721},{"id":121804,"name":"Midland County","latitude":43.64686,"longitude":-84.38811},{"id":121838,"name":"Milan","latitude":42.08532,"longitude":-83.68244},{"id":121852,"name":"Milford","latitude":42.59364,"longitude":-83.59939},{"id":121892,"name":"Millington","latitude":43.28141,"longitude":-83.52968},{"id":121970,"name":"Mio","latitude":44.65224,"longitude":-84.12973},{"id":121978,"name":"Missaukee County","latitude":44.3373,"longitude":-85.09467},{"id":122061,"name":"Monroe","latitude":41.91643,"longitude":-83.39771},{"id":122079,"name":"Monroe County","latitude":41.9214,"longitude":-83.49426},{"id":122097,"name":"Montague","latitude":43.41668,"longitude":-86.35701},{"id":122104,"name":"Montcalm County","latitude":43.31096,"longitude":-85.15252},{"id":122172,"name":"Montmorency County","latitude":45.02755,"longitude":-84.12721},{"id":122181,"name":"Montrose","latitude":43.17669,"longitude":-83.89274},{"id":122229,"name":"Morenci","latitude":41.71949,"longitude":-84.218},{"id":122339,"name":"Mount Clemens","latitude":42.59726,"longitude":-82.87798},{"id":122364,"name":"Mount Morris","latitude":43.11864,"longitude":-83.69496},{"id":122379,"name":"Mount Pleasant","latitude":43.59781,"longitude":-84.76751},{"id":122474,"name":"Munising","latitude":46.4112,"longitude":-86.64926},{"id":122509,"name":"Muskegon","latitude":43.23418,"longitude":-86.24839},{"id":122510,"name":"Muskegon County","latitude":43.21919,"longitude":-86.21246},{"id":122511,"name":"Muskegon Heights","latitude":43.20113,"longitude":-86.23895},{"id":122558,"name":"Napoleon","latitude":42.16059,"longitude":-84.24606},{"id":122578,"name":"Nashville","latitude":42.60281,"longitude":-85.09305},{"id":122617,"name":"Negaunee","latitude":46.4991,"longitude":-87.6118},{"id":122660,"name":"New Baltimore","latitude":42.68114,"longitude":-82.73686},{"id":122678,"name":"New Buffalo","latitude":41.79393,"longitude":-86.74392},{"id":122718,"name":"New Haven","latitude":42.72948,"longitude":-82.80131},{"id":122806,"name":"Newaygo","latitude":43.41974,"longitude":-85.80005},{"id":122807,"name":"Newaygo County","latitude":43.55417,"longitude":-85.80091},{"id":122812,"name":"Newberry","latitude":46.355,"longitude":-85.50956},{"id":122901,"name":"Niles","latitude":41.82977,"longitude":-86.25418},{"id":122993,"name":"North Branch","latitude":43.22947,"longitude":-83.19661},{"id":123069,"name":"North Muskegon","latitude":43.25613,"longitude":-86.26756},{"id":123170,"name":"Northview","latitude":43.04558,"longitude":-85.60059},{"id":123171,"name":"Northville","latitude":42.43115,"longitude":-83.48327},{"id":123187,"name":"Norton Shores","latitude":43.1689,"longitude":-86.26395},{"id":123192,"name":"Norway","latitude":45.7869,"longitude":-87.90374},{"id":123208,"name":"Novi","latitude":42.48059,"longitude":-83.47549},{"id":123256,"name":"Oak Park","latitude":42.45948,"longitude":-83.18271},{"id":123295,"name":"Oakland County","latitude":42.66041,"longitude":-83.3858},{"id":123340,"name":"Oceana County","latitude":43.68178,"longitude":-86.31683},{"id":123373,"name":"Ogemaw County","latitude":44.33494,"longitude":-84.12641},{"id":123402,"name":"Okemos","latitude":42.72226,"longitude":-84.42747},{"id":123447,"name":"Olivet","latitude":42.44143,"longitude":-84.92415},{"id":123489,"name":"Ontonagon","latitude":46.87105,"longitude":-89.31403},{"id":123490,"name":"Ontonagon County","latitude":46.77749,"longitude":-89.30511},{"id":123536,"name":"Orchard Lake","latitude":42.58309,"longitude":-83.35938},{"id":123583,"name":"Ortonville","latitude":42.85225,"longitude":-83.443},{"id":123605,"name":"Osceola County","latitude":43.98987,"longitude":-85.32528},{"id":123607,"name":"Oscoda County","latitude":44.68175,"longitude":-84.12974},{"id":123632,"name":"Otsego","latitude":42.46059,"longitude":-85.69641},{"id":123634,"name":"Otsego County","latitude":45.02144,"longitude":-84.59898},{"id":123640,"name":"Ottawa County","latitude":43.00264,"longitude":-86.1795},{"id":123655,"name":"Ovid","latitude":43.00586,"longitude":-84.37164},{"id":123672,"name":"Owosso","latitude":42.9978,"longitude":-84.17664},{"id":123685,"name":"Oxford","latitude":42.82475,"longitude":-83.26466},{"id":123827,"name":"Parchment","latitude":42.3281,"longitude":-85.56973},{"id":123927,"name":"Paw Paw","latitude":42.21782,"longitude":-85.89112},{"id":123928,"name":"Paw Paw Lake","latitude":42.21226,"longitude":-86.27197},{"id":123964,"name":"Pearl Beach","latitude":42.6267,"longitude":-82.59769},{"id":124071,"name":"Perry","latitude":42.82642,"longitude":-84.21941},{"id":124107,"name":"Petersburg","latitude":41.90116,"longitude":-83.71494},{"id":124111,"name":"Petoskey","latitude":45.37334,"longitude":-84.95533},{"id":124182,"name":"Pigeon","latitude":43.83002,"longitude":-83.26996},{"id":124209,"name":"Pinckney","latitude":42.457,"longitude":-83.94791},{"id":124211,"name":"Pinconning","latitude":43.85363,"longitude":-83.96499},{"id":124336,"name":"Plainwell","latitude":42.44004,"longitude":-85.6489},{"id":124376,"name":"Pleasant Ridge","latitude":42.47115,"longitude":-83.14215},{"id":124403,"name":"Plymouth","latitude":42.37143,"longitude":-83.47021},{"id":124474,"name":"Pontiac","latitude":42.63892,"longitude":-83.29105},{"id":124511,"name":"Port Huron","latitude":42.97086,"longitude":-82.42491},{"id":124544,"name":"Portage","latitude":42.20115,"longitude":-85.58},{"id":124561,"name":"Portland","latitude":42.8692,"longitude":-84.90305},{"id":124596,"name":"Potterville","latitude":42.6292,"longitude":-84.73887},{"id":124650,"name":"Presque Isle County","latitude":45.39845,"longitude":-83.84354},{"id":124723,"name":"Prudenville","latitude":44.29835,"longitude":-84.65197},{"id":124798,"name":"Quincy","latitude":41.94421,"longitude":-84.88385},{"id":124803,"name":"Quinnesec","latitude":45.80635,"longitude":-87.98846},{"id":124893,"name":"Rapid City","latitude":44.83445,"longitude":-85.28256},{"id":124907,"name":"Ravenna","latitude":43.18947,"longitude":-85.93699},{"id":124930,"name":"Reading","latitude":41.83949,"longitude":-84.74801},{"id":124969,"name":"Redford","latitude":42.38337,"longitude":-83.2966},{"id":124991,"name":"Reed City","latitude":43.87502,"longitude":-85.51005},{"id":124997,"name":"Reese","latitude":43.45058,"longitude":-83.69635},{"id":125092,"name":"Richmond","latitude":42.8092,"longitude":-82.75576},{"id":125187,"name":"River Rouge","latitude":42.27337,"longitude":-83.13437},{"id":125219,"name":"Riverview","latitude":42.17421,"longitude":-83.17937},{"id":125264,"name":"Rochester","latitude":42.68059,"longitude":-83.13382},{"id":125271,"name":"Rochester Hills","latitude":42.65837,"longitude":-83.14993},{"id":125301,"name":"Rockford","latitude":43.12003,"longitude":-85.56003},{"id":125333,"name":"Rockwood","latitude":42.07088,"longitude":-83.2466},{"id":125351,"name":"Rogers City","latitude":45.4214,"longitude":-83.81833},{"id":125381,"name":"Romeo","latitude":42.80281,"longitude":-83.01299},{"id":125385,"name":"Romulus","latitude":42.22226,"longitude":-83.3966},{"id":125396,"name":"Roosevelt Park","latitude":43.1964,"longitude":-86.27228},{"id":125401,"name":"Roscommon","latitude":44.49835,"longitude":-84.59197},{"id":125402,"name":"Roscommon County","latitude":44.33561,"longitude":-84.6116},{"id":125439,"name":"Roseville","latitude":42.49726,"longitude":-82.93714},{"id":125490,"name":"Royal Oak","latitude":42.48948,"longitude":-83.14465},{"id":125588,"name":"Saginaw","latitude":43.41947,"longitude":-83.95081},{"id":125589,"name":"Saginaw County","latitude":43.33503,"longitude":-84.05319},{"id":125590,"name":"Saginaw Township North","latitude":43.46004,"longitude":-84.00674},{"id":125614,"name":"Saint Charles","latitude":43.29697,"longitude":-84.14053},{"id":125619,"name":"Saint Clair","latitude":42.82087,"longitude":-82.48602},{"id":125624,"name":"Saint Clair County","latitude":42.93112,"longitude":-82.66437},{"id":125625,"name":"Saint Clair Shores","latitude":42.49698,"longitude":-82.88881},{"id":125646,"name":"Saint Helen","latitude":44.36363,"longitude":-84.41029},{"id":125650,"name":"Saint Ignace","latitude":45.86614,"longitude":-84.72751},{"id":125665,"name":"Saint Johns","latitude":43.00114,"longitude":-84.55915},{"id":125673,"name":"Saint Joseph","latitude":42.10976,"longitude":-86.48002},{"id":125676,"name":"Saint Joseph County","latitude":41.91441,"longitude":-85.52774},{"id":125680,"name":"Saint Louis","latitude":43.40836,"longitude":-84.60667},{"id":125748,"name":"Saline","latitude":42.16671,"longitude":-83.78161},{"id":125859,"name":"Sand Lake","latitude":44.31918,"longitude":-83.6847},{"id":125875,"name":"Sandusky","latitude":43.4203,"longitude":-82.82966},{"id":125895,"name":"Sanilac County","latitude":43.44331,"longitude":-82.64575},{"id":125935,"name":"Saranac","latitude":42.92948,"longitude":-85.21307},{"id":125968,"name":"Sault Ste. Marie","latitude":46.4953,"longitude":-84.34532},{"id":126017,"name":"Schoolcraft","latitude":42.11421,"longitude":-85.63778},{"id":126018,"name":"Schoolcraft County","latitude":46.04249,"longitude":-86.1773},{"id":126066,"name":"Scottville","latitude":43.95473,"longitude":-86.28008},{"id":126109,"name":"Sebewaing","latitude":43.73224,"longitude":-83.45107},{"id":126270,"name":"Shelby","latitude":43.60862,"longitude":-86.36396},{"id":126310,"name":"Shepherd","latitude":43.52447,"longitude":-84.69473},{"id":126345,"name":"Shiawassee County","latitude":42.95373,"longitude":-84.14673},{"id":126346,"name":"Shields","latitude":43.4153,"longitude":-84.05637},{"id":126375,"name":"Shorewood-Tower Hills-Harbert","latitude":41.88169,"longitude":-86.61409},{"id":126480,"name":"Skidway Lake","latitude":44.18335,"longitude":-84.03527},{"id":126664,"name":"South Gull Lake","latitude":42.38754,"longitude":-85.39667},{"id":126667,"name":"South Haven","latitude":42.40309,"longitude":-86.27364},{"id":126690,"name":"South Lyon","latitude":42.46059,"longitude":-83.65161},{"id":126694,"name":"South Monroe","latitude":41.89588,"longitude":-83.41771},{"id":126718,"name":"South Rockwood","latitude":42.06393,"longitude":-83.26104},{"id":126772,"name":"Southfield","latitude":42.47337,"longitude":-83.22187},{"id":126775,"name":"Southgate","latitude":42.21393,"longitude":-83.19381},{"id":126811,"name":"Sparta","latitude":43.16086,"longitude":-85.71004},{"id":126850,"name":"Spring Arbor","latitude":42.20504,"longitude":-84.55274},{"id":126866,"name":"Spring Lake","latitude":43.07696,"longitude":-86.197},{"id":126898,"name":"Springfield","latitude":42.32643,"longitude":-85.23916},{"id":126942,"name":"Stambaugh Iron River","latitude":46.08107,"longitude":-88.62708},{"id":126950,"name":"Standish","latitude":43.98308,"longitude":-83.95888},{"id":126967,"name":"Stanton","latitude":43.29253,"longitude":-85.08141},{"id":127034,"name":"Sterling Heights","latitude":42.58031,"longitude":-83.0302},{"id":127048,"name":"Stevensville","latitude":42.01449,"longitude":-86.51947},{"id":127069,"name":"Stockbridge","latitude":42.45115,"longitude":-84.18051},{"id":127099,"name":"Stony Point","latitude":41.94143,"longitude":-83.26493},{"id":127151,"name":"Sturgis","latitude":41.79922,"longitude":-85.41915},{"id":127332,"name":"Swartz Creek","latitude":42.95725,"longitude":-83.83051},{"id":127357,"name":"Sylvan Lake","latitude":42.61142,"longitude":-83.32855},{"id":127444,"name":"Tawas City","latitude":44.26946,"longitude":-83.5147},{"id":127447,"name":"Taylor","latitude":42.24087,"longitude":-83.26965},{"id":127479,"name":"Tecumseh","latitude":42.00393,"longitude":-83.94494},{"id":127496,"name":"Temperance","latitude":41.77921,"longitude":-83.56882},{"id":127615,"name":"Three Oaks","latitude":41.79865,"longitude":-86.61058},{"id":127618,"name":"Three Rivers","latitude":41.94394,"longitude":-85.63249},{"id":127784,"name":"Traverse City","latitude":44.76306,"longitude":-85.62063},{"id":127806,"name":"Trenton","latitude":42.13949,"longitude":-83.17826},{"id":127840,"name":"Trowbridge Park","latitude":46.5566,"longitude":-87.43736},{"id":127848,"name":"Troy","latitude":42.60559,"longitude":-83.14993},{"id":127912,"name":"Tuscola County","latitude":43.49134,"longitude":-83.43987},{"id":127927,"name":"Twin Lake","latitude":43.36279,"longitude":-86.16478},{"id":127984,"name":"Union City","latitude":42.06671,"longitude":-85.13609},{"id":128066,"name":"Utica","latitude":42.62614,"longitude":-83.03354},{"id":128132,"name":"Van Buren County","latitude":42.28511,"longitude":-86.30642},{"id":128151,"name":"Vandercook Lake","latitude":42.19337,"longitude":-84.39107},{"id":128159,"name":"Vassar","latitude":43.37197,"longitude":-83.58329},{"id":128216,"name":"Vicksburg","latitude":42.12005,"longitude":-85.53278},{"id":128318,"name":"Wacousta","latitude":42.82781,"longitude":-84.70082},{"id":128360,"name":"Wakefield","latitude":46.47523,"longitude":-89.93989},{"id":128384,"name":"Walker","latitude":43.00141,"longitude":-85.76809},{"id":128401,"name":"Walled Lake","latitude":42.53781,"longitude":-83.48105},{"id":128481,"name":"Warren","latitude":42.49044,"longitude":-83.01304},{"id":128592,"name":"Washtenaw County","latitude":42.25323,"longitude":-83.83877},{"id":128605,"name":"Waterford","latitude":42.69303,"longitude":-83.41181},{"id":128631,"name":"Watervliet","latitude":42.18671,"longitude":-86.26058},{"id":128669,"name":"Waverly","latitude":42.7392,"longitude":-84.62081},{"id":128679,"name":"Wayland","latitude":42.67392,"longitude":-85.64474},{"id":128683,"name":"Wayne","latitude":42.28143,"longitude":-83.38632},{"id":128699,"name":"Wayne County","latitude":42.28478,"longitude":-83.26113},{"id":128727,"name":"Webberville","latitude":42.66698,"longitude":-84.17413},{"id":128828,"name":"West Bloomfield Township","latitude":42.56891,"longitude":-83.38356},{"id":128833,"name":"West Branch","latitude":44.27641,"longitude":-84.23861},{"id":128902,"name":"West Ishpeming","latitude":46.48355,"longitude":-87.70097},{"id":128936,"name":"West Monroe","latitude":41.91393,"longitude":-83.4316},{"id":129041,"name":"Westland","latitude":42.3242,"longitude":-83.40021},{"id":129084,"name":"Westwood","latitude":42.30282,"longitude":-85.63362},{"id":129097,"name":"Wexford County","latitude":44.33835,"longitude":-85.57842},{"id":129133,"name":"White Cloud","latitude":43.5503,"longitude":-85.772},{"id":129151,"name":"White Pigeon","latitude":41.79811,"longitude":-85.64332},{"id":129168,"name":"Whitehall","latitude":43.41001,"longitude":-86.34868},{"id":129206,"name":"Whitmore Lake","latitude":42.4397,"longitude":-83.7453},{"id":129284,"name":"Williamston","latitude":42.68892,"longitude":-84.28302},{"id":129465,"name":"Wixom","latitude":42.52476,"longitude":-83.53633},{"id":129472,"name":"Wolf Lake","latitude":43.25474,"longitude":-86.10978},{"id":129481,"name":"Wolverine Lake","latitude":42.5567,"longitude":-83.47383},{"id":129521,"name":"Woodhaven","latitude":42.13893,"longitude":-83.2416},{"id":129528,"name":"Woodland Beach","latitude":41.94005,"longitude":-83.31326},{"id":129621,"name":"Wyandotte","latitude":42.21421,"longitude":-83.14992},{"id":129636,"name":"Wyoming","latitude":42.91336,"longitude":-85.70531},{"id":129655,"name":"Yale","latitude":43.13003,"longitude":-82.79826},{"id":129724,"name":"Ypsilanti","latitude":42.24115,"longitude":-83.61299},{"id":129744,"name":"Zeeland","latitude":42.81252,"longitude":-86.01865},{"id":129755,"name":"Zilwaukee","latitude":43.47641,"longitude":-83.92053}]