[{"id":53925,"name":"Coxen Hole","latitude":16.31759,"longitude":-86.53793},{"id":54008,"name":"French Harbor","latitude":16.35,"longitude":-86.43333},{"id":54019,"name":"Guanaja","latitude":16.44795,"longitude":-85.89431},{"id":54038,"name":"José Santos Guardiola","latitude":16.41765,"longitude":-86.30631},{"id":54197,"name":"Roatán","latitude":16.34098,"longitude":-86.53763},{"id":54289,"name":"Sandy Bay","latitude":16.32923,"longitude":-86.56446},{"id":54315,"name":"Savannah Bight","latitude":16.45,"longitude":-85.85},{"id":54351,"name":"Utila","latitude":16.10026,"longitude":-86.9307}]