[{"id":66728,"name":"Beaufort","latitude":49.83583,"longitude":6.29167},{"id":66729,"name":"Bech","latitude":49.7526,"longitude":6.36379},{"id":66732,"name":"Berdorf","latitude":49.82051,"longitude":6.34945},{"id":66753,"name":"Consdorf","latitude":49.78018,"longitude":6.3395},{"id":66761,"name":"Echternach","latitude":49.81212,"longitude":6.41846},{"id":66808,"name":"Mompach","latitude":49.74611,"longitude":6.465},{"id":66831,"name":"Rosport","latitude":49.8047,"longitude":6.50532},{"id":66856,"name":"Waldbillig","latitude":49.79636,"longitude":6.28431}]