[{"id":107057,"name":"Acıpayam","latitude":37.42385,"longitude":29.34941},{"id":107084,"name":"Akkent","latitude":38.15268,"longitude":29.3789},{"id":107086,"name":"Akköy","latitude":37.95694,"longitude":29.07813},{"id":107252,"name":"Babadağ","latitude":37.80764,"longitude":28.85665},{"id":107265,"name":"Baklan","latitude":37.97694,"longitude":29.60861},{"id":107326,"name":"Bekilli","latitude":38.24027,"longitude":29.42559},{"id":107334,"name":"Beyağaç İlçesi","latitude":37.24546,"longitude":28.90041},{"id":107384,"name":"Bozkurt","latitude":37.77583,"longitude":29.60811},{"id":107408,"name":"Buldan","latitude":38.045,"longitude":28.83056},{"id":108759,"name":"Çal İlçesi","latitude":38.09371,"longitude":29.40467},{"id":108767,"name":"Çameli İlçesi","latitude":37.0866,"longitude":29.35225},{"id":108781,"name":"Çardak","latitude":37.77485,"longitude":29.70593},{"id":108836,"name":"Çivril","latitude":38.30139,"longitude":29.73861},{"id":107470,"name":"Denizli","latitude":37.77417,"longitude":29.0875},{"id":107721,"name":"Gözler","latitude":38.10679,"longitude":29.15375},{"id":107742,"name":"Güney İlçesi","latitude":38.16454,"longitude":29.07324},{"id":107833,"name":"Honaz","latitude":37.77146,"longitude":29.34466},{"id":107871,"name":"Kale","latitude":37.43917,"longitude":28.84528},{"id":108196,"name":"Merkezefendi","latitude":37.80544,"longitude":29.04236},{"id":108247,"name":"Nikfer","latitude":37.40542,"longitude":29.13727},{"id":108310,"name":"Pamukkale","latitude":37.91644,"longitude":29.11729},{"id":108393,"name":"Sarayköy","latitude":37.9158,"longitude":28.87999},{"id":108442,"name":"Serinhisar","latitude":37.58105,"longitude":29.26639},{"id":108540,"name":"Tavas","latitude":37.57351,"longitude":29.07058}]