[{"id":65268,"name":"Boeun-gun","latitude":36.49489,"longitude":127.72865},{"id":65289,"name":"Cheongju-si","latitude":36.63722,"longitude":127.48972},{"id":65295,"name":"Chinch'≈èn","latitude":36.85667,"longitude":127.44333},{"id":65299,"name":"Chungju-si","latitude":37.01791,"longitude":127.87713},{"id":65305,"name":"Danyang-gun","latitude":36.98615,"longitude":128.36945},{"id":65315,"name":"Eumseong-gun","latitude":36.92602,"longitude":127.6807},{"id":65341,"name":"Goesan-gun","latitude":36.77179,"longitude":127.81426},{"id":65405,"name":"Jecheon-si","latitude":37.06206,"longitude":128.14065},{"id":65414,"name":"Jeungpyeong-gun","latitude":36.78377,"longitude":127.59858},{"id":65416,"name":"Jincheon-gun","latitude":36.88281,"longitude":127.42768},{"id":65429,"name":"Koesan","latitude":36.81083,"longitude":127.79472},{"id":65463,"name":"Okcheon","latitude":36.3012,"longitude":127.568},{"id":65464,"name":"Okcheon-gun","latitude":36.26642,"longitude":127.58324},{"id":65553,"name":"Yeongdong","latitude":36.175,"longitude":127.77639},{"id":65554,"name":"Yeongdong-gun","latitude":36.21658,"longitude":127.79374}]