[{"id":53842,"name":"Aguanqueterique","latitude":13.98606,"longitude":-87.64622},{"id":53879,"name":"Cabañas","latitude":13.99419,"longitude":-88.02864},{"id":53885,"name":"Cane","latitude":14.28333,"longitude":-87.66667},{"id":53897,"name":"Chinacla","latitude":14.18289,"longitude":-87.95395},{"id":54014,"name":"Guajiquiro","latitude":14.06982,"longitude":-87.77451},{"id":54073,"name":"La Paz","latitude":14.31944,"longitude":-87.67917},{"id":54099,"name":"Lauterique","latitude":13.86425,"longitude":-87.65792},{"id":54110,"name":"Los Planes","latitude":14.05,"longitude":-88.01667},{"id":54120,"name":"Marcala","latitude":14.14845,"longitude":-88.02405},{"id":54126,"name":"Mercedes de Oriente","latitude":13.90937,"longitude":-87.77795},{"id":54160,"name":"Opatoro","latitude":14.02451,"longitude":-87.87982},{"id":54220,"name":"San Antonio del Norte","latitude":13.88,"longitude":-87.72},{"id":54246,"name":"San José","latitude":14.22642,"longitude":-87.96238},{"id":54257,"name":"San Juan","latitude":13.95428,"longitude":-87.72948},{"id":54284,"name":"San Pedro de Tutule","latitude":14.25,"longitude":-87.85},{"id":54292,"name":"Santa Ana","latitude":14.00011,"longitude":-87.94107},{"id":54300,"name":"Santa Elena","latitude":14.07149,"longitude":-88.15445},{"id":54306,"name":"Santa María","latitude":14.26904,"longitude":-87.91164},{"id":54314,"name":"Santiago Puringla","latitude":14.35,"longitude":-87.9},{"id":54335,"name":"Tepanguare","latitude":14.33333,"longitude":-87.75},{"id":54370,"name":"Yarula","latitude":14.1,"longitude":-88.08},{"id":54371,"name":"Yarumela","latitude":14.33333,"longitude":-87.63333}]