[{"id":97571,"name":"Aleksandrovskaya","latitude":43.48333,"longitude":43.65},{"id":97604,"name":"Altud","latitude":43.72194,"longitude":43.86583},{"id":97661,"name":"Argudan","latitude":43.42139,"longitude":43.91583},{"id":97720,"name":"Aushiger","latitude":43.39611,"longitude":43.73167},{"id":97743,"name":"Babugent","latitude":43.27942,"longitude":43.5502},{"id":97762,"name":"Baksan","latitude":43.68806,"longitude":43.53694},{"id":97763,"name":"Baksanenok","latitude":43.68972,"longitude":43.65472},{"id":97764,"name":"Baksanskiy Rayon","latitude":43.75,"longitude":43.5},{"id":97844,"name":"Belaya Rechka","latitude":43.43806,"longitude":43.535},{"id":98099,"name":"Bylym","latitude":43.465,"longitude":43.03889},{"id":98132,"name":"Chegem","latitude":43.28333,"longitude":43.13333},{"id":98133,"name":"Chegem Vtoroy","latitude":43.59583,"longitude":43.59944},{"id":98146,"name":"Cherekskiy Rayon","latitude":43.25,"longitude":43.5},{"id":98272,"name":"Deyskoye","latitude":43.47546,"longitude":44.16182},{"id":98348,"name":"Dugulubgey","latitude":43.6625,"longitude":43.53694},{"id":98390,"name":"El’brus","latitude":43.25771,"longitude":42.64435},{"id":98391,"name":"El’brusskiy Rayon","latitude":43.41667,"longitude":42.83333},{"id":98483,"name":"Germenchik","latitude":43.59389,"longitude":43.76611},{"id":98611,"name":"Gundelen","latitude":43.5975,"longitude":43.17194},{"id":98713,"name":"Islamey","latitude":43.67556,"longitude":43.455},{"id":98777,"name":"Kakhun","latitude":43.54306,"longitude":43.87639},{"id":98811,"name":"Kamenka","latitude":43.53333,"longitude":43.51667},{"id":98817,"name":"Kamennomostskoye","latitude":43.73722,"longitude":43.05139},{"id":98860,"name":"Karagach","latitude":43.80528,"longitude":43.775},{"id":98896,"name":"Kashkhatau","latitude":43.31848,"longitude":43.60804},{"id":98940,"name":"Kenzhe","latitude":43.50167,"longitude":43.55722},{"id":99080,"name":"Kishpek","latitude":43.655,"longitude":43.64083},{"id":99249,"name":"Kotlyarevskaya","latitude":43.57344,"longitude":44.06134},{"id":99413,"name":"Kuba-Taba","latitude":43.77611,"longitude":43.44278},{"id":99524,"name":"Kyzburun Pervyy","latitude":43.65167,"longitude":43.395},{"id":99559,"name":"Lechinkay","latitude":43.56472,"longitude":43.43278},{"id":99590,"name":"Leskenskiy rayon","latitude":43.35556,"longitude":43.94139},{"id":99759,"name":"Malka","latitude":43.80389,"longitude":43.32417},{"id":99834,"name":"Mayskiy Rayon","latitude":43.66667,"longitude":44.08333},{"id":100054,"name":"Nal’chik","latitude":43.49806,"longitude":43.61889},{"id":100061,"name":"Nartan","latitude":43.51083,"longitude":43.69944},{"id":100062,"name":"Nartkala","latitude":43.5575,"longitude":43.85083},{"id":100165,"name":"Nizhniy Cherek","latitude":43.51306,"longitude":43.91389},{"id":100170,"name":"Nizhniy Kurkuzhin","latitude":43.74833,"longitude":43.34972},{"id":100693,"name":"Planovskoye","latitude":43.39846,"longitude":44.1949},{"id":100828,"name":"Primalkinskoye","latitude":43.74667,"longitude":44.00833},{"id":100855,"name":"Prokhladnenskiy Rayon","latitude":43.83333,"longitude":44.0},{"id":100856,"name":"Prokhladnyy","latitude":43.75741,"longitude":44.0297},{"id":100883,"name":"Psygansu","latitude":43.41944,"longitude":43.79361},{"id":101119,"name":"Sarmakovo","latitude":43.74556,"longitude":43.20028},{"id":101248,"name":"Shalushka","latitude":43.5325,"longitude":43.56611},{"id":101446,"name":"Soldatskaya","latitude":43.81806,"longitude":43.81583},{"id":101604,"name":"Staryy Cherek","latitude":43.47139,"longitude":43.84694},{"id":101609,"name":"Staryy Urukh","latitude":43.34041,"longitude":44.01868},{"id":101827,"name":"Terek","latitude":43.48333,"longitude":44.13611},{"id":101838,"name":"Terskiy Rayon","latitude":43.58333,"longitude":44.25},{"id":101840,"name":"Terskol","latitude":43.2568,"longitude":42.51481},{"id":101997,"name":"Tyrnyauz","latitude":43.38278,"longitude":42.91833},{"id":102086,"name":"Urukh","latitude":43.29335,"longitude":44.02647},{"id":102092,"name":"Urvan’","latitude":43.49222,"longitude":43.76056},{"id":102091,"name":"Urvanskiy Rayon","latitude":43.41667,"longitude":43.91667},{"id":102253,"name":"Verkhniy Kurkuzhin","latitude":43.69556,"longitude":43.27472},{"id":102265,"name":"Verkhnyaya Balkariya","latitude":43.12545,"longitude":43.45687},{"id":102373,"name":"Vol’nyy Aul","latitude":43.47861,"longitude":43.6275},{"id":102639,"name":"Zalukokoazhe","latitude":43.90389,"longitude":43.21556},{"id":102687,"name":"Zayukovo","latitude":43.61611,"longitude":43.33389},{"id":102711,"name":"Zhankhoteko","latitude":43.56417,"longitude":43.21056},{"id":102724,"name":"Zhemtala","latitude":43.28408,"longitude":43.65586},{"id":102768,"name":"Zol’skiy Rayon","latitude":43.75,"longitude":42.91667}]