[{"id":150445,"name":"Ahmad-abad-e-Solat","latitude":35.1151078,"longitude":60.6845283},{"id":150439,"name":"Anabad","latitude":35.2501746,"longitude":57.800982},{"id":134801,"name":"Bajestan","latitude":34.58333,"longitude":58.13333},{"id":150477,"name":"Bajgiran","latitude":37.6213443,"longitude":58.4160769},{"id":134821,"name":"Bakharz","latitude":35.01667,"longitude":60.28333},{"id":150487,"name":"Bar","latitude":36.4912922,"longitude":58.7095314},{"id":134581,"name":"Bardaskan","latitude":35.26667,"longitude":57.48333},{"id":150449,"name":"Bayg","latitude":35.3748607,"longitude":59.0306138},{"id":150480,"name":"Beydokht","latitude":34.3477914,"longitude":58.7476621},{"id":134827,"name":"Binalud","latitude":36.26667,"longitude":59.33333},{"id":150488,"name":"Chakaneh","latitude":36.8136645,"longitude":58.4972621},{"id":150463,"name":"Chapeshlu","latitude":37.3509012,"longitude":59.069538},{"id":134608,"name":"Chenaran","latitude":36.64546,"longitude":59.12123},{"id":134613,"name":"Dargaz","latitude":37.33333,"longitude":59.08333},{"id":150490,"name":"Darrod","latitude":36.1378911,"longitude":59.1055441},{"id":134628,"name":"Davarzan","latitude":36.33333,"longitude":56.83333},{"id":150468,"name":"Dowlat Abad","latitude":35.2840396,"longitude":59.5131111},{"id":150491,"name":"Eshqabad","latitude":36.0438068,"longitude":58.6744165},{"id":150473,"name":"Farhadgerd","latitude":35.7644818,"longitude":59.7241688},{"id":134869,"name":"Fariman","latitude":35.7,"longitude":59.83333},{"id":150486,"name":"Feyz Abad","latitude":35.0182208,"longitude":58.7629293},{"id":150475,"name":"Firouzeh","latitude":36.2828876,"longitude":58.5676859},{"id":134874,"name":"Firuzeh","latitude":36.3,"longitude":58.41667},{"id":150492,"name":"Ghadamgah","latitude":36.1117541,"longitude":59.047973},{"id":150453,"name":"Golbahar","latitude":36.5636551,"longitude":59.1391462},{"id":150454,"name":"Golmakan","latitude":36.4825278,"longitude":59.1548109},{"id":134647,"name":"Gonabad","latitude":34.35287,"longitude":58.68365},{"id":150476,"name":"Hemmatabad","latitude":36.2979042,"longitude":58.4577392},{"id":150466,"name":"Jangal","latitude":34.7074678,"longitude":59.2063862},{"id":134897,"name":"Joghatay","latitude":36.66667,"longitude":57.03333},{"id":134659,"name":"Joveyn","latitude":36.58333,"longitude":57.51667},{"id":150451,"name":"Kadkan","latitude":35.5873956,"longitude":58.8746595},{"id":150481,"name":"Kakhk","latitude":34.1445751,"longitude":58.6360716},{"id":134905,"name":"Kalat","latitude":36.9,"longitude":59.9},{"id":150443,"name":"Kariz","latitude":34.8150162,"longitude":60.8063648},{"id":134683,"name":"Kashmar","latitude":35.23831,"longitude":58.46558},{"id":150457,"name":"Khaf","latitude":34.5698972,"longitude":60.0988191},{"id":150455,"name":"Khalil Abad","latitude":35.253661,"longitude":58.2791662},{"id":134912,"name":"Khalilabad","latitude":35.11667,"longitude":58.2},{"id":150489,"name":"Kharv","latitude":36.1520043,"longitude":58.9840862},{"id":134921,"name":"Khowshab","latitude":36.43333,"longitude":58.06667},{"id":134922,"name":"Khvaf","latitude":34.5,"longitude":60.0},{"id":150456,"name":"Kondor","latitude":35.2120174,"longitude":58.142438},{"id":150464,"name":"Lotfabad","latitude":36.1768725,"longitude":58.7250351},{"id":134948,"name":"Mah Velat","latitude":34.98333,"longitude":58.78333},{"id":134698,"name":"Mashhad","latitude":36.31559,"longitude":59.56796},{"id":150444,"name":"Mashhad Rizeh","latitude":34.7956727,"longitude":60.4977178},{"id":150471,"name":"Mazdavand","latitude":36.1564492,"longitude":60.5264175},{"id":150484,"name":"Molkabad","latitude":35.9937696,"longitude":59.5646093},{"id":150461,"name":"Nashtifan","latitude":34.4347326,"longitude":60.1597807},{"id":150447,"name":"Nasrabad","latitude":35.417925,"longitude":60.3056717},{"id":150452,"name":"Neghab","latitude":36.7029164,"longitude":57.3931573},{"id":134714,"name":"Neyshabur","latitude":36.21329,"longitude":58.79575},{"id":150448,"name":"Nil Shahr","latitude":35.1252579,"longitude":60.7657636},{"id":150465,"name":"Nokhandan","latitude":37.5183884,"longitude":58.9801883},{"id":150474,"name":"Qalandarabad","latitude":35.6005376,"longitude":59.9362562},{"id":150460,"name":"Qasemabad","latitude":35.9101775,"longitude":58.5759474},{"id":134747,"name":"Quchan","latitude":37.106,"longitude":58.50955},{"id":150467,"name":"Rashtkhar","latitude":34.9746294,"longitude":59.6144771},{"id":150482,"name":"Razaviye","latitude":36.2093245,"longitude":59.7610331},{"id":150478,"name":"Rivash","latitude":35.4789304,"longitude":58.4378241},{"id":150450,"name":"Robat-e-Sang","latitude":35.5484459,"longitude":59.186697},{"id":135011,"name":"Roshtkhvar","latitude":34.91667,"longitude":59.36667},{"id":150469,"name":"Rudab","latitude":36.0236779,"longitude":57.3044729},{"id":134762,"name":"Sabzevar","latitude":36.2126,"longitude":57.68191},{"id":150458,"name":"Salami","latitude":34.7457199,"longitude":59.9691295},{"id":150446,"name":"Saleh Abad","latitude":35.6905628,"longitude":61.0832119},{"id":150483,"name":"Samen","latitude":36.4260042,"longitude":59.3820171},{"id":150459,"name":"Sangan","latitude":34.4005526,"longitude":60.2538299},{"id":134767,"name":"Sarakhs","latitude":36.5449,"longitude":61.1577},{"id":150472,"name":"Sefid Sang","latitude":35.6621857,"longitude":60.0859937},{"id":150485,"name":"Shadmehr","latitude":35.1724487,"longitude":59.0339184},{"id":150440,"name":"Shahrabad","latitude":32.5738411,"longitude":50.992706},{"id":150479,"name":"Shahrezu","latitude":36.7490715,"longitude":59.9274159},{"id":150441,"name":"Shandiz","latitude":36.3950569,"longitude":59.2906486},{"id":150470,"name":"Sheshtamad","latitude":35.9604289,"longitude":57.7502773},{"id":150462,"name":"Soltanabad","latitude":36.1478469,"longitude":58.8614202},{"id":135066,"name":"Taybad","latitude":34.73333,"longitude":60.73333},{"id":135063,"name":"Torbat Heydariyeh","latitude":35.46667,"longitude":59.1},{"id":135131,"name":"Torbat-e-Jam","latitude":35.244,"longitude":60.6225},{"id":150442,"name":"Torghabeh","latitude":36.3147425,"longitude":59.3676709},{"id":150438,"name":"Yunesi","latitude":34.805278,"longitude":58.4375},{"id":135076,"name":"Zaveh","latitude":35.28333,"longitude":59.73333}]