[{"id":131014,"name":"‘Ans","latitude":14.43606,"longitude":44.38889},{"id":130691,"name":"Al Hada","latitude":14.8076,"longitude":44.5679},{"id":130718,"name":"Al Manar","latitude":14.653,"longitude":44.1164},{"id":130761,"name":"Al-Medy Village قرية المدي","latitude":14.40152,"longitude":43.79178},{"id":130833,"name":"Dawran Aness","latitude":14.8288,"longitude":44.1143},{"id":130834,"name":"Dhamār","latitude":14.54274,"longitude":44.40514},{"id":130873,"name":"Jabal Ash sharq","latitude":14.7296,"longitude":43.9062},{"id":130878,"name":"Jahran","latitude":14.7331,"longitude":44.3143},{"id":130904,"name":"Maghirib Ans","latitude":14.4653,"longitude":44.1233},{"id":130919,"name":"Mayfa'at Anss","latitude":14.5152,"longitude":44.6106},{"id":130994,"name":"Utmah","latitude":14.4738,"longitude":43.9483},{"id":131000,"name":"Wusab Al Ali","latitude":14.3344,"longitude":43.7947},{"id":131001,"name":"Wusab As Safil","latitude":14.2548,"longitude":43.6325}]