[{"id":31517,"name":"La Maná","latitude":-0.94094,"longitude":-79.22506},{"id":31520,"name":"Latacunga","latitude":-0.93521,"longitude":-78.61554},{"id":31556,"name":"Pujilí","latitude":-0.95759,"longitude":-78.69636},{"id":31570,"name":"San Miguel de Salcedo","latitude":-1.04547,"longitude":-78.59063},{"id":31578,"name":"Saquisilí","latitude":-0.8399,"longitude":-78.667}]