[{"id":38592,"name":"Alaba Special Wereda","latitude":7.45347,"longitude":38.21189},{"id":38593,"name":"Arba Minch","latitude":6.03333,"longitude":37.55},{"id":38725,"name":"Āreka","latitude":7.06667,"longitude":37.7},{"id":38599,"name":"Bako","latitude":5.78333,"longitude":36.56667},{"id":38603,"name":"Bench Maji Zone","latitude":6.45994,"longitude":35.30549},{"id":38606,"name":"Bodītī","latitude":6.96667,"longitude":37.86667},{"id":38607,"name":"Bonga","latitude":7.28333,"longitude":36.23333},{"id":38609,"name":"Butajīra","latitude":8.11667,"longitude":38.36667},{"id":38625,"name":"Dīla","latitude":6.41667,"longitude":38.31667},{"id":38629,"name":"Felege Neway","latitude":6.3,"longitude":36.88333},{"id":38634,"name":"Gedeo Zone","latitude":6.12727,"longitude":38.27716},{"id":38647,"name":"Gīdolē","latitude":5.65,"longitude":37.36667},{"id":38645,"name":"Guraghe Zone","latitude":8.25,"longitude":38.0},{"id":38648,"name":"Hadiya Zone","latitude":7.5,"longitude":37.75},{"id":38655,"name":"Hāgere Selam","latitude":6.48333,"longitude":38.51667},{"id":38651,"name":"Hawassa","latitude":7.06205,"longitude":38.47635},{"id":38652,"name":"Hosa’ina","latitude":7.54978,"longitude":37.85374},{"id":38662,"name":"Jinka","latitude":5.65,"longitude":36.65},{"id":38670,"name":"K’olīto","latitude":7.31667,"longitude":38.08333},{"id":38663,"name":"Kembata Alaba Tembaro Zone","latitude":7.27039,"longitude":37.77887},{"id":38668,"name":"Konso","latitude":5.25,"longitude":37.48333},{"id":38672,"name":"Leku","latitude":6.87309,"longitude":38.44425},{"id":38674,"name":"Lobuni","latitude":4.83333,"longitude":36.1},{"id":38683,"name":"Mīzan Teferī","latitude":6.99865,"longitude":35.58879},{"id":38696,"name":"Sheka Zone","latitude":7.56166,"longitude":35.40174},{"id":38698,"name":"Sidama Zone","latitude":6.718,"longitude":38.448},{"id":38700,"name":"Sodo","latitude":6.86,"longitude":37.76159},{"id":38705,"name":"Tippi","latitude":7.2,"longitude":35.45},{"id":38707,"name":"Turmi","latitude":4.96667,"longitude":36.48333},{"id":38710,"name":"Wendo","latitude":6.6,"longitude":38.41667},{"id":38716,"name":"Wolayita Zone","latitude":6.84312,"longitude":37.70051},{"id":38718,"name":"Yem","latitude":7.83333,"longitude":37.5},{"id":38719,"name":"Yirga ‘Alem","latitude":6.75,"longitude":38.41667}]