[{"id":64979,"name":"Siem Reap","latitude":13.36179,"longitude":103.86056},{"id":65031,"name":"Srŏk Ângkôr Thum","latitude":13.57881,"longitude":103.85645},{"id":65015,"name":"Srŏk Prasat Bakong","latitude":13.21031,"longitude":103.97689},{"id":65035,"name":"Svay Leu","latitude":13.69168,"longitude":104.27446},{"id":65040,"name":"Varin","latitude":13.83574,"longitude":103.89968}]