[{"id":109084,"name":"Isaka","latitude":-3.9,"longitude":32.93333},{"id":109089,"name":"Kahama","latitude":-3.83333,"longitude":32.6},{"id":109127,"name":"Kishapu","latitude":-3.61667,"longitude":33.86667},{"id":109195,"name":"Mhango","latitude":-3.28333,"longitude":32.85},{"id":109229,"name":"Mwadui","latitude":-3.55,"longitude":33.6},{"id":109268,"name":"Old Shinyanga","latitude":-3.55,"longitude":33.4},{"id":109277,"name":"Shinyanga","latitude":-3.66393,"longitude":33.42118},{"id":109284,"name":"Songwa","latitude":-3.51667,"longitude":33.51667},{"id":109290,"name":"Tinde","latitude":-3.88333,"longitude":33.2}]