[{"id":89912,"name":"Albeni","latitude":45.03333,"longitude":23.6},{"id":89932,"name":"Alimpeşti","latitude":45.08333,"longitude":23.8},{"id":89954,"name":"Andreești","latitude":44.78948,"longitude":23.55099},{"id":89963,"name":"Aninoasa","latitude":44.75,"longitude":23.48333},{"id":89979,"name":"Arcani","latitude":45.08333,"longitude":23.13333},{"id":90034,"name":"Baia de Fier","latitude":45.16667,"longitude":23.76667},{"id":90506,"name":"Bălcești","latitude":45.10516,"longitude":23.6329},{"id":90510,"name":"Băleşti","latitude":45.01667,"longitude":23.21667},{"id":90441,"name":"Bâlta","latitude":45.11791,"longitude":23.1022},{"id":90443,"name":"Bâlteni","latitude":44.86919,"longitude":23.27311},{"id":90541,"name":"Bărbăteşti","latitude":44.86667,"longitude":23.5},{"id":90094,"name":"Bengești","latitude":45.06667,"longitude":23.6},{"id":90112,"name":"Berleşti","latitude":44.91667,"longitude":23.66667},{"id":90208,"name":"Bolboşi","latitude":44.75,"longitude":23.21667},{"id":90236,"name":"Borăscu","latitude":44.7,"longitude":23.28333},{"id":90336,"name":"Brăneşti","latitude":44.65,"longitude":23.46667},{"id":90407,"name":"Bumbeşti-Jiu","latitude":45.16667,"longitude":23.4},{"id":90424,"name":"Bustuchin","latitude":44.96667,"longitude":23.73333},{"id":93793,"name":"Câlnic","latitude":44.95,"longitude":23.08333},{"id":93859,"name":"Căpreni","latitude":44.75,"longitude":23.61667},{"id":93871,"name":"Cărpiniș","latitude":45.18407,"longitude":23.58052},{"id":93880,"name":"Cătunele","latitude":44.86442,"longitude":22.90707},{"id":90605,"name":"Ceauru","latitude":45.01175,"longitude":23.20211},{"id":90753,"name":"Ciuperceni","latitude":44.93333,"longitude":23.01667},{"id":90770,"name":"Cloșani","latitude":45.06897,"longitude":22.8025},{"id":90781,"name":"Cocoreni","latitude":44.82772,"longitude":23.31405},{"id":90838,"name":"Comuna Albeni","latitude":45.01363,"longitude":23.60208},{"id":90853,"name":"Comuna Alimpeşti","latitude":45.10542,"longitude":23.79651},{"id":90873,"name":"Comuna Aninoasa","latitude":44.74836,"longitude":23.47372},{"id":90883,"name":"Comuna Arcani","latitude":45.07232,"longitude":23.14108},{"id":90919,"name":"Comuna Baia de Fier","latitude":45.17402,"longitude":23.74152},{"id":91225,"name":"Comuna Bălăneşti","latitude":45.09028,"longitude":23.44674},{"id":91216,"name":"Comuna Băleşti","latitude":45.01898,"longitude":23.18145},{"id":91182,"name":"Comuna Bâlteni","latitude":44.86667,"longitude":23.26736},{"id":91238,"name":"Comuna Bărbăteşti","latitude":44.85916,"longitude":23.5076},{"id":90958,"name":"Comuna Bengeşti-Ciocadia","latitude":45.09845,"longitude":23.60621},{"id":91037,"name":"Comuna Bolboşi","latitude":44.7374,"longitude":23.22157},{"id":91055,"name":"Comuna Borăscu","latitude":44.70105,"longitude":23.26739},{"id":91121,"name":"Comuna Brăneşti","latitude":44.66555,"longitude":23.47213},{"id":91162,"name":"Comuna Bumbeşti-Piţic","latitude":45.12413,"longitude":23.70348},{"id":91172,"name":"Comuna Bustuchin","latitude":44.96835,"longitude":23.70347},{"id":91541,"name":"Comuna Câlnic","latitude":44.94202,"longitude":23.06292},{"id":91584,"name":"Comuna Căpreni","latitude":44.74439,"longitude":23.62033},{"id":91595,"name":"Comuna Cătunele","latitude":44.83902,"longitude":22.92465},{"id":91372,"name":"Comuna Ciuperceni","latitude":44.928,"longitude":22.99173},{"id":91486,"name":"Comuna Crasna","latitude":45.17065,"longitude":23.55625},{"id":91511,"name":"Comuna Crușeț","latitude":44.63848,"longitude":23.67247},{"id":91736,"name":"Comuna Dănciuleşti","latitude":44.77004,"longitude":23.76023},{"id":91739,"name":"Comuna Dăneşti","latitude":44.96735,"longitude":23.3439},{"id":91691,"name":"Comuna Drăgoteşti","latitude":44.79957,"longitude":23.16192},{"id":91684,"name":"Comuna Drãguţeşti","latitude":44.9637,"longitude":23.2348},{"id":91816,"name":"Comuna Fãrcãşeşti","latitude":44.87069,"longitude":23.19279},{"id":91884,"name":"Comuna Glogova","latitude":44.91623,"longitude":22.9081},{"id":91889,"name":"Comuna Godineşti","latitude":44.97634,"longitude":22.96093},{"id":92028,"name":"Comuna Hurezani","latitude":44.80305,"longitude":23.63617},{"id":92086,"name":"Comuna Ioneşti","latitude":44.61636,"longitude":23.42688},{"id":92134,"name":"Comuna Jupâneşti","latitude":44.91241,"longitude":23.52325},{"id":92147,"name":"Comuna Leleşti","latitude":45.09875,"longitude":23.19761},{"id":92162,"name":"Comuna Licurici","latitude":44.87544,"longitude":23.62641},{"id":92182,"name":"Comuna Logreşti-Moşteni","latitude":44.88848,"longitude":23.71256},{"id":92419,"name":"Comuna Mătăsari","latitude":44.85764,"longitude":23.06819},{"id":92364,"name":"Comuna Muşeteşti","latitude":45.15231,"longitude":23.45022},{"id":92429,"name":"Comuna Negomir","latitude":44.78593,"longitude":23.22744},{"id":92527,"name":"Comuna Padeş","latitude":45.05089,"longitude":22.80954},{"id":92571,"name":"Comuna Peştişani","latitude":45.07061,"longitude":23.04902},{"id":92600,"name":"Comuna Plopşoru","latitude":44.73869,"longitude":23.39053},{"id":92646,"name":"Comuna Polovragi","latitude":45.17196,"longitude":23.82134},{"id":92675,"name":"Comuna Prigoria","latitude":45.05711,"longitude":23.68453},{"id":92797,"name":"Comuna Roşia De Amaradia","latitude":45.04419,"longitude":23.75991},{"id":92810,"name":"Comuna Runcu","latitude":45.12041,"longitude":23.13974},{"id":93083,"name":"Comuna Săcelu","latitude":45.10648,"longitude":23.53717},{"id":92869,"name":"Comuna Samarineşti","latitude":44.77152,"longitude":23.04889},{"id":93115,"name":"Comuna Săuleşti","latitude":44.81247,"longitude":23.48767},{"id":92886,"name":"Comuna Schela","latitude":45.15883,"longitude":23.32395},{"id":92891,"name":"Comuna Scoarţa","latitude":45.02872,"longitude":23.47131},{"id":92951,"name":"Comuna Slivileşti","latitude":44.79198,"longitude":23.10761},{"id":93017,"name":"Comuna Stăneşti","latitude":45.1305,"longitude":23.25328},{"id":92987,"name":"Comuna Stejari","latitude":44.77359,"longitude":23.70567},{"id":92997,"name":"Comuna Stoina","latitude":44.67998,"longitude":23.64563},{"id":93579,"name":"Comuna Ţânţăreni","latitude":44.61874,"longitude":23.54285},{"id":93137,"name":"Comuna Teleşti","latitude":44.98175,"longitude":23.10843},{"id":93209,"name":"Comuna Turburea","latitude":44.68249,"longitude":23.53171},{"id":93210,"name":"Comuna Turcineşti","latitude":45.12744,"longitude":23.30333},{"id":93279,"name":"Comuna Urdari","latitude":44.79934,"longitude":23.296},{"id":93456,"name":"Comuna Văgiuleşti","latitude":44.7298,"longitude":23.10113},{"id":93382,"name":"Comuna Vladimir","latitude":44.82235,"longitude":23.5552},{"id":93664,"name":"Costești","latitude":44.73264,"longitude":23.44491},{"id":93681,"name":"Covrigi","latitude":44.73825,"longitude":23.14921},{"id":93706,"name":"Crasna","latitude":45.16667,"longitude":23.5},{"id":93744,"name":"Crușeț","latitude":44.63333,"longitude":23.66667},{"id":94124,"name":"Dănciuleşti","latitude":44.73333,"longitude":23.75},{"id":94127,"name":"Dăneşti","latitude":44.96667,"longitude":23.33333},{"id":93960,"name":"Dobrița","latitude":45.13504,"longitude":23.17406},{"id":94046,"name":"Drăgoteşti","latitude":44.8,"longitude":23.16667},{"id":94051,"name":"Drăguţeşti","latitude":44.96667,"longitude":23.23333},{"id":94265,"name":"Fărcăşeşti","latitude":44.86667,"longitude":23.2},{"id":94188,"name":"Florești","latitude":44.61918,"longitude":23.52838},{"id":94364,"name":"Glogova","latitude":44.92806,"longitude":22.90667},{"id":94369,"name":"Godineşti","latitude":45.0,"longitude":22.96667},{"id":94581,"name":"Hurezani","latitude":44.8,"longitude":23.65},{"id":94677,"name":"Ioneşti","latitude":44.61667,"longitude":23.43333},{"id":94753,"name":"Jupâneşti","latitude":44.9,"longitude":23.53333},{"id":94774,"name":"Leleşti","latitude":45.1,"longitude":23.2},{"id":94793,"name":"Licurici","latitude":44.91667,"longitude":23.61667},{"id":94829,"name":"Logreşti","latitude":44.9,"longitude":23.7},{"id":94830,"name":"Logrești Moșteni","latitude":44.90663,"longitude":23.7048},{"id":95290,"name":"Mătăsari","latitude":44.85,"longitude":23.08333},{"id":95078,"name":"Motru","latitude":44.80333,"longitude":22.97194},{"id":95159,"name":"Municipiul Motru","latitude":44.81422,"longitude":22.98229},{"id":95192,"name":"Municipiul Târgu Jiu","latitude":45.05278,"longitude":23.27708},{"id":95210,"name":"Muşeteşti","latitude":45.15,"longitude":23.46667},{"id":95311,"name":"Negomir","latitude":44.83333,"longitude":23.16667},{"id":95357,"name":"Novaci","latitude":45.16462,"longitude":23.66839},{"id":95477,"name":"Oraş Bumbeşti-Jiu","latitude":45.14429,"longitude":23.38185},{"id":95578,"name":"Oraş Rovinari","latitude":44.93857,"longitude":23.15598},{"id":95606,"name":"Oraş Târgu Cãrbuneşti","latitude":44.9655,"longitude":23.49567},{"id":95632,"name":"Oraş Ţicleni","latitude":44.88344,"longitude":23.38921},{"id":95603,"name":"Oraş Tismana","latitude":45.04464,"longitude":22.93803},{"id":95605,"name":"Oraş Turceni","latitude":44.71779,"longitude":23.35419},{"id":95693,"name":"Padeş","latitude":45.01667,"longitude":22.85},{"id":95763,"name":"Peșteana de Jos","latitude":44.83333,"longitude":23.26974},{"id":95762,"name":"Peșteana Jiu","latitude":44.84695,"longitude":23.30401},{"id":95760,"name":"Peştişani","latitude":45.06667,"longitude":23.03333},{"id":95796,"name":"Piscoiu","latitude":44.85211,"longitude":23.75387},{"id":95825,"name":"Plopşoru","latitude":44.78333,"longitude":23.35},{"id":95830,"name":"Ploștina","latitude":44.82398,"longitude":22.98791},{"id":95839,"name":"Pociovaliștea","latitude":45.15315,"longitude":23.64392},{"id":95841,"name":"Pocruia","latitude":45.0447,"longitude":22.92495},{"id":95861,"name":"Poiana","latitude":44.65174,"longitude":23.53148},{"id":95898,"name":"Pojogeni","latitude":44.99119,"longitude":23.48425},{"id":95901,"name":"Polovragi","latitude":45.18333,"longitude":23.8},{"id":95952,"name":"Prigoria","latitude":45.06667,"longitude":23.68333},{"id":96128,"name":"Roşia de Amaradia","latitude":45.05,"longitude":23.75},{"id":96122,"name":"Rovinari","latitude":44.91667,"longitude":23.18333},{"id":96154,"name":"Runcu","latitude":45.11667,"longitude":23.13333},{"id":105994,"name":"Săcelu","latitude":45.1,"longitude":23.53333},{"id":96238,"name":"Samarineşti","latitude":44.75,"longitude":23.05},{"id":96517,"name":"Sâmbotin","latitude":45.13333,"longitude":23.33333},{"id":106044,"name":"Săuleşti","latitude":44.8,"longitude":23.48333},{"id":96276,"name":"Scoarţa","latitude":45.01667,"longitude":23.45},{"id":96367,"name":"Slivileşti","latitude":44.78333,"longitude":23.13333},{"id":96402,"name":"Sohodol","latitude":45.05531,"longitude":22.88194},{"id":96478,"name":"Stăneşti","latitude":45.11667,"longitude":23.25},{"id":96425,"name":"Stejari","latitude":44.76667,"longitude":23.68333},{"id":96430,"name":"Sterpoaia","latitude":44.79058,"longitude":23.43601},{"id":96440,"name":"Stoina","latitude":44.68333,"longitude":23.63333},{"id":97111,"name":"Ţânţăreni","latitude":44.6,"longitude":23.48333},{"id":96582,"name":"Târgu Cărbuneşti","latitude":44.95,"longitude":23.51667},{"id":96584,"name":"Târgu Jiu","latitude":45.05,"longitude":23.28333},{"id":106080,"name":"Teleşti","latitude":45.0,"longitude":23.08333},{"id":97104,"name":"Ţicleni","latitude":44.88333,"longitude":23.4},{"id":106107,"name":"Tismana","latitude":45.05,"longitude":22.96667},{"id":96552,"name":"Turburea","latitude":44.71667,"longitude":23.51667},{"id":96553,"name":"Turceni","latitude":44.68333,"longitude":23.36667},{"id":96555,"name":"Turcineşti","latitude":45.1,"longitude":23.33333},{"id":96673,"name":"Urdari","latitude":44.8,"longitude":23.3},{"id":96957,"name":"Văgiuleşti","latitude":44.71667,"longitude":23.08333},{"id":96737,"name":"Valea Mare","latitude":45.11263,"longitude":23.08004},{"id":96812,"name":"Vierșani","latitude":44.87875,"longitude":23.5312},{"id":96869,"name":"Vlăduleni","latitude":44.88857,"longitude":23.23727},{"id":96884,"name":"Voiteștii din Vale","latitude":45.08746,"longitude":23.42145}]