[{"id":19296,"name":"Badu","latitude":26.81028,"longitude":119.56417},{"id":19301,"name":"Baiqi","latitude":24.88244,"longitude":118.70869},{"id":19310,"name":"Baiyun","latitude":26.03648,"longitude":118.90622},{"id":19334,"name":"Beishancun","latitude":26.43732,"longitude":119.63372},{"id":19371,"name":"Changqiao","latitude":26.82139,"longitude":118.84361},{"id":19391,"name":"Chengmen","latitude":25.99339,"longitude":119.36136},{"id":19400,"name":"Chixi","latitude":26.91111,"longitude":119.48306},{"id":19405,"name":"Chongru","latitude":26.95111,"longitude":119.92528},{"id":19414,"name":"Dadeng","latitude":24.54386,"longitude":118.32753},{"id":19417,"name":"Daixi","latitude":26.8125,"longitude":119.11417},{"id":19427,"name":"Danyang","latitude":26.35102,"longitude":119.4803},{"id":19429,"name":"Daqiao","latitude":26.615,"longitude":118.90639},{"id":19444,"name":"Dazuo","latitude":24.88616,"longitude":118.96433},{"id":19457,"name":"Dinghaicun","latitude":26.28022,"longitude":119.78964},{"id":19459,"name":"Dingtoucun","latitude":26.83977,"longitude":119.66111},{"id":19462,"name":"Dongchongcun","latitude":26.54001,"longitude":119.83257},{"id":19464,"name":"Dongdai","latitude":26.24366,"longitude":119.61566},{"id":19469,"name":"Donghu","latitude":26.23453,"longitude":119.5143},{"id":19471,"name":"Dongling","latitude":24.98271,"longitude":118.8979},{"id":19482,"name":"Dongyuan","latitude":24.91738,"longitude":118.75236},{"id":19502,"name":"Feiluan","latitude":26.5625,"longitude":119.5975},{"id":19508,"name":"Fengpu","latitude":26.68276,"longitude":118.76006},{"id":19512,"name":"Fengzhou","latitude":24.95762,"longitude":118.53365},{"id":19532,"name":"Fu’an","latitude":27.06372,"longitude":119.6528},{"id":19517,"name":"Fuding","latitude":27.32734,"longitude":120.21399},{"id":19522,"name":"Fuqing","latitude":25.725,"longitude":119.37944},{"id":19531,"name":"Fuzhou","latitude":26.06139,"longitude":119.30611},{"id":19537,"name":"Gantang","latitude":26.92,"longitude":119.63333},{"id":19566,"name":"Guantou","latitude":26.13593,"longitude":119.56162},{"id":19568,"name":"Gufeng","latitude":26.90833,"longitude":118.98194},{"id":19618,"name":"Hetang","latitude":26.66276,"longitude":119.11062},{"id":19628,"name":"Hongtang","latitude":26.07056,"longitude":119.23083},{"id":19629,"name":"Hongyang","latitude":26.52861,"longitude":119.4625},{"id":19632,"name":"Houyu","latitude":26.05958,"longitude":119.53502},{"id":19643,"name":"Huai’an","latitude":26.09899,"longitude":119.22171},{"id":19659,"name":"Huangtian","latitude":26.43851,"longitude":118.62398},{"id":19686,"name":"Huotong","latitude":26.84972,"longitude":119.41806},{"id":19709,"name":"Jian’ou","latitude":27.04694,"longitude":118.32528},{"id":19697,"name":"Jiangkou","latitude":25.48694,"longitude":119.19834},{"id":19706,"name":"Jianjiang","latitude":26.54972,"longitude":119.755},{"id":19732,"name":"Jingfeng","latitude":24.97441,"longitude":118.96486},{"id":19744,"name":"Jinjiang","latitude":24.81978,"longitude":118.57415},{"id":19746,"name":"Jinjing","latitude":24.575,"longitude":118.59722},{"id":19755,"name":"Jitoucun","latitude":26.47681,"longitude":119.60517},{"id":19777,"name":"Kengyuan","latitude":26.33964,"longitude":119.76476},{"id":19778,"name":"Kerencun","latitude":24.58213,"longitude":118.66046},{"id":19780,"name":"Kuai’an","latitude":26.03417,"longitude":119.41639},{"id":19820,"name":"Lianhecun","latitude":24.58932,"longitude":118.33903},{"id":19862,"name":"Liuwudiancun","latitude":24.56923,"longitude":118.19064},{"id":19870,"name":"Longmen","latitude":24.95972,"longitude":118.08889},{"id":19875,"name":"Longyan","latitude":25.10722,"longitude":117.0225},{"id":19886,"name":"Luoqiao","latitude":26.47265,"longitude":119.00392},{"id":19890,"name":"Luoyang","latitude":24.95938,"longitude":118.683},{"id":19892,"name":"Luxia","latitude":26.93,"longitude":118.80722},{"id":19907,"name":"Maping","latitude":24.68722,"longitude":118.55278},{"id":19911,"name":"Meipu","latitude":26.2112,"longitude":118.89561},{"id":19924,"name":"Min’an","latitude":26.04962,"longitude":119.49964},{"id":19947,"name":"Nanping","latitude":26.645,"longitude":118.17361},{"id":19955,"name":"Neikeng","latitude":24.78544,"longitude":118.46037},{"id":19960,"name":"Ningde","latitude":26.66167,"longitude":119.52278},{"id":19971,"name":"Pandu","latitude":26.23639,"longitude":119.45026},{"id":19990,"name":"Pucheng","latitude":27.92333,"longitude":118.53333},{"id":19998,"name":"Putian","latitude":25.43944,"longitude":119.01028},{"id":20012,"name":"Qibu","latitude":26.5075,"longitude":119.545},{"id":20013,"name":"Qidu","latitude":26.76528,"longitude":119.54722},{"id":20036,"name":"Quanzhou","latitude":24.91389,"longitude":118.58583},{"id":20043,"name":"Rong’an","latitude":26.12472,"longitude":119.12139},{"id":20055,"name":"Sanming","latitude":26.24861,"longitude":117.61861},{"id":20061,"name":"Shajiang","latitude":26.7825,"longitude":119.96694},{"id":20064,"name":"Shangjie","latitude":26.08679,"longitude":119.18494},{"id":20078,"name":"Shanxia","latitude":24.93802,"longitude":118.8817},{"id":20079,"name":"Shanyang","latitude":26.67019,"longitude":119.20509},{"id":20081,"name":"Shaowu","latitude":27.34089,"longitude":117.4831},{"id":20098,"name":"Shijing","latitude":24.61956,"longitude":118.42437},{"id":20102,"name":"Shima","latitude":24.44647,"longitude":117.81216},{"id":20113,"name":"Shoushan","latitude":26.96444,"longitude":119.16167},{"id":20118,"name":"Shuangxi","latitude":27.02248,"longitude":119.0414},{"id":20121,"name":"Shuangzhu","latitude":26.63114,"longitude":118.6457},{"id":20124,"name":"Shuikou","latitude":26.3836,"longitude":118.73027},{"id":20169,"name":"Tangkou","latitude":26.95417,"longitude":119.01278},{"id":20174,"name":"Tantou","latitude":26.03033,"longitude":119.59739},{"id":20177,"name":"Tatou","latitude":24.61732,"longitude":118.52672},{"id":20186,"name":"Tingjiang","latitude":26.07401,"longitude":119.50574},{"id":20202,"name":"Tuzhai","latitude":24.98301,"longitude":118.83194},{"id":20227,"name":"Wubao","latitude":24.59589,"longitude":118.55359},{"id":20243,"name":"Wuyishan","latitude":27.75995,"longitude":118.03066},{"id":20244,"name":"Wuyucun","latitude":24.33551,"longitude":118.14489},{"id":20248,"name":"Xiabaishi","latitude":26.81528,"longitude":119.67917},{"id":20249,"name":"Xiahu","latitude":26.61056,"longitude":119.94833},{"id":20252,"name":"Xiamen","latitude":24.47979,"longitude":118.08187},{"id":20253,"name":"Xiancun","latitude":26.93861,"longitude":119.36028},{"id":20259,"name":"Xiangyun","latitude":24.97111,"longitude":118.16028},{"id":20279,"name":"Xibing","latitude":26.98139,"longitude":119.72472},{"id":20286,"name":"Xiling","latitude":26.81444,"longitude":119.04722},{"id":20287,"name":"Ximei","latitude":24.98773,"longitude":118.3858},{"id":20288,"name":"Xinan","latitude":26.72,"longitude":119.85556},{"id":20292,"name":"Xindian","latitude":24.61006,"longitude":118.24068},{"id":20337,"name":"Yakou","latitude":24.67194,"longitude":118.63722},{"id":20343,"name":"Yanghou","latitude":26.64083,"longitude":118.50806},{"id":20348,"name":"Yangzhong","latitude":26.70556,"longitude":119.37444},{"id":20357,"name":"Yantian","latitude":26.85333,"longitude":119.8575},{"id":20377,"name":"Yingdu","latitude":24.97167,"longitude":118.24417},{"id":20379,"name":"Yinglin","latitude":24.63222,"longitude":118.58056},{"id":20387,"name":"Yongning","latitude":24.68,"longitude":118.69},{"id":20404,"name":"Yushan","latitude":26.90863,"longitude":118.56713},{"id":20425,"name":"Zhangwan","latitude":26.71139,"longitude":119.59194},{"id":20428,"name":"Zhangzhou","latitude":24.51333,"longitude":117.65556},{"id":20440,"name":"Zhenhaicun","latitude":24.25894,"longitude":118.09186},{"id":20450,"name":"Zhongfang","latitude":26.60083,"longitude":119.42583},{"id":20472,"name":"Zhuoyang","latitude":26.63003,"longitude":119.0215},{"id":20473,"name":"Zhuqi","latitude":26.1486,"longitude":119.10216}]