[{"id":65596,"name":"Akkol","latitude":51.99374,"longitude":70.94704},{"id":65597,"name":"Akkol’","latitude":53.29617,"longitude":69.59997},{"id":65600,"name":"Aksu","latitude":52.44422,"longitude":71.95761},{"id":65619,"name":"Astrakhan","latitude":51.53092,"longitude":69.79684},{"id":65624,"name":"Atbasar","latitude":51.80652,"longitude":68.35996},{"id":65632,"name":"Balkashino","latitude":52.51779,"longitude":68.7516},{"id":65647,"name":"Bestobe","latitude":52.49795,"longitude":73.09592},{"id":65665,"name":"Derzhavīnsk","latitude":51.09922,"longitude":66.31557},{"id":65672,"name":"Egindiköl","latitude":51.05412,"longitude":69.47928},{"id":65676,"name":"Esil","latitude":51.95495,"longitude":66.40841},{"id":65698,"name":"Kokshetau","latitude":53.28333,"longitude":69.4},{"id":65703,"name":"Krasnogorskiy","latitude":52.2456,"longitude":66.52081},{"id":65720,"name":"Makinsk","latitude":52.6329,"longitude":70.41911},{"id":65781,"name":"Shantobe","latitude":52.45376,"longitude":68.17475},{"id":65784,"name":"Shchuchinsk","latitude":52.93592,"longitude":70.18895},{"id":65787,"name":"Shortandy","latitude":51.69946,"longitude":70.99457},{"id":65796,"name":"Stepnogorsk","latitude":52.35062,"longitude":71.88161},{"id":65797,"name":"Stepnyak","latitude":52.83489,"longitude":70.78861},{"id":65830,"name":"Yermentau","latitude":51.62364,"longitude":73.10265},{"id":65832,"name":"Zavodskoy","latitude":52.47031,"longitude":72.01514},{"id":65840,"name":"Zhaqsy","latitude":51.91058,"longitude":67.31665},{"id":65847,"name":"Zholymbet","latitude":51.74211,"longitude":71.71245}]