[{"id":65962,"name":"Anse Cochon","latitude":13.92261,"longitude":-61.0525},{"id":65963,"name":"Anse Galet","latitude":13.93221,"longitude":-61.0429},{"id":65966,"name":"Anse La Verdue","latitude":13.90964,"longitude":-61.04755},{"id":66006,"name":"Belvedere","latitude":13.89122,"longitude":-61.0555},{"id":66063,"name":"Chalon","latitude":13.92018,"longitude":-61.04412},{"id":66359,"name":"Riverside Road","latitude":13.89408,"longitude":-61.04989},{"id":66397,"name":"Theodrine","latitude":13.92878,"longitude":-61.04972},{"id":66428,"name":"Village","latitude":13.90526,"longitude":-61.06108}]