[{"id":76815,"name":"Buga","latitude":8.49056,"longitude":7.34139},{"id":76845,"name":"Doma","latitude":8.39307,"longitude":8.35544},{"id":76982,"name":"Keffi","latitude":8.84651,"longitude":7.87354},{"id":77000,"name":"Lafia","latitude":8.4939,"longitude":8.51532},{"id":77038,"name":"Nasarawa","latitude":8.53895,"longitude":7.70821},{"id":77132,"name":"Wamba","latitude":8.94153,"longitude":8.60315}]