[{"id":153350,"name":"Adra","latitude":23.496015,"longitude":86.67249},{"id":141852,"name":"Ahmedpur","latitude":23.83009,"longitude":87.68661},{"id":141853,"name":"Aistala","latitude":23.18,"longitude":88.58},{"id":141854,"name":"Aknapur","latitude":18.38576389,"longitude":77.27225278},{"id":141855,"name":"Alipurduar","latitude":26.49136,"longitude":89.52796},{"id":142112,"name":"Amlagora","latitude":22.84616,"longitude":87.33559},{"id":141857,"name":"Amta","latitude":22.57333333,"longitude":88.01611111},{"id":141858,"name":"Amtala","latitude":22.22,"longitude":88.17},{"id":141859,"name":"Andal","latitude":23.6,"longitude":87.2},{"id":141860,"name":"Arambagh community development block","latitude":22.88,"longitude":87.78},{"id":141861,"name":"Asansol","latitude":23.68333333,"longitude":86.96666667},{"id":141862,"name":"Ashoknagar Kalyangarh","latitude":22.833,"longitude":88.633},{"id":141863,"name":"Badkulla","latitude":23.28,"longitude":88.53},{"id":141864,"name":"Baduria","latitude":22.74,"longitude":88.79},{"id":141865,"name":"Bagdogra","latitude":26.699804,"longitude":88.319392},{"id":141866,"name":"Bagnan","latitude":22.47,"longitude":87.97},{"id":141867,"name":"Bagula","latitude":23.335,"longitude":88.644},{"id":141868,"name":"Bahula","latitude":23.657419,"longitude":87.195974},{"id":141869,"name":"Baidyabati","latitude":22.79,"longitude":88.32},{"id":141870,"name":"Bakreswar","latitude":23.8832,"longitude":87.37265},{"id":141871,"name":"Balarampur","latitude":23.09714,"longitude":86.22292},{"id":141903,"name":"Bali Chak","latitude":22.36482,"longitude":87.55304},{"id":141872,"name":"Bally","latitude":22.65,"longitude":88.34},{"id":141873,"name":"Balurghat","latitude":25.21666667,"longitude":88.76666667},{"id":141874,"name":"Bamangola community development block","latitude":25.17,"longitude":88.335},{"id":141875,"name":"Baneswar","latitude":26.65,"longitude":89.81666667},{"id":141876,"name":"Bangaon","latitude":23.07,"longitude":88.82},{"id":141877,"name":"Bankra","latitude":22.63,"longitude":88.3},{"id":141878,"name":"Bankura","latitude":23.25,"longitude":87.06666667},{"id":141879,"name":"Bansberia","latitude":22.97,"longitude":88.4},{"id":141880,"name":"Bansihari community development block","latitude":25.4,"longitude":88.4167},{"id":141881,"name":"Barabazar","latitude":23.36,"longitude":86.65},{"id":141882,"name":"Baranagar","latitude":22.64,"longitude":88.37},{"id":141883,"name":"Barasat","latitude":22.23333333,"longitude":88.45},{"id":141884,"name":"Bardhaman","latitude":23.25,"longitude":87.85},{"id":141885,"name":"Barjora","latitude":23.43333333,"longitude":87.28333333},{"id":141886,"name":"Barrackpore","latitude":22.75,"longitude":88.36666667},{"id":141887,"name":"Baruipur","latitude":22.35,"longitude":88.44},{"id":141888,"name":"Basanti","latitude":22.1891534,"longitude":88.6705685},{"id":141889,"name":"Basirhat","latitude":22.65722222,"longitude":88.89416667},{"id":141904,"name":"Bawali","latitude":22.42563,"longitude":88.19336},{"id":141890,"name":"Begampur","latitude":22.74,"longitude":88.24},{"id":141891,"name":"Belda","latitude":22.08,"longitude":87.35},{"id":141892,"name":"Beldanga","latitude":23.93,"longitude":88.25},{"id":141893,"name":"Beliatore","latitude":23.33333333,"longitude":87.21666667},{"id":141894,"name":"Berhampore","latitude":24.1,"longitude":88.25},{"id":141895,"name":"Bhadreswar","latitude":22.82,"longitude":88.35},{"id":141896,"name":"Bhandardaha","latitude":22.62,"longitude":88.21},{"id":141897,"name":"Bhatpara","latitude":22.86666667,"longitude":88.41666667},{"id":141898,"name":"Birbhum district","latitude":24.0,"longitude":87.58333},{"id":141899,"name":"Birpara","latitude":26.5,"longitude":89.5},{"id":141900,"name":"Bishnupur","latitude":22.38,"longitude":88.27},{"id":141901,"name":"Bolpur","latitude":23.67,"longitude":87.72},{"id":141902,"name":"Budge Budge","latitude":22.47,"longitude":88.17},{"id":141905,"name":"Canning","latitude":22.32,"longitude":88.67},{"id":141906,"name":"Chakapara","latitude":22.63,"longitude":88.35},{"id":141907,"name":"Chakdaha","latitude":23.08,"longitude":88.52},{"id":141908,"name":"Champadanga","latitude":22.83,"longitude":87.96},{"id":141914,"name":"Champahati","latitude":22.40026,"longitude":88.49209},{"id":141909,"name":"Champdani","latitude":22.8,"longitude":88.37},{"id":141910,"name":"Chandannagar","latitude":22.86666667,"longitude":88.38333333},{"id":141911,"name":"Chandrakona","latitude":22.73,"longitude":87.52},{"id":141912,"name":"Chittaranjan","latitude":23.87,"longitude":86.87},{"id":141913,"name":"Churulia","latitude":23.78,"longitude":87.08},{"id":141915,"name":"Contai","latitude":21.78,"longitude":87.75},{"id":141916,"name":"Cooch Behar","latitude":26.31666667,"longitude":89.43333333},{"id":141917,"name":"Cossimbazar","latitude":24.12,"longitude":88.28},{"id":141918,"name":"Dakshin Dinajpur district","latitude":25.22,"longitude":88.76},{"id":141919,"name":"Dalkola","latitude":25.87577,"longitude":87.84009},{"id":141920,"name":"Dam Dam","latitude":22.63333333,"longitude":88.42277778},{"id":141921,"name":"Darjeeling","latitude":27.04166667,"longitude":88.26305556},{"id":141922,"name":"Daulatpur","latitude":25.32605,"longitude":88.32989},{"id":141923,"name":"Debagram","latitude":23.68333333,"longitude":88.28333333},{"id":141924,"name":"Debipur","latitude":24.25029,"longitude":88.61824},{"id":141925,"name":"Dhaniakhali community development block","latitude":22.97,"longitude":88.1},{"id":141926,"name":"Dhulagari","latitude":22.58222222,"longitude":88.17111111},{"id":141927,"name":"Dhulian","latitude":24.68,"longitude":87.97},{"id":141928,"name":"Dhupguri","latitude":26.6,"longitude":89.02},{"id":141929,"name":"Diamond Harbour","latitude":22.2,"longitude":88.2},{"id":141930,"name":"Digha","latitude":21.68,"longitude":87.55},{"id":141931,"name":"Dinhata","latitude":26.13,"longitude":89.47},{"id":141932,"name":"Domjur","latitude":22.64,"longitude":88.22},{"id":141933,"name":"Dubrajpur","latitude":23.8,"longitude":87.38},{"id":141934,"name":"Durgapur","latitude":23.55,"longitude":87.32},{"id":141935,"name":"Egra","latitude":21.9,"longitude":87.53},{"id":141936,"name":"Falakata","latitude":26.53,"longitude":89.2},{"id":141937,"name":"Farakka","latitude":24.81667,"longitude":87.9},{"id":141938,"name":"Fort Gloster","latitude":22.50444444,"longitude":88.18333333},{"id":141939,"name":"Gaighata community development block","latitude":22.93,"longitude":88.73},{"id":141940,"name":"Gairkata","latitude":26.68,"longitude":89.03},{"id":141941,"name":"Gangadharpur","latitude":22.7604,"longitude":88.2218},{"id":141942,"name":"Gangarampur","latitude":25.4,"longitude":88.52},{"id":141943,"name":"Garui","latitude":22.63333333,"longitude":88.4},{"id":141944,"name":"Garulia","latitude":22.82,"longitude":88.37},{"id":141945,"name":"Ghatal","latitude":22.67,"longitude":87.72},{"id":141946,"name":"Giria","latitude":24.51666667,"longitude":88.06666667},{"id":141947,"name":"Gobardanga","latitude":22.87,"longitude":88.76},{"id":141948,"name":"Gobindapur","latitude":22.59306,"longitude":88.09139},{"id":141950,"name":"Gopalpur","latitude":22.61845,"longitude":88.75119},{"id":141949,"name":"Gopinathpur","latitude":23.22,"longitude":88.15},{"id":141951,"name":"Gorubathan","latitude":26.97,"longitude":88.7},{"id":141952,"name":"Gosaba","latitude":22.16,"longitude":88.8},{"id":141953,"name":"Gosanimari","latitude":26.15,"longitude":89.36666667},{"id":141954,"name":"Gurdaha","latitude":22.73472222,"longitude":88.75944444},{"id":141955,"name":"Guskhara","latitude":23.49277778,"longitude":87.73472222},{"id":141956,"name":"Habra","latitude":22.83,"longitude":88.63},{"id":141957,"name":"Haldia","latitude":22.06046,"longitude":88.10975},{"id":141958,"name":"Haldibari","latitude":26.33,"longitude":88.77},{"id":141959,"name":"Halisahar","latitude":22.95,"longitude":88.42},{"id":141960,"name":"Harindanga","latitude":22.03333333,"longitude":88.31666667},{"id":141961,"name":"Haringhata","latitude":22.95,"longitude":88.57},{"id":141962,"name":"Haripur","latitude":22.93611,"longitude":88.23194},{"id":141963,"name":"Hasimara","latitude":26.75,"longitude":89.35},{"id":141964,"name":"Hindusthan Cables Town","latitude":23.82,"longitude":86.9},{"id":141965,"name":"Hooghly district","latitude":22.91,"longitude":88.39},{"id":141966,"name":"Howrah","latitude":22.57688,"longitude":88.31857},{"id":141967,"name":"Ichapur","latitude":22.80499,"longitude":88.37088},{"id":141968,"name":"Indpur community development block","latitude":23.1667,"longitude":86.9333},{"id":141969,"name":"Ingraj Bazar","latitude":25.00447,"longitude":88.14573},{"id":141970,"name":"Islampur","latitude":26.27,"longitude":88.2},{"id":141971,"name":"Jafarpur","latitude":22.32,"longitude":88.23},{"id":141972,"name":"Jaigaon","latitude":26.86666667,"longitude":89.38333333},{"id":141973,"name":"Jalpaiguri","latitude":26.51666667,"longitude":88.73333333},{"id":141974,"name":"Jamuria","latitude":23.7,"longitude":87.08},{"id":141975,"name":"Jangipur","latitude":24.47001,"longitude":88.07659},{"id":141976,"name":"Jaynagar Majilpur","latitude":22.17722222,"longitude":88.42583333},{"id":141977,"name":"Jejur","latitude":22.88,"longitude":88.12},{"id":141978,"name":"Jhalida","latitude":23.36541,"longitude":85.97581},{"id":141979,"name":"Jhargram","latitude":22.45,"longitude":86.98},{"id":141980,"name":"Jhilimili","latitude":22.8167,"longitude":86.6167},{"id":141981,"name":"Kakdwip","latitude":21.8833,"longitude":88.1833},{"id":141982,"name":"Kalaikunda","latitude":22.33916667,"longitude":87.22638889},{"id":141983,"name":"Kaliaganj","latitude":25.63,"longitude":88.32},{"id":141984,"name":"Kalimpong","latitude":27.07059,"longitude":88.47529},{"id":141985,"name":"Kalna","latitude":23.22,"longitude":88.37},{"id":141986,"name":"Kalyani","latitude":22.975,"longitude":88.43444444},{"id":141987,"name":"Kamarhati","latitude":22.67,"longitude":88.37},{"id":141988,"name":"Kamarpukur","latitude":22.91,"longitude":87.65},{"id":141989,"name":"Kanchrapara","latitude":22.97,"longitude":88.43},{"id":141990,"name":"Kandi","latitude":23.95,"longitude":88.03},{"id":141991,"name":"Karimpur","latitude":23.96666667,"longitude":88.61666667},{"id":141992,"name":"Katwa","latitude":23.65,"longitude":88.13},{"id":141993,"name":"Kenda","latitude":23.2,"longitude":86.53},{"id":141994,"name":"Keshabpur","latitude":22.97,"longitude":88.26},{"id":141995,"name":"Kharagpur","latitude":22.330239,"longitude":87.323653},{"id":141996,"name":"Kharar","latitude":22.7,"longitude":87.68},{"id":141997,"name":"Kharba","latitude":25.42,"longitude":88.07},{"id":141998,"name":"Khardaha","latitude":22.72,"longitude":88.38},{"id":141999,"name":"Khatra","latitude":22.98,"longitude":86.85},{"id":142000,"name":"Kirnahar","latitude":23.75,"longitude":87.87},{"id":142001,"name":"Kolkata","latitude":22.54111111,"longitude":88.33777778},{"id":142002,"name":"Konnagar","latitude":22.7,"longitude":88.35},{"id":142003,"name":"Krishnanagar","latitude":23.4,"longitude":88.5},{"id":142004,"name":"Krishnapur","latitude":22.67,"longitude":88.26},{"id":142005,"name":"Kshirpai","latitude":22.7109664,"longitude":87.6174038},{"id":142006,"name":"Kulpi","latitude":22.08,"longitude":88.24},{"id":142007,"name":"Kultali","latitude":21.9,"longitude":88.4},{"id":142008,"name":"Kulti","latitude":23.73,"longitude":86.85},{"id":142009,"name":"Kurseong","latitude":26.88,"longitude":88.28},{"id":142010,"name":"Lalgarh","latitude":22.58,"longitude":87.05},{"id":142011,"name":"Lalgola","latitude":24.42,"longitude":88.25},{"id":142012,"name":"Loyabad","latitude":23.67,"longitude":86.67},{"id":142013,"name":"Madanpur","latitude":23.02,"longitude":88.48},{"id":142014,"name":"Madhyamgram","latitude":22.7,"longitude":88.45},{"id":142015,"name":"Mahiari","latitude":22.59,"longitude":88.24},{"id":142016,"name":"Mahishadal community development block","latitude":22.183333,"longitude":87.983333},{"id":142017,"name":"Mainaguri","latitude":26.57,"longitude":88.82},{"id":142018,"name":"Manikpara","latitude":22.36666667,"longitude":87.11666667},{"id":142019,"name":"Masila","latitude":22.58083,"longitude":88.23278},{"id":142020,"name":"Mathabhanga","latitude":26.34197,"longitude":89.21555},{"id":142021,"name":"Matiali community development block","latitude":26.927159,"longitude":88.8133049},{"id":142022,"name":"Matigara community development block","latitude":26.716667,"longitude":88.383333},{"id":142023,"name":"Medinipur","latitude":22.43333333,"longitude":87.33333333},{"id":142024,"name":"Mejia community development block","latitude":23.57,"longitude":87.1},{"id":142025,"name":"Memari","latitude":23.2,"longitude":88.12},{"id":142026,"name":"Mirik","latitude":26.887,"longitude":88.187},{"id":142027,"name":"Mohanpur community development block","latitude":21.83856,"longitude":87.43145},{"id":142028,"name":"Monoharpur","latitude":22.68,"longitude":88.3},{"id":142029,"name":"Muragacha","latitude":23.53631,"longitude":88.39425},{"id":142030,"name":"Muri","latitude":23.37,"longitude":85.86},{"id":142031,"name":"Murshidabad","latitude":24.18,"longitude":88.27},{"id":142032,"name":"Nabadwip","latitude":23.40722222,"longitude":88.37777778},{"id":142033,"name":"Nabagram","latitude":22.29,"longitude":88.51},{"id":142034,"name":"Nadia district","latitude":23.4,"longitude":88.5},{"id":142035,"name":"Nagarukhra","latitude":22.94099,"longitude":88.63701},{"id":142036,"name":"Nagrakata","latitude":26.9,"longitude":88.9667},{"id":142037,"name":"Naihati","latitude":22.9,"longitude":88.42},{"id":142038,"name":"Naksalbari","latitude":26.68333333,"longitude":88.21666667},{"id":142039,"name":"Nalhati","latitude":24.3,"longitude":87.82},{"id":142040,"name":"Nalpur","latitude":22.53,"longitude":88.19},{"id":142041,"name":"Namkhana community development block","latitude":21.7,"longitude":88.14},{"id":142042,"name":"Nandigram","latitude":22.01,"longitude":87.99},{"id":142043,"name":"Nangi","latitude":22.50833333,"longitude":88.21527778},{"id":142044,"name":"Nayagram community development block","latitude":22.0319,"longitude":87.1781},{"id":142045,"name":"North 24 Parganas district","latitude":22.13,"longitude":88.5},{"id":142046,"name":"Odlabari","latitude":26.83638889,"longitude":88.62944444},{"id":142047,"name":"Paikpara","latitude":24.77121,"longitude":87.92251},{"id":142048,"name":"Panagarh","latitude":23.45,"longitude":87.43},{"id":142049,"name":"Panchla","latitude":22.54,"longitude":88.14},{"id":142050,"name":"Panchmura","latitude":22.9667,"longitude":87.1667},{"id":142051,"name":"Pandua","latitude":23.08,"longitude":88.28},{"id":142052,"name":"Panihati","latitude":22.69,"longitude":88.37},{"id":142053,"name":"Panskura","latitude":22.42,"longitude":87.7},{"id":142054,"name":"Parbatipur","latitude":22.6625,"longitude":88.22222},{"id":142055,"name":"Paschim Medinipur district","latitude":22.43333333,"longitude":87.33333333},{"id":142056,"name":"Patiram","latitude":25.31666667,"longitude":88.75},{"id":142062,"name":"Patrasaer","latitude":23.19697,"longitude":87.53319},{"id":142057,"name":"Patuli","latitude":23.55,"longitude":88.25},{"id":142058,"name":"Pujali","latitude":22.47,"longitude":88.15},{"id":142059,"name":"Puncha community development block","latitude":23.123,"longitude":86.653},{"id":142060,"name":"Purba Medinipur district","latitude":22.3,"longitude":87.91666667},{"id":142061,"name":"Purulia","latitude":23.33333333,"longitude":86.36666667},{"id":142063,"name":"Raghudebbati","latitude":22.53,"longitude":88.2},{"id":142064,"name":"Raghunathpur","latitude":23.55,"longitude":86.67},{"id":142065,"name":"Raiganj","latitude":25.61666667,"longitude":88.11666667},{"id":142066,"name":"Rajmahal","latitude":25.05,"longitude":87.84},{"id":142067,"name":"Rajnagar community development block","latitude":23.9472,"longitude":87.3625},{"id":142068,"name":"Ramchandrapur","latitude":22.9,"longitude":88.48},{"id":142069,"name":"Ramjibanpur","latitude":22.83,"longitude":87.62},{"id":142075,"name":"Ramnagar","latitude":22.77778,"longitude":88.24639},{"id":142070,"name":"Rampur Hat","latitude":24.17737,"longitude":87.78275},{"id":142071,"name":"Ranaghat","latitude":23.18,"longitude":88.58},{"id":142072,"name":"Raniganj","latitude":23.62,"longitude":87.13},{"id":142073,"name":"Raypur","latitude":22.41083,"longitude":88.50944},{"id":142074,"name":"Rishra","latitude":22.71,"longitude":88.35},{"id":142076,"name":"Sahapur","latitude":22.52,"longitude":88.17},{"id":142077,"name":"Sainthia","latitude":23.95,"longitude":87.67},{"id":142078,"name":"Salanpur community development block","latitude":23.76702,"longitude":86.87492},{"id":142079,"name":"Sankarpur","latitude":23.6,"longitude":87.2},{"id":142080,"name":"Sankrail","latitude":22.57,"longitude":88.24},{"id":142081,"name":"Santipur","latitude":23.25,"longitude":88.43},{"id":142082,"name":"Santoshpur","latitude":22.5,"longitude":88.17},{"id":142083,"name":"Santuri community development block","latitude":23.5272,"longitude":86.85709},{"id":142084,"name":"Sarenga","latitude":22.54,"longitude":88.21},{"id":142085,"name":"Serampore","latitude":22.75,"longitude":88.34},{"id":142086,"name":"Serpur","latitude":24.13,"longitude":88.0},{"id":142087,"name":"Shyamnagar West Bengal","latitude":22.83,"longitude":88.37},{"id":142088,"name":"Siliguri","latitude":26.71004,"longitude":88.42851},{"id":142089,"name":"Singur","latitude":22.81,"longitude":88.23},{"id":142090,"name":"Sodpur","latitude":22.70416667,"longitude":88.39166667},{"id":142091,"name":"Solap","latitude":22.12777778,"longitude":88.15861111},{"id":142092,"name":"Sonada","latitude":27.0,"longitude":88.14},{"id":142093,"name":"Sonamukhi","latitude":23.3,"longitude":87.42},{"id":142094,"name":"Sonarpur community development block","latitude":22.44259,"longitude":88.43044},{"id":142095,"name":"South 24 Parganas district","latitude":22.16197,"longitude":88.4317},{"id":142096,"name":"Srikhanda","latitude":23.6,"longitude":88.0833},{"id":142097,"name":"Srirampur","latitude":23.35,"longitude":88.12},{"id":142098,"name":"Suri","latitude":23.91666667,"longitude":87.53333333},{"id":142099,"name":"Swarupnagar community development block","latitude":22.8333,"longitude":88.8667},{"id":142100,"name":"Takdah","latitude":27.0333,"longitude":88.3667},{"id":142101,"name":"Taki","latitude":22.59,"longitude":88.92},{"id":142102,"name":"Tamluk","latitude":22.3,"longitude":87.91666667},{"id":142103,"name":"Tarakeswar","latitude":22.89,"longitude":88.02},{"id":142104,"name":"Titagarh","latitude":22.74,"longitude":88.37},{"id":142105,"name":"Tufanganj","latitude":26.32,"longitude":89.67},{"id":142106,"name":"Tulin","latitude":23.37,"longitude":85.9},{"id":142107,"name":"Uchalan","latitude":23.0333,"longitude":87.7833},{"id":142108,"name":"Ula","latitude":22.7225,"longitude":88.55556},{"id":142109,"name":"Uluberia","latitude":22.47,"longitude":88.11},{"id":142110,"name":"Uttar Dinajpur district","latitude":25.62,"longitude":88.12},{"id":142111,"name":"Uttarpara Kotrung","latitude":22.67,"longitude":88.35}]