[{"id":109362,"name":"Belaya","latitude":49.029,"longitude":25.77059},{"id":109434,"name":"Borshchiv","latitude":48.80332,"longitude":26.04347},{"id":109457,"name":"Buchach","latitude":49.06254,"longitude":25.38798},{"id":109517,"name":"Chortkiv","latitude":49.01709,"longitude":25.79804},{"id":109579,"name":"Druzhba","latitude":49.04251,"longitude":25.45055},{"id":109657,"name":"Hrymayliv","latitude":49.33208,"longitude":26.01112},{"id":109662,"name":"Husiatyn","latitude":49.0729,"longitude":26.1848},{"id":109738,"name":"Khorostkiv","latitude":49.21114,"longitude":25.92165},{"id":109793,"name":"Kopychyntsi","latitude":49.10441,"longitude":25.91026},{"id":109826,"name":"Kozova","latitude":49.43544,"longitude":25.15086},{"id":109858,"name":"Kremenets","latitude":50.09693,"longitude":25.72459},{"id":109904,"name":"Lanivtsi","latitude":49.86328,"longitude":26.09082},{"id":110029,"name":"Mikulintsy","latitude":49.396,"longitude":25.60518},{"id":110163,"name":"Nyrkiv","latitude":48.81492,"longitude":25.59989},{"id":110216,"name":"Ozerna","latitude":49.62891,"longitude":25.32895},{"id":110256,"name":"Petrikov","latitude":49.53122,"longitude":25.57901},{"id":110265,"name":"Pidhaytsi","latitude":49.26853,"longitude":25.13341},{"id":110270,"name":"Pidvolochysk","latitude":49.53472,"longitude":26.14585},{"id":110282,"name":"Pochaiv","latitude":50.00509,"longitude":25.51183},{"id":110467,"name":"Skala-Podil’s’ka","latitude":48.85149,"longitude":26.19909},{"id":110468,"name":"Skalat","latitude":49.42732,"longitude":25.97869},{"id":110601,"name":"Terebovlya","latitude":49.30187,"longitude":25.70997},{"id":110602,"name":"Ternopil","latitude":49.55342,"longitude":25.58918},{"id":110619,"name":"Tovste","latitude":48.84663,"longitude":25.72621},{"id":110682,"name":"Velikiye Borki","latitude":49.52363,"longitude":25.75753},{"id":110772,"name":"Yahil’nytsya","latitude":48.94248,"longitude":25.74375},{"id":110814,"name":"Zalishchyky","latitude":48.64331,"longitude":25.73794},{"id":110818,"name":"Zaliztsi","latitude":49.79188,"longitude":25.37297},{"id":110831,"name":"Zbarazh","latitude":49.66357,"longitude":25.77616},{"id":110832,"name":"Zboriv","latitude":49.66484,"longitude":25.14097},{"id":110863,"name":"Zolotyy Potik","latitude":48.9095,"longitude":25.33926},{"id":110873,"name":"Бережани","latitude":49.45,"longitude":24.93333}]