[{"id":107254,"name":"Babaeski","latitude":41.4325,"longitude":27.09306},{"id":107463,"name":"Demirköy İlçesi","latitude":41.83567,"longitude":27.77137},{"id":108106,"name":"Kırklareli","latitude":41.73508,"longitude":27.22521},{"id":108011,"name":"Kofçaz","latitude":41.94481,"longitude":27.15829},{"id":108136,"name":"Lüleburgaz İlçesi","latitude":41.41495,"longitude":27.37325},{"id":108333,"name":"Pehlivanköy","latitude":41.34812,"longitude":26.92522},{"id":108362,"name":"Pınarhisar","latitude":41.62417,"longitude":27.52},{"id":108875,"name":"Üsküp","latitude":41.73583,"longitude":27.40528},{"id":108655,"name":"Vize","latitude":41.5725,"longitude":27.76583}]