[{"id":289,"name":"Aghavnatun","latitude":40.2333,"longitude":44.25295},{"id":292,"name":"Aknalich","latitude":40.14728,"longitude":44.16669},{"id":293,"name":"Aknashen","latitude":40.09551,"longitude":44.28604},{"id":297,"name":"Alashkert","latitude":40.10712,"longitude":44.05108},{"id":302,"name":"Apaga","latitude":40.09729,"longitude":44.25293},{"id":306,"name":"Arak’s","latitude":40.05548,"longitude":44.30292},{"id":310,"name":"Arazap’","latitude":40.04169,"longitude":44.14728},{"id":311,"name":"Arbat’","latitude":40.13892,"longitude":44.40289},{"id":315,"name":"Arevashat","latitude":40.14447,"longitude":44.37512},{"id":317,"name":"Arevik","latitude":40.1001,"longitude":44.09448},{"id":322,"name":"Argavand","latitude":40.0611,"longitude":44.09448},{"id":325,"name":"Armavir","latitude":40.15446,"longitude":44.03815},{"id":327,"name":"Arshaluys","latitude":40.16949,"longitude":44.21393},{"id":330,"name":"Artimet","latitude":40.15008,"longitude":44.26672},{"id":340,"name":"Aygek","latitude":40.1889,"longitude":44.38611},{"id":342,"name":"Aygeshat","latitude":40.07507,"longitude":44.0611},{"id":347,"name":"Baghramyan","latitude":40.19452,"longitude":44.36951},{"id":350,"name":"Bambakashat","latitude":40.10828,"longitude":44.01947},{"id":367,"name":"Dalarik","latitude":40.2279,"longitude":43.87793},{"id":374,"name":"Doghs","latitude":40.22229,"longitude":44.27228},{"id":388,"name":"Gay","latitude":40.08444,"longitude":44.30528},{"id":389,"name":"Geghakert","latitude":40.18516,"longitude":44.24331},{"id":392,"name":"Geghanist","latitude":40.14587,"longitude":44.43048},{"id":394,"name":"Getashen","latitude":40.04449,"longitude":43.94171},{"id":398,"name":"Gmbet’","latitude":40.22369,"longitude":44.25409},{"id":403,"name":"Griboyedov","latitude":40.11307,"longitude":44.27169},{"id":410,"name":"Haykashen","latitude":40.07233,"longitude":44.30829},{"id":414,"name":"Hovtamej","latitude":40.18329,"longitude":44.25848},{"id":419,"name":"Janfida","latitude":40.04449,"longitude":44.02789},{"id":433,"name":"Khoronk’","latitude":40.13611,"longitude":44.24731},{"id":440,"name":"Lenughi","latitude":40.12512,"longitude":43.96393},{"id":448,"name":"Lukashin","latitude":40.18726,"longitude":44.0039},{"id":454,"name":"Margara","latitude":40.03332,"longitude":44.18048},{"id":461,"name":"Mayisyan","latitude":40.15701,"longitude":44.09192},{"id":465,"name":"Merdzavan","latitude":40.1814,"longitude":44.40033},{"id":469,"name":"Metsamor","latitude":40.14447,"longitude":44.1167},{"id":473,"name":"Mrgashat","latitude":40.13068,"longitude":44.08069},{"id":477,"name":"Musalerr","latitude":40.1557,"longitude":44.37793},{"id":478,"name":"Myasnikyan","latitude":40.18048,"longitude":43.91949},{"id":479,"name":"Nalbandyan","latitude":40.0639,"longitude":43.98889},{"id":483,"name":"Nor Armavir","latitude":40.08612,"longitude":43.99451},{"id":488,"name":"Norakert","latitude":40.19733,"longitude":44.3501},{"id":504,"name":"P’shatavan","latitude":40.03888,"longitude":44.06671},{"id":502,"name":"Ptghunk’","latitude":40.16388,"longitude":44.36389},{"id":509,"name":"Sardarapat","latitude":40.13206,"longitude":44.00969},{"id":519,"name":"Shenavan","latitude":40.05548,"longitude":43.93048},{"id":532,"name":"Tandzut","latitude":40.06952,"longitude":44.07788},{"id":533,"name":"Taronik","latitude":40.13367,"longitude":44.19957},{"id":539,"name":"Tsaghkunk’","latitude":40.18048,"longitude":44.27228},{"id":540,"name":"Tsiatsan","latitude":40.1861,"longitude":44.26947},{"id":549,"name":"Vagharshapat","latitude":40.16557,"longitude":44.29462},{"id":567,"name":"Voskehat","latitude":40.14172,"longitude":44.33069},{"id":575,"name":"Yeghegnut","latitude":40.08893,"longitude":44.16669},{"id":579,"name":"Yeraskhahun","latitude":40.07233,"longitude":44.21948}]