[{"id":107549,"name":"Edirne","latitude":41.67719,"longitude":26.55597},{"id":107580,"name":"Enez","latitude":40.72472,"longitude":26.0825},{"id":107807,"name":"Havsa","latitude":41.54898,"longitude":26.82207},{"id":108909,"name":"İpsala","latitude":40.92115,"longitude":26.38273},{"id":107992,"name":"Keşan","latitude":40.85583,"longitude":26.63028},{"id":108087,"name":"Küplü","latitude":41.10694,"longitude":26.35194},{"id":108133,"name":"Lâlapaşa","latitude":41.83951,"longitude":26.73561},{"id":108176,"name":"Meriç","latitude":41.19183,"longitude":26.42097},{"id":108523,"name":"Süloğlu İlçesi","latitude":41.77956,"longitude":26.92602},{"id":108640,"name":"Uzunköprü","latitude":41.26597,"longitude":26.6885}]