[{"id":31052,"name":"Cristóbal","latitude":18.29405,"longitude":-71.29298},{"id":31055,"name":"Duvergé","latitude":18.31634,"longitude":-71.59451},{"id":31079,"name":"Guayabal","latitude":18.5981,"longitude":-71.64184},{"id":31094,"name":"Jimaní","latitude":18.49169,"longitude":-71.85022},{"id":31105,"name":"La Descubierta","latitude":18.57053,"longitude":-71.72967},{"id":31130,"name":"Mella","latitude":18.35871,"longitude":-71.41716},{"id":31159,"name":"Postrer Río","latitude":18.54374,"longitude":-71.63561}]