[{"id":31020,"name":"Altamira","latitude":19.7,"longitude":-70.83333},{"id":31035,"name":"Cabarete","latitude":19.74982,"longitude":-70.40829},{"id":31071,"name":"Estero Hondo","latitude":19.82712,"longitude":-71.17411},{"id":31077,"name":"Guananico","latitude":19.72693,"longitude":-70.92294},{"id":31087,"name":"Imbert","latitude":19.75371,"longitude":-70.82906},{"id":31120,"name":"Los Hidalgos","latitude":19.73333,"longitude":-71.03333},{"id":31123,"name":"Luperón","latitude":19.89131,"longitude":-70.96204},{"id":31135,"name":"Monte Llano","latitude":19.7346,"longitude":-70.59915},{"id":31161,"name":"Puerto Plata","latitude":19.75119,"longitude":-70.70251},{"id":31167,"name":"Río Grande","latitude":19.66667,"longitude":-70.76667},{"id":31201,"name":"Sosúa","latitude":19.7522,"longitude":-70.51995},{"id":31217,"name":"Villa Isabela","latitude":19.81564,"longitude":-71.06056}]