[{"id":31302,"name":"Chelghoum el Aïd","latitude":36.16286,"longitude":6.16651},{"id":31387,"name":"Mila","latitude":36.45028,"longitude":6.26444},{"id":31412,"name":"Rouached","latitude":36.45774,"longitude":6.04267},{"id":31429,"name":"Sidi Mérouane","latitude":36.52056,"longitude":6.26111},{"id":31446,"name":"Telerghma","latitude":36.11653,"longitude":6.35434}]