[{"id":107109,"name":"Akçakent İlçesi","latitude":39.63184,"longitude":34.08468},{"id":107089,"name":"Akpınar","latitude":39.45005,"longitude":33.96484},{"id":107390,"name":"Boztepe İlçesi","latitude":39.27979,"longitude":34.26657},{"id":108838,"name":"Çiçekdağı","latitude":39.60694,"longitude":34.40861},{"id":107879,"name":"Kaman","latitude":39.3575,"longitude":33.72389},{"id":108110,"name":"Kırşehir","latitude":39.14583,"longitude":34.16389},{"id":108215,"name":"Mucur","latitude":39.06147,"longitude":34.38286}]