[{"id":97504,"name":"Admiralteisky","latitude":59.90839,"longitude":30.28484},{"id":97570,"name":"Aleksandrovskaya","latitude":59.73083,"longitude":30.33222},{"id":97724,"name":"Avtovo","latitude":59.87167,"longitude":30.26583},{"id":97859,"name":"Beloostrov","latitude":60.15118,"longitude":30.00151},{"id":98105,"name":"Centralniy","latitude":59.93111,"longitude":30.36072},{"id":98231,"name":"Dachnoye","latitude":59.84167,"longitude":30.25583},{"id":98438,"name":"Frunzenskiy Rayon","latitude":59.8719,"longitude":30.37891},{"id":98523,"name":"Gorelovo","latitude":59.77234,"longitude":30.13455},{"id":98579,"name":"Grazhdanka","latitude":60.03587,"longitude":30.40518},{"id":99144,"name":"Kolomyagi","latitude":60.02427,"longitude":30.28491},{"id":99147,"name":"Kolpino","latitude":59.75069,"longitude":30.58856},{"id":99161,"name":"Komarovo","latitude":60.1866,"longitude":29.80865},{"id":99162,"name":"Komendantsky aerodrom","latitude":60.00448,"longitude":30.27523},{"id":99319,"name":"Krasnogvargeisky","latitude":59.97305,"longitude":30.47607},{"id":99353,"name":"Krasnoye Selo","latitude":59.73833,"longitude":30.08944},{"id":99397,"name":"Kronshtadt","latitude":59.99541,"longitude":29.76668},{"id":99450,"name":"Kupchino","latitude":59.85278,"longitude":30.35667},{"id":99470,"name":"Kurortnyy Rayon","latitude":60.17601,"longitude":29.87389},{"id":99486,"name":"Kushelevka","latitude":59.99333,"longitude":30.36389},{"id":99539,"name":"Lakhtinskiy","latitude":59.99521,"longitude":30.14717},{"id":99614,"name":"Levashovo","latitude":60.10369,"longitude":30.20683},{"id":99636,"name":"Lisiy Nos","latitude":60.01686,"longitude":30.02008},{"id":99657,"name":"Lomonosov","latitude":59.90612,"longitude":29.77253},{"id":99873,"name":"Metallostroy","latitude":59.80083,"longitude":30.54778},{"id":99951,"name":"Molodezhnoye","latitude":60.19803,"longitude":29.51597},{"id":100203,"name":"Novaya Derevnya","latitude":59.98748,"longitude":30.28682},{"id":100392,"name":"Obukhovo","latitude":59.84389,"longitude":30.45111},{"id":100433,"name":"Ol’gino","latitude":60.00928,"longitude":30.11559},{"id":100517,"name":"Ozerki","latitude":60.03947,"longitude":30.31128},{"id":100549,"name":"Pargolovo","latitude":60.0812,"longitude":30.27626},{"id":100571,"name":"Pavlovsk","latitude":59.68333,"longitude":30.43472},{"id":100637,"name":"Pesochnyy","latitude":60.12295,"longitude":30.16404},{"id":100645,"name":"Peterhof","latitude":59.88333,"longitude":29.9},{"id":100647,"name":"Petro-Slavyanka","latitude":59.80222,"longitude":30.50694},{"id":100648,"name":"Petrodvorets","latitude":59.89565,"longitude":29.80145},{"id":100649,"name":"Petrogradka","latitude":59.96567,"longitude":30.31154},{"id":100769,"name":"Pontonnyy","latitude":59.78667,"longitude":30.61528},{"id":100833,"name":"Primorskiy Rayon","latitude":59.99624,"longitude":30.2409},{"id":100896,"name":"Pushkin","latitude":59.71417,"longitude":30.39642},{"id":100951,"name":"Razliv","latitude":60.07919,"longitude":29.97206},{"id":100961,"name":"Repino","latitude":60.17217,"longitude":29.86908},{"id":101074,"name":"Saint Petersburg","latitude":59.93863,"longitude":30.31413},{"id":101104,"name":"Sapërnyy","latitude":59.77611,"longitude":30.66139},{"id":101199,"name":"Sestroretsk","latitude":60.09801,"longitude":29.96378},{"id":101355,"name":"Shushary","latitude":59.80917,"longitude":30.38167},{"id":101359,"name":"Shuvalovo","latitude":60.04903,"longitude":30.2936},{"id":101455,"name":"Solnechnoye","latitude":60.15612,"longitude":29.94753},{"id":101485,"name":"Sosnovaya Polyana","latitude":59.83528,"longitude":30.14667},{"id":101486,"name":"Sosnovka","latitude":60.01667,"longitude":30.35},{"id":101558,"name":"Staraya Derevnya","latitude":59.98834,"longitude":30.24296},{"id":101624,"name":"Strel'na","latitude":59.85189,"longitude":30.03611},{"id":101774,"name":"Tarkhovka","latitude":60.06687,"longitude":29.97435},{"id":101989,"name":"Tyarlevo","latitude":59.70777,"longitude":30.44543},{"id":102077,"name":"Uritsk","latitude":59.83889,"longitude":30.17528},{"id":102122,"name":"Ust’-Izhora","latitude":59.81194,"longitude":30.58139},{"id":102196,"name":"Vasileostrovskiy Rayon","latitude":59.93971,"longitude":30.26115},{"id":102201,"name":"Vasyl'evsky Ostrov","latitude":59.94091,"longitude":30.25377},{"id":102695,"name":"Zelenogorsk","latitude":60.19968,"longitude":29.70183}]