[{"id":1603,"name":"Abtenau","latitude":47.56373,"longitude":13.34599},{"id":1611,"name":"Adnet","latitude":47.69746,"longitude":13.13115},{"id":1644,"name":"Altenmarkt im Pongau","latitude":47.38333,"longitude":13.41667},{"id":1663,"name":"Anger","latitude":47.15593,"longitude":13.10592},{"id":1667,"name":"Anif","latitude":47.75,"longitude":13.06667},{"id":1672,"name":"Anthering","latitude":47.88333,"longitude":13.01667},{"id":1702,"name":"Au","latitude":47.7,"longitude":13.06667},{"id":1722,"name":"Bad Gastein","latitude":47.11547,"longitude":13.13467},{"id":1726,"name":"Bad Hofgastein","latitude":47.17274,"longitude":13.09871},{"id":1758,"name":"Bergheim","latitude":47.83333,"longitude":13.03333},{"id":1763,"name":"Berndorf bei Salzburg","latitude":47.99532,"longitude":13.06146},{"id":1777,"name":"Bischofshofen","latitude":47.41667,"longitude":13.21667},{"id":1789,"name":"Bramberg am Wildkogel","latitude":47.26979,"longitude":12.3385},{"id":1808,"name":"Bruck an der Großglocknerstraße","latitude":47.28494,"longitude":12.8231},{"id":1821,"name":"Burgfried","latitude":47.68004,"longitude":13.11175},{"id":1826,"name":"Bürmoos","latitude":47.98343,"longitude":12.91786},{"id":1848,"name":"Dienten am Hochkönig","latitude":47.38324,"longitude":13.00369},{"id":1862,"name":"Dorfbeuern","latitude":48.01667,"longitude":13.01667},{"id":1863,"name":"Dorfgastein","latitude":47.24172,"longitude":13.10223},{"id":1882,"name":"Eben im Pongau","latitude":47.4,"longitude":13.4},{"id":1883,"name":"Ebenau","latitude":47.79073,"longitude":13.17527},{"id":1896,"name":"Eching","latitude":47.97263,"longitude":12.88786},{"id":1929,"name":"Elixhausen","latitude":47.86667,"longitude":13.06667},{"id":1933,"name":"Elsbethen","latitude":47.76464,"longitude":13.08104},{"id":1953,"name":"Esch","latitude":47.8403,"longitude":13.09223},{"id":1955,"name":"Eugendorf","latitude":47.86765,"longitude":13.12609},{"id":1958,"name":"Faistenau","latitude":47.77767,"longitude":13.23393},{"id":1986,"name":"Filzmoos","latitude":47.43333,"longitude":13.51667},{"id":1994,"name":"Flachau","latitude":47.34406,"longitude":13.39148},{"id":2007,"name":"Forstau","latitude":47.37842,"longitude":13.55558},{"id":2031,"name":"Fuschl am See","latitude":47.8,"longitude":13.3},{"id":2072,"name":"Georgenberg","latitude":47.63333,"longitude":13.15},{"id":2082,"name":"Glanegg","latitude":47.75,"longitude":13.0},{"id":2084,"name":"Glasenbach","latitude":47.76667,"longitude":13.08333},{"id":2103,"name":"Golling an der Salzach","latitude":47.6,"longitude":13.16667},{"id":2166,"name":"Grödig","latitude":47.73833,"longitude":13.0373},{"id":2139,"name":"Grossarl","latitude":47.23333,"longitude":13.2},{"id":2140,"name":"Grossgmain","latitude":47.72416,"longitude":12.90851},{"id":2202,"name":"Habach","latitude":47.81753,"longitude":13.16252},{"id":2225,"name":"Hallein","latitude":47.68333,"longitude":13.1},{"id":2226,"name":"Hallwang","latitude":47.85,"longitude":13.08333},{"id":2269,"name":"Henndorf am Wallersee","latitude":47.9,"longitude":13.18333},{"id":2283,"name":"Himmelreich","latitude":47.8,"longitude":12.98333},{"id":2286,"name":"Hinterglemm","latitude":47.37685,"longitude":12.59583},{"id":2288,"name":"Hintersee","latitude":47.7,"longitude":13.28333},{"id":2304,"name":"Hof","latitude":47.35,"longitude":13.31667},{"id":2306,"name":"Hof bei Salzburg","latitude":47.81929,"longitude":13.21488},{"id":2325,"name":"Hollersbach im Pinzgau","latitude":47.27658,"longitude":12.42326},{"id":2347,"name":"Hüttau","latitude":47.4161,"longitude":13.30775},{"id":2349,"name":"Hüttschlag","latitude":47.17635,"longitude":13.23239},{"id":2366,"name":"Irrsdorf","latitude":47.96667,"longitude":13.28333},{"id":2404,"name":"Kaprun","latitude":47.27239,"longitude":12.75985},{"id":2452,"name":"Kleinarl","latitude":47.27725,"longitude":13.31955},{"id":2475,"name":"Koppl","latitude":47.80808,"longitude":13.15561},{"id":2513,"name":"Köstendorf","latitude":47.95,"longitude":13.2},{"id":2489,"name":"Krimml","latitude":47.21799,"longitude":12.17487},{"id":2490,"name":"Krispl","latitude":47.71667,"longitude":13.18333},{"id":2502,"name":"Kuchl","latitude":47.62647,"longitude":13.1448},{"id":2529,"name":"Lamprechtshausen","latitude":47.99098,"longitude":12.95481},{"id":2562,"name":"Lehen","latitude":47.87083,"longitude":13.01722},{"id":2572,"name":"Lend","latitude":47.29856,"longitude":13.05176},{"id":2576,"name":"Lengfelden","latitude":47.85,"longitude":13.05},{"id":2581,"name":"Leogang","latitude":47.43906,"longitude":12.76109},{"id":2609,"name":"Lofer","latitude":47.58475,"longitude":12.69333},{"id":2627,"name":"Maishofen","latitude":47.36667,"longitude":12.8},{"id":2639,"name":"Maria Alm am Steinernen Meer","latitude":47.40579,"longitude":12.90121},{"id":2653,"name":"Mariapfarr","latitude":47.15,"longitude":13.75},{"id":2671,"name":"Mattsee","latitude":47.96667,"longitude":13.1},{"id":2681,"name":"Mauterndorf","latitude":47.13451,"longitude":13.67884},{"id":2709,"name":"Mitterberghütten","latitude":47.4,"longitude":13.21667},{"id":2712,"name":"Mitterhofen","latitude":47.38333,"longitude":12.8},{"id":2719,"name":"Mittersill","latitude":47.28333,"longitude":12.48333},{"id":2752,"name":"Mühlbach am Hochkönig","latitude":47.37746,"longitude":13.12926},{"id":2784,"name":"Neualm","latitude":47.69336,"longitude":13.08758},{"id":2799,"name":"Neukirchen am Großvenediger","latitude":47.25046,"longitude":12.27585},{"id":2804,"name":"Neumarkt am Wallersee","latitude":47.95,"longitude":13.23333},{"id":2820,"name":"Niederalm","latitude":47.72872,"longitude":13.06223},{"id":2828,"name":"Niedernsill","latitude":47.28333,"longitude":12.65},{"id":2838,"name":"Nußdorf am Haunsberg","latitude":47.95944,"longitude":13.00917},{"id":2845,"name":"Oberalm","latitude":47.7,"longitude":13.1},{"id":2850,"name":"Obergäu","latitude":47.58955,"longitude":13.17621},{"id":2864,"name":"Oberndorf bei Salzburg","latitude":47.95,"longitude":12.93333},{"id":2878,"name":"Obertrum am See","latitude":47.93722,"longitude":13.07722},{"id":2957,"name":"Pfarrwerfen","latitude":47.45729,"longitude":13.20531},{"id":2963,"name":"Pichl","latitude":47.28333,"longitude":12.85},{"id":2967,"name":"Piesendorf","latitude":47.29077,"longitude":12.71839},{"id":2982,"name":"Plainfeld","latitude":47.83333,"longitude":13.18333},{"id":2983,"name":"Plankenau","latitude":47.32673,"longitude":13.19282},{"id":3006,"name":"Politischer Bezirk Hallein","latitude":47.6,"longitude":13.3},{"id":3041,"name":"Politischer Bezirk Salzburg-Umgebung","latitude":47.84019,"longitude":13.18799},{"id":3042,"name":"Politischer Bezirk Sankt Johann im Pongau","latitude":47.3,"longitude":13.3},{"id":3051,"name":"Politischer Bezirk Tamsweg","latitude":47.15,"longitude":13.7},{"id":3088,"name":"Puch bei Hallein","latitude":47.71536,"longitude":13.09296},{"id":3125,"name":"Radstadt","latitude":47.38333,"longitude":13.45},{"id":3132,"name":"Ramingstein","latitude":47.07462,"longitude":13.83642},{"id":3153,"name":"Rauris","latitude":47.22656,"longitude":12.99459},{"id":3169,"name":"Reinbach","latitude":47.34673,"longitude":13.19072},{"id":3173,"name":"Reitberg","latitude":47.85269,"longitude":13.1573},{"id":3229,"name":"Saalbach","latitude":47.39138,"longitude":12.63642},{"id":3230,"name":"Saalfelden am Steinernen Meer","latitude":47.42681,"longitude":12.848},{"id":3234,"name":"Salzburg","latitude":47.79941,"longitude":13.04399},{"id":3235,"name":"Salzburg Stadt","latitude":47.80067,"longitude":13.04532},{"id":3241,"name":"Sankt Andrä im Lungau","latitude":47.15,"longitude":13.78333},{"id":3262,"name":"Sankt Gilgen","latitude":47.76667,"longitude":13.36667},{"id":3269,"name":"Sankt Johann im Pongau","latitude":47.35,"longitude":13.2},{"id":3278,"name":"Sankt Leonhard","latitude":47.72587,"longitude":13.04577},{"id":3298,"name":"Sankt Margarethen im Lungau","latitude":47.07927,"longitude":13.69613},{"id":3306,"name":"Sankt Martin bei Lofer","latitude":47.56667,"longitude":12.7},{"id":3310,"name":"Sankt Michael im Lungau","latitude":47.1,"longitude":13.63333},{"id":3345,"name":"Sankt Veit im Pongau","latitude":47.33333,"longitude":13.15},{"id":3364,"name":"Scheffau am Tennengebirge","latitude":47.58831,"longitude":13.2202},{"id":3375,"name":"Schleedorf","latitude":47.95,"longitude":13.15},{"id":3396,"name":"Schwarzach im Pongau","latitude":47.32048,"longitude":13.15171},{"id":3432,"name":"Seeham","latitude":47.96746,"longitude":13.07699},{"id":3433,"name":"Seekirchen am Wallersee","latitude":47.9,"longitude":13.13333},{"id":3435,"name":"Seewalchen","latitude":47.9,"longitude":13.13333},{"id":3455,"name":"Siezenheim","latitude":47.81529,"longitude":12.99039},{"id":3485,"name":"St. Martin of Tennengebirge","latitude":47.465,"longitude":13.37761},{"id":3545,"name":"Strasswalchen","latitude":47.97947,"longitude":13.25535},{"id":3553,"name":"Strobl","latitude":47.71667,"longitude":13.48333},{"id":3557,"name":"Stuhlfelden","latitude":47.28761,"longitude":12.52755},{"id":3570,"name":"Tamsweg","latitude":47.12808,"longitude":13.81102},{"id":3575,"name":"Taugl","latitude":47.64747,"longitude":13.20282},{"id":3577,"name":"Taxach","latitude":47.7261,"longitude":13.07184},{"id":3578,"name":"Taxenbach","latitude":47.29116,"longitude":12.96215},{"id":3587,"name":"Thalgau","latitude":47.84142,"longitude":13.25325},{"id":3593,"name":"Thomatal","latitude":47.06667,"longitude":13.75},{"id":3594,"name":"Thumersbach","latitude":47.32952,"longitude":12.81675},{"id":3637,"name":"Tweng","latitude":47.18333,"longitude":13.6},{"id":3646,"name":"Unken","latitude":47.64966,"longitude":12.72946},{"id":3657,"name":"Unternberg","latitude":47.11269,"longitude":13.74261},{"id":3662,"name":"Untertauern","latitude":47.3,"longitude":13.5},{"id":3669,"name":"Uttendorf","latitude":47.28333,"longitude":12.56667},{"id":3678,"name":"Viehhausen","latitude":47.78333,"longitude":12.98333},{"id":3679,"name":"Viehhofen","latitude":47.36667,"longitude":12.73333},{"id":3682,"name":"Vigaun","latitude":47.66667,"longitude":13.13333},{"id":3711,"name":"Wagnergraben","latitude":48.02036,"longitude":13.02395},{"id":3713,"name":"Wagrain","latitude":47.33528,"longitude":13.29889},{"id":3723,"name":"Walchen","latitude":47.28822,"longitude":12.68739},{"id":3726,"name":"Wald im Pinzgau","latitude":47.25,"longitude":12.23333},{"id":3734,"name":"Waldprechting","latitude":47.9,"longitude":13.11667},{"id":3740,"name":"Wals","latitude":47.78333,"longitude":12.96667},{"id":3741,"name":"Walserfeld","latitude":47.79222,"longitude":12.98},{"id":3792,"name":"Werfen","latitude":47.47585,"longitude":13.1902},{"id":3793,"name":"Werfenweng","latitude":47.46204,"longitude":13.25582},{"id":3868,"name":"Zederhaus","latitude":47.1557,"longitude":13.50576},{"id":3874,"name":"Zell am See","latitude":47.32556,"longitude":12.79444}]