[{"id":52218,"name":"Bakadagy","latitude":13.3,"longitude":-14.38333},{"id":52225,"name":"Basse Santa Su","latitude":13.30995,"longitude":-14.21373},{"id":52226,"name":"Brifu","latitude":13.5,"longitude":-13.93333},{"id":52232,"name":"Daba Kunda","latitude":13.31667,"longitude":-14.3},{"id":52235,"name":"Demba Kunda","latitude":13.25,"longitude":-14.26667},{"id":52237,"name":"Diabugu","latitude":13.38333,"longitude":-14.4},{"id":52238,"name":"Diabugu Basilla","latitude":13.33333,"longitude":-13.95},{"id":52245,"name":"Fulladu East","latitude":13.33333,"longitude":-14.25},{"id":52251,"name":"Gunjur Kuta","latitude":13.53333,"longitude":-14.11667},{"id":52263,"name":"Kantora","latitude":13.41667,"longitude":-13.91667},{"id":52273,"name":"Koina","latitude":13.48333,"longitude":-13.86667},{"id":52279,"name":"Kumbija","latitude":13.26667,"longitude":-14.18333},{"id":52293,"name":"Nyamanari","latitude":13.33333,"longitude":-13.86667},{"id":52295,"name":"Perai","latitude":13.38333,"longitude":-14.03333},{"id":52297,"name":"Sabi","latitude":13.23333,"longitude":-14.2},{"id":52300,"name":"Sandu","latitude":13.41667,"longitude":-14.36667},{"id":52308,"name":"Sudowol","latitude":13.36667,"longitude":-13.96667},{"id":52311,"name":"Sun Kunda","latitude":13.38333,"longitude":-13.85},{"id":52312,"name":"Sutukoba","latitude":13.5,"longitude":-14.01667},{"id":52320,"name":"Wuli","latitude":13.5,"longitude":-14.08333}]