[{"id":22111,"name":"Babice","latitude":49.12167,"longitude":17.48075},{"id":22191,"name":"Bánov","latitude":48.98801,"longitude":17.71752},{"id":22195,"name":"Bílovice","latitude":49.09965,"longitude":17.54961},{"id":22144,"name":"Bojkovice","latitude":49.03864,"longitude":17.81487},{"id":22151,"name":"Boršice","latitude":49.06254,"longitude":17.35084},{"id":22205,"name":"Březnice","latitude":49.18643,"longitude":17.66277},{"id":22208,"name":"Březolupy","latitude":49.12138,"longitude":17.58034},{"id":22211,"name":"Březová","latitude":48.92543,"longitude":17.73986},{"id":22174,"name":"Buchlovice","latitude":49.08627,"longitude":17.33852},{"id":22188,"name":"Bystřice pod Hostýnem","latitude":49.39924,"longitude":17.67401},{"id":22233,"name":"Chropyně","latitude":49.35644,"longitude":17.36451},{"id":22239,"name":"Chvalčov","latitude":49.38918,"longitude":17.71149},{"id":22272,"name":"Dolní Bečva","latitude":49.45498,"longitude":18.19419},{"id":22287,"name":"Dolní Němčí","latitude":48.96837,"longitude":17.58585},{"id":22325,"name":"Francova Lhota","latitude":49.20174,"longitude":18.11175},{"id":22330,"name":"Fryšták","latitude":49.2852,"longitude":17.68346},{"id":22339,"name":"Halenkov","latitude":49.3174,"longitude":18.14749},{"id":22340,"name":"Halenkovice","latitude":49.17102,"longitude":17.47156},{"id":22357,"name":"Hluk","latitude":48.98805,"longitude":17.52744},{"id":22368,"name":"Holešov","latitude":49.33331,"longitude":17.57832},{"id":22375,"name":"Horní Bečva","latitude":49.43216,"longitude":18.28859},{"id":22382,"name":"Horní Lideč","latitude":49.18121,"longitude":18.06099},{"id":22410,"name":"Hošťálková","latitude":49.35467,"longitude":17.86944},{"id":22406,"name":"Hovězí","latitude":49.30365,"longitude":18.06062},{"id":22434,"name":"Hulín","latitude":49.31689,"longitude":17.46374},{"id":22439,"name":"Hvozdná","latitude":49.24848,"longitude":17.75163},{"id":22450,"name":"Jablůnka","latitude":49.38355,"longitude":17.95021},{"id":22452,"name":"Jalubí","latitude":49.11626,"longitude":17.42788},{"id":22500,"name":"Karolinka","latitude":49.35128,"longitude":18.24006},{"id":22509,"name":"Kelč","latitude":49.47844,"longitude":17.81533},{"id":22523,"name":"Kněžpole","latitude":49.09855,"longitude":17.51671},{"id":22535,"name":"Koryčany","latitude":49.10639,"longitude":17.16433},{"id":22560,"name":"Kroměříž","latitude":49.29785,"longitude":17.39312},{"id":22569,"name":"Kunovice","latitude":49.04499,"longitude":17.47011},{"id":22578,"name":"Kvasice","latitude":49.24223,"longitude":17.46974},{"id":22601,"name":"Lešná","latitude":49.52055,"longitude":17.93004},{"id":22616,"name":"Lidečko","latitude":49.20303,"longitude":18.0513},{"id":22620,"name":"Liptál","latitude":49.29051,"longitude":17.92177},{"id":22646,"name":"Luhačovice","latitude":49.09982,"longitude":17.75747},{"id":22650,"name":"Lukov","latitude":49.29027,"longitude":17.72959},{"id":22699,"name":"Mistřice","latitude":49.08668,"longitude":17.53597},{"id":22749,"name":"Napajedla","latitude":49.17156,"longitude":17.51194},{"id":22753,"name":"Nedakonice","latitude":49.03159,"longitude":17.38141},{"id":22754,"name":"Nedašov","latitude":49.10778,"longitude":18.07036},{"id":22767,"name":"Nivnice","latitude":48.97465,"longitude":17.64757},{"id":22787,"name":"Nový Hrozenkov","latitude":49.33697,"longitude":18.19793},{"id":22831,"name":"Okres Kroměříž","latitude":49.33333,"longitude":17.5},{"id":22869,"name":"Okres Uherské Hradiště","latitude":49.01667,"longitude":17.55},{"id":22870,"name":"Okres Vsetín","latitude":49.36667,"longitude":18.08333},{"id":22872,"name":"Okres Zlín","latitude":49.21667,"longitude":17.78333},{"id":22909,"name":"Ostrožská Lhota","latitude":48.97559,"longitude":17.46751},{"id":22910,"name":"Ostrožská Nová Ves","latitude":49.00434,"longitude":17.43632},{"id":22915,"name":"Otrokovice","latitude":49.20934,"longitude":17.53944},{"id":22950,"name":"Polešovice","latitude":49.0339,"longitude":17.34064},{"id":22956,"name":"Popovice","latitude":49.05255,"longitude":17.52712},{"id":22963,"name":"Pozlovice","latitude":49.12921,"longitude":17.76925},{"id":22980,"name":"Prostřední Bečva","latitude":49.43609,"longitude":18.252},{"id":22984,"name":"Prusinovice","latitude":49.37898,"longitude":17.5871},{"id":23023,"name":"Rataje","latitude":49.2713,"longitude":17.33555},{"id":23024,"name":"Ratiboř","latitude":49.36769,"longitude":17.91499},{"id":23043,"name":"Rožnov pod Radhoštěm","latitude":49.45853,"longitude":18.14302},{"id":23080,"name":"Slavičín","latitude":49.08799,"longitude":17.87349},{"id":23084,"name":"Slušovice","latitude":49.24782,"longitude":17.8015},{"id":23096,"name":"Spytihněv","latitude":49.14115,"longitude":17.49808},{"id":23107,"name":"Staré Město","latitude":49.07515,"longitude":17.43338},{"id":23424,"name":"Štítná nad Vláří","latitude":49.06881,"longitude":17.98274},{"id":23125,"name":"Strání","latitude":48.90216,"longitude":17.70671},{"id":23143,"name":"Suchá Loz","latitude":48.97001,"longitude":17.71379},{"id":23431,"name":"Šumice","latitude":49.02858,"longitude":17.72205},{"id":23163,"name":"Tečovice","latitude":49.22107,"longitude":17.58733},{"id":23167,"name":"Tlumačov","latitude":49.25351,"longitude":17.49559},{"id":23169,"name":"Topolná","latitude":49.12187,"longitude":17.54434},{"id":23172,"name":"Traplice","latitude":49.13088,"longitude":17.43622},{"id":23176,"name":"Trnava","latitude":49.29603,"longitude":17.84191},{"id":23185,"name":"Tupesy","latitude":49.08427,"longitude":17.36983},{"id":23206,"name":"Uherské Hradiště","latitude":49.06975,"longitude":17.45969},{"id":23207,"name":"Uherský Brod","latitude":49.02513,"longitude":17.64715},{"id":23208,"name":"Uherský Ostroh","latitude":48.98556,"longitude":17.38984},{"id":23354,"name":"Újezd","latitude":49.16809,"longitude":17.9061},{"id":23215,"name":"Valašská Bystřice","latitude":49.41507,"longitude":18.10977},{"id":23216,"name":"Valašská Polanka","latitude":49.26215,"longitude":17.99667},{"id":23217,"name":"Valašské Klobouky","latitude":49.14064,"longitude":18.0076},{"id":23218,"name":"Valašské Meziříčí","latitude":49.47181,"longitude":17.97113},{"id":23226,"name":"Velehrad","latitude":49.10543,"longitude":17.39426},{"id":23241,"name":"Velké Karlovice","latitude":49.36064,"longitude":18.28355},{"id":23267,"name":"Vidče","latitude":49.44151,"longitude":18.09473},{"id":23275,"name":"Vizovice","latitude":49.22287,"longitude":17.85455},{"id":23278,"name":"Vlachovice","latitude":49.12377,"longitude":17.94001},{"id":23284,"name":"Vlčnov","latitude":49.0099,"longitude":17.58183},{"id":23317,"name":"Všemina","latitude":49.281,"longitude":17.87682},{"id":23303,"name":"Vsetín","latitude":49.33871,"longitude":17.99619},{"id":23349,"name":"Záhorovice","latitude":49.02266,"longitude":17.77922},{"id":23327,"name":"Zašová","latitude":49.4741,"longitude":18.04436},{"id":23329,"name":"Zborovice","latitude":49.24889,"longitude":17.28464},{"id":23336,"name":"Zdounky","latitude":49.22771,"longitude":17.31899},{"id":23340,"name":"Zlechov","latitude":49.07396,"longitude":17.37938},{"id":23343,"name":"Zlín","latitude":49.22645,"longitude":17.67065},{"id":23455,"name":"Žlutava","latitude":49.19976,"longitude":17.49037},{"id":23346,"name":"Zubří","latitude":49.46603,"longitude":18.09249}]