[{"id":65569,"name":"Abu Al Hasaniya","latitude":29.19076,"longitude":48.11355},{"id":65570,"name":"Abu Fatira","latitude":29.19746,"longitude":48.10278},{"id":65576,"name":"Al Funayţīs","latitude":29.22528,"longitude":48.10167},{"id":65581,"name":"Al-Masayel","latitude":29.2393,"longitude":48.08862},{"id":65592,"name":"Şabāḩ as Sālim","latitude":29.25722,"longitude":48.05722}]