[{"id":81140,"name":"Abuyog","latitude":10.747,"longitude":125.0107},{"id":81186,"name":"Alangalang","latitude":11.20611,"longitude":124.84667},{"id":81192,"name":"Albuera","latitude":10.9158,"longitude":124.6945},{"id":81202,"name":"Alegria","latitude":12.3984,"longitude":124.3261},{"id":81224,"name":"Allen","latitude":12.5006,"longitude":124.2849},{"id":81225,"name":"Almagro","latitude":11.9109,"longitude":124.2858},{"id":81228,"name":"Almeria","latitude":11.62028,"longitude":124.38167},{"id":81236,"name":"Alugan","latitude":12.2188,"longitude":125.4808},{"id":81254,"name":"Anahawan","latitude":10.27722,"longitude":125.2625},{"id":81274,"name":"Anito","latitude":12.44972,"longitude":125.28861},{"id":81318,"name":"Arteche","latitude":12.2645,"longitude":125.4048},{"id":81348,"name":"Babatngon","latitude":11.4238,"longitude":124.8449},{"id":81435,"name":"Balagtas","latitude":11.1333,"longitude":124.5192},{"id":81437,"name":"Balagui","latitude":11.4752,"longitude":124.5324},{"id":81443,"name":"Balangiga","latitude":11.10972,"longitude":125.3875},{"id":81444,"name":"Balangkayan","latitude":11.47139,"longitude":125.51056},{"id":81480,"name":"Balinsacayao","latitude":10.681,"longitude":124.9595},{"id":81491,"name":"Balocawehay","latitude":10.7221,"longitude":124.9678},{"id":81496,"name":"Balogo","latitude":10.8868,"longitude":124.7105},{"id":81501,"name":"Balud","latitude":11.61667,"longitude":125.43333},{"id":81552,"name":"Bantayan","latitude":12.5237,"longitude":124.8283},{"id":81555,"name":"Bantiqui","latitude":10.9245,"longitude":124.4154},{"id":81567,"name":"Baras","latitude":11.18333,"longitude":125.01667},{"id":81589,"name":"Barugo","latitude":11.32417,"longitude":124.73833},{"id":81600,"name":"Basey","latitude":11.28205,"longitude":125.06986},{"id":81609,"name":"Basud","latitude":11.3663,"longitude":124.3631},{"id":81630,"name":"Bato","latitude":10.32778,"longitude":124.79111},{"id":81662,"name":"Baybay","latitude":10.6785,"longitude":124.8006},{"id":81703,"name":"Biliran","latitude":11.48333,"longitude":124.48333},{"id":81705,"name":"Bilwang","latitude":10.8834,"longitude":124.4667},{"id":81736,"name":"Biri","latitude":12.68333,"longitude":124.36361},{"id":81738,"name":"Bislig","latitude":11.0725,"longitude":125.03361},{"id":81742,"name":"Bitanjuan","latitude":10.5955,"longitude":124.7663},{"id":81754,"name":"Bobon","latitude":12.5246,"longitude":124.5636},{"id":81792,"name":"Bontoc","latitude":10.3556,"longitude":124.9697},{"id":81798,"name":"Borongan","latitude":11.60806,"longitude":125.43194},{"id":81846,"name":"Bugho","latitude":10.7921,"longitude":124.9364},{"id":81847,"name":"Bugko","latitude":12.5356,"longitude":124.7923},{"id":81894,"name":"Bunga","latitude":11.4838,"longitude":124.5918},{"id":81904,"name":"Burauen","latitude":10.97556,"longitude":124.89278},{"id":81922,"name":"Butazon","latitude":11.3072,"longitude":124.462},{"id":81936,"name":"Cabacu単gan","latitude":10.93333,"longitude":124.98167},{"id":81956,"name":"Cabatuan","latitude":12.5228,"longitude":125.2202},{"id":81960,"name":"Cabay","latitude":11.44556,"longitude":125.49333},{"id":81973,"name":"Cabodiongan","latitude":12.6643,"longitude":125.0456},{"id":81977,"name":"Cabucgayan","latitude":11.47194,"longitude":124.575},{"id":81992,"name":"Cagamotan","latitude":12.35583,"longitude":125.28391},{"id":82001,"name":"Caibiran","latitude":11.57167,"longitude":124.58222},{"id":82032,"name":"Calape","latitude":11.9425,"longitude":125.02139},{"id":82045,"name":"Calbayog City","latitude":12.0668,"longitude":124.5962},{"id":82046,"name":"Calbiga","latitude":11.62472,"longitude":125.01639},{"id":82068,"name":"Calubian","latitude":11.4472,"longitude":124.4281},{"id":82098,"name":"Can-Avid","latitude":11.99528,"longitude":125.44722},{"id":82114,"name":"Canhandugan","latitude":11.135,"longitude":124.77972},{"id":82140,"name":"Capoocan","latitude":11.29333,"longitude":124.64194},{"id":82142,"name":"Capul","latitude":12.4237,"longitude":124.1811},{"id":82155,"name":"Caraycaray","latitude":11.5551,"longitude":124.415},{"id":82161,"name":"Caridad","latitude":10.8315,"longitude":124.7518},{"id":82163,"name":"Carigara","latitude":11.29811,"longitude":124.67895},{"id":82206,"name":"Catarman","latitude":12.4989,"longitude":124.6377},{"id":82208,"name":"Catbalogan","latitude":11.77528,"longitude":124.88611},{"id":82214,"name":"Catmon","latitude":11.53516,"longitude":124.43115},{"id":82218,"name":"Catubig","latitude":12.4098,"longitude":125.0548},{"id":82240,"name":"Cervantes","latitude":12.36861,"longitude":124.65972},{"id":82274,"name":"Concepcion","latitude":10.40528,"longitude":124.78306},{"id":82284,"name":"Consuegra","latitude":11.2976,"longitude":124.5124},{"id":82309,"name":"Culaba","latitude":11.65778,"longitude":124.5425},{"id":82313,"name":"Culasian","latitude":11.30694,"longitude":124.61056},{"id":82332,"name":"Dagami","latitude":11.06083,"longitude":124.90278},{"id":82374,"name":"Dao","latitude":12.0998,"longitude":125.4372},{"id":82377,"name":"Dapdap","latitude":12.062,"longitude":125.4881},{"id":82385,"name":"Daram","latitude":11.6341,"longitude":124.7947},{"id":82452,"name":"Dolores","latitude":12.0371,"longitude":125.4825},{"id":82462,"name":"Doos","latitude":10.46528,"longitude":124.72944},{"id":82474,"name":"Dulag","latitude":10.9525,"longitude":125.03167},{"id":82512,"name":"Erenas","latitude":12.4245,"longitude":124.3238},{"id":82545,"name":"Gabas","latitude":10.7297,"longitude":124.7961},{"id":82555,"name":"Gamay","latitude":12.38542,"longitude":125.29791},{"id":82563,"name":"Gandara","latitude":12.013,"longitude":124.8118},{"id":82579,"name":"General MacArthur","latitude":11.24639,"longitude":125.53944},{"id":82594,"name":"Ginabuyan","latitude":11.2383,"longitude":124.4047},{"id":82597,"name":"Giporlos","latitude":11.12,"longitude":125.44944},{"id":82631,"name":"Guindapunan","latitude":11.30278,"longitude":124.70583},{"id":82645,"name":"Guirang","latitude":11.35,"longitude":125.11667},{"id":82650,"name":"Guiuan","latitude":11.03088,"longitude":125.72342},{"id":82681,"name":"Hernani","latitude":11.32583,"longitude":125.61944},{"id":82686,"name":"Hilongos","latitude":10.37444,"longitude":124.74972},{"id":82694,"name":"Hindang","latitude":10.43417,"longitude":124.72917},{"id":82695,"name":"Hingatungan","latitude":10.584,"longitude":125.1852},{"id":82698,"name":"Hinunangan","latitude":10.39408,"longitude":125.19768},{"id":82699,"name":"Hinundayan","latitude":10.3523,"longitude":125.2506},{"id":82700,"name":"Hipadpad","latitude":12.2855,"longitude":125.2361},{"id":82701,"name":"Hipasngo","latitude":10.6624,"longitude":124.8085},{"id":82710,"name":"Ibarra","latitude":10.12472,"longitude":124.88417},{"id":82712,"name":"Ichon","latitude":10.09495,"longitude":124.90168},{"id":82741,"name":"Inangatan","latitude":11.25,"longitude":124.4},{"id":82755,"name":"Ipil","latitude":10.97472,"longitude":124.63639},{"id":82769,"name":"Isabel","latitude":10.9267,"longitude":124.434},{"id":82798,"name":"Jaro","latitude":11.18375,"longitude":124.78267},{"id":82804,"name":"Jiabong","latitude":11.7625,"longitude":124.95194},{"id":82817,"name":"Jubasan","latitude":12.4844,"longitude":124.2872},{"id":82819,"name":"Julita","latitude":10.97472,"longitude":124.96167},{"id":82833,"name":"Kabuynan","latitude":11.08056,"longitude":125.02472},{"id":82859,"name":"Kampokpok","latitude":11.2962,"longitude":124.405},{"id":82860,"name":"Kananya","latitude":11.1867,"longitude":124.5601},{"id":82900,"name":"Kilim","latitude":10.7118,"longitude":124.7968},{"id":82947,"name":"La Paz","latitude":10.8925,"longitude":124.95583},{"id":82990,"name":"Lalauigan","latitude":11.58917,"longitude":125.46972},{"id":82993,"name":"Lamak","latitude":10.39972,"longitude":124.73889},{"id":83026,"name":"Lao","latitude":11.01806,"longitude":124.55972},{"id":83028,"name":"Laoang","latitude":12.5698,"longitude":125.0141},{"id":83033,"name":"Lapinig","latitude":12.3151,"longitude":125.3032},{"id":83044,"name":"Las Navas","latitude":12.3392,"longitude":125.0313},{"id":83052,"name":"Lavezares","latitude":12.5336,"longitude":124.3305},{"id":83072,"name":"Leyte","latitude":11.36687,"longitude":124.48239},{"id":83076,"name":"Libagon","latitude":10.30083,"longitude":125.05583},{"id":83078,"name":"Libas","latitude":10.9388,"longitude":124.545},{"id":83084,"name":"Libertad","latitude":10.91667,"longitude":124.45},{"id":83090,"name":"Liberty","latitude":10.87417,"longitude":125.0025},{"id":83112,"name":"Liloan","latitude":10.15811,"longitude":125.11806},{"id":83114,"name":"Lim-oo","latitude":11.15083,"longitude":124.63083},{"id":83123,"name":"Limon","latitude":11.2889,"longitude":124.5671},{"id":83155,"name":"Llorente","latitude":11.41194,"longitude":125.54583},{"id":83170,"name":"Looc","latitude":11.4788,"longitude":124.5542},{"id":83176,"name":"Lope de Vega","latitude":12.2983,"longitude":124.6238},{"id":83261,"name":"Maasin","latitude":10.13361,"longitude":124.84472},{"id":83282,"name":"Mabini","latitude":11.41667,"longitude":125.16667},{"id":83292,"name":"MacArthur","latitude":10.83472,"longitude":124.99528},{"id":83307,"name":"Macrohon","latitude":10.07972,"longitude":124.94306},{"id":83358,"name":"Mahaplag","latitude":10.6045,"longitude":124.9646},{"id":83379,"name":"Makiwalo","latitude":12.5101,"longitude":124.706},{"id":83392,"name":"Malaga","latitude":12.23686,"longitude":124.37529},{"id":83396,"name":"Malajog","latitude":12.1102,"longitude":124.4793},{"id":83430,"name":"Malilinao","latitude":11.10694,"longitude":124.50111},{"id":83448,"name":"Malitbog","latitude":10.16,"longitude":124.99917},{"id":83538,"name":"Mantang","latitude":11.87,"longitude":125.42833},{"id":83550,"name":"Mapanas","latitude":12.47502,"longitude":125.25621},{"id":83571,"name":"Margen","latitude":11.01722,"longitude":124.52833},{"id":83585,"name":"Maripipi","latitude":11.77917,"longitude":124.34917},{"id":83598,"name":"Masarayao","latitude":11.08972,"longitude":124.6175},{"id":83607,"name":"Maslog","latitude":12.15,"longitude":125.23333},{"id":83617,"name":"Matalom","latitude":10.28306,"longitude":124.78778},{"id":83630,"name":"Matlang","latitude":10.8902,"longitude":124.4554},{"id":83648,"name":"Maydolong","latitude":11.50021,"longitude":125.49811},{"id":83652,"name":"Mayorga","latitude":10.9,"longitude":125.0},{"id":83653,"name":"Maypangdan","latitude":11.65194,"longitude":125.45028},{"id":83662,"name":"Merida","latitude":10.9098,"longitude":124.5376},{"id":83701,"name":"Mondragon","latitude":12.5157,"longitude":124.7523},{"id":83715,"name":"Motiong","latitude":11.78,"longitude":124.99972},{"id":83746,"name":"Naghalin","latitude":11.1456,"longitude":124.5671},{"id":83779,"name":"Napuro","latitude":12.0273,"longitude":124.7082},{"id":83793,"name":"Naval","latitude":11.56056,"longitude":124.3975},{"id":83798,"name":"Nena","latitude":11.76583,"longitude":125.41778},{"id":83799,"name":"Nenita","latitude":12.49167,"longitude":124.80444},{"id":83858,"name":"Oras","latitude":12.1406,"longitude":125.4397},{"id":83860,"name":"Ormoc","latitude":11.00639,"longitude":124.6075},{"id":83881,"name":"Padre Burgos","latitude":10.03694,"longitude":125.01917},{"id":83896,"name":"Pagsanghan","latitude":11.9657,"longitude":124.7212},{"id":83914,"name":"Palanit","latitude":12.32134,"longitude":124.34341},{"id":83915,"name":"Palapag","latitude":12.5458,"longitude":125.1147},{"id":83916,"name":"Palaroo","latitude":11.4056,"longitude":124.483},{"id":83922,"name":"Palhi","latitude":10.6498,"longitude":124.8062},{"id":83927,"name":"Palo","latitude":11.1575,"longitude":124.99083},{"id":83929,"name":"Palompon","latitude":11.0508,"longitude":124.3843},{"id":83937,"name":"Pambujan","latitude":12.5642,"longitude":124.9276},{"id":83947,"name":"Panalanoy","latitude":11.25111,"longitude":125.00639},{"id":83976,"name":"Pangdan","latitude":11.74444,"longitude":124.91667},{"id":83981,"name":"Pangpang","latitude":12.5692,"longitude":125.074},{"id":84035,"name":"Pastrana","latitude":11.13667,"longitude":124.88556},{"id":84050,"name":"Patong","latitude":12.33643,"longitude":125.28521},{"id":84064,"name":"Pawing","latitude":11.18,"longitude":125.00278},{"id":84126,"name":"Pi単a","latitude":12.19078,"longitude":124.4015},{"id":84105,"name":"Pinamopoan","latitude":11.31472,"longitude":124.57389},{"id":84115,"name":"Pintuyan","latitude":9.9441,"longitude":125.2494},{"id":84132,"name":"Plaridel","latitude":10.5667,"longitude":124.7645},{"id":84141,"name":"Polahongon","latitude":10.5288,"longitude":124.9694},{"id":84144,"name":"Pola単ge","latitude":12.39667,"longitude":124.63111},{"id":84207,"name":"Province of Eastern Samar","latitude":11.53054,"longitude":125.47647},{"id":84218,"name":"Province of Leyte","latitude":11.08138,"longitude":124.82666},{"id":84228,"name":"Province of Northern Samar","latitude":12.33333,"longitude":124.66667},{"id":84238,"name":"Province of Samar","latitude":11.83333,"longitude":125.0},{"id":84243,"name":"Province of Southern Leyte","latitude":10.33333,"longitude":125.08333},{"id":84258,"name":"Puerto Bello","latitude":10.9733,"longitude":124.5351},{"id":84308,"name":"Quinapundan","latitude":11.15833,"longitude":125.52194},{"id":84342,"name":"Rizal","latitude":11.17639,"longitude":124.57944},{"id":84356,"name":"Rosario","latitude":12.5223,"longitude":124.425},{"id":84366,"name":"Sabang","latitude":12.0746,"longitude":124.5414},{"id":84399,"name":"Saint Bernard","latitude":10.28333,"longitude":125.18333},{"id":84406,"name":"Salcedo","latitude":11.14694,"longitude":125.665},{"id":84420,"name":"Salvacion","latitude":12.6151,"longitude":125.039},{"id":84452,"name":"San Antonio","latitude":12.4129,"longitude":124.2791},{"id":84467,"name":"San Eduardo","latitude":12.1679,"longitude":125.4503},{"id":84485,"name":"San Francisco","latitude":10.06,"longitude":125.16056},{"id":84505,"name":"San Isidro","latitude":11.4062,"longitude":124.3521},{"id":84510,"name":"San Joaquin","latitude":12.16697,"longitude":124.43003},{"id":84512,"name":"San Jorge","latitude":11.98083,"longitude":124.82389},{"id":84521,"name":"San Jose","latitude":10.98889,"longitude":125.03528},{"id":84522,"name":"San Jose de Buan","latitude":12.0529,"longitude":125.0251},{"id":84529,"name":"San Juan","latitude":11.00056,"longitude":124.53917},{"id":84533,"name":"San Julian","latitude":11.75361,"longitude":125.45583},{"id":84565,"name":"San Miguel","latitude":11.26722,"longitude":124.8325},{"id":84587,"name":"San Pedro","latitude":10.961,"longitude":124.8197},{"id":84591,"name":"San Policarpio","latitude":12.0686,"longitude":124.5695},{"id":84592,"name":"San Policarpo","latitude":12.1791,"longitude":125.5072},{"id":84605,"name":"San Ricardo","latitude":9.9128,"longitude":125.2767},{"id":84609,"name":"San Roque","latitude":11.05,"longitude":125.01667},{"id":84612,"name":"San Sebastian","latitude":11.71,"longitude":125.01806},{"id":84621,"name":"San Vicente","latitude":11.1183,"longitude":124.5657},{"id":84666,"name":"Santa Fe","latitude":11.18556,"longitude":124.91611},{"id":84682,"name":"Santa Margarita","latitude":12.03778,"longitude":124.65778},{"id":84694,"name":"Santa Paz","latitude":10.26667,"longitude":124.78333},{"id":84696,"name":"Santa Rita","latitude":11.4502,"longitude":124.9425},{"id":84722,"name":"Santo Ni単o","latitude":11.9263,"longitude":124.4492},{"id":84787,"name":"Siguinon","latitude":10.9423,"longitude":124.6806},{"id":84791,"name":"Silago","latitude":10.5291,"longitude":125.1618},{"id":84793,"name":"Silanga","latitude":11.81806,"longitude":124.84306},{"id":84797,"name":"Silvino Lobos","latitude":12.3,"longitude":124.83333},{"id":84838,"name":"Sogod","latitude":10.3847,"longitude":124.9814},{"id":84865,"name":"Sulangan","latitude":10.936,"longitude":125.8264},{"id":84868,"name":"Sulat","latitude":11.81028,"longitude":125.45444},{"id":84893,"name":"Tabango","latitude":11.3077,"longitude":124.373},{"id":84898,"name":"Tabing","latitude":11.4,"longitude":124.35},{"id":84907,"name":"Tabonoc","latitude":10.35,"longitude":124.8},{"id":84909,"name":"Tabontabon","latitude":11.04083,"longitude":124.96111},{"id":84920,"name":"Tacloban","latitude":11.24333,"longitude":125.00472},{"id":84925,"name":"Taft","latitude":11.90111,"longitude":125.41889},{"id":84929,"name":"Tagapul-an","latitude":12.05,"longitude":124.15},{"id":84938,"name":"Tagbubungang Diot","latitude":11.1257,"longitude":124.4028},{"id":84969,"name":"Talalora","latitude":11.5293,"longitude":124.8362},{"id":84987,"name":"Talisayan","latitude":10.95,"longitude":124.7},{"id":85029,"name":"Tanauan","latitude":11.10944,"longitude":125.01556},{"id":85055,"name":"Tarangnan","latitude":11.9009,"longitude":124.7459},{"id":85129,"name":"Tinambacan","latitude":12.0943,"longitude":124.5025},{"id":85158,"name":"Tolosa","latitude":11.1,"longitude":125.01667},{"id":85161,"name":"Tomas Oppus","latitude":10.25056,"longitude":124.98306},{"id":85201,"name":"Tucdao","latitude":11.7011,"longitude":124.4719},{"id":85209,"name":"Tugbong","latitude":11.01667,"longitude":124.6},{"id":85225,"name":"Tunga","latitude":11.24556,"longitude":124.75167},{"id":85235,"name":"Tutubigan","latitude":11.83972,"longitude":125.06139},{"id":85248,"name":"Umaganhan","latitude":11.3292,"longitude":124.377},{"id":85277,"name":"Valencia","latitude":11.10889,"longitude":124.5725},{"id":85283,"name":"Victoria","latitude":12.44722,"longitude":124.31111},{"id":85289,"name":"Viga","latitude":12.5162,"longitude":125.0528},{"id":85294,"name":"Villaba","latitude":11.2135,"longitude":124.3921},{"id":85299,"name":"Villareal","latitude":11.5659,"longitude":124.9281},{"id":85306,"name":"Viriato","latitude":12.29031,"longitude":124.35333},{"id":85317,"name":"Wright","latitude":11.77028,"longitude":125.02194},{"id":85328,"name":"Zumarraga","latitude":11.6388,"longitude":124.8417}]