[{"id":110979,"name":"Aberdeen","latitude":46.97537,"longitude":-123.81572},{"id":111027,"name":"Adams County","latitude":46.98338,"longitude":-118.5605},{"id":111063,"name":"Ahtanum","latitude":46.55957,"longitude":-120.62201},{"id":111072,"name":"Airway Heights","latitude":47.64461,"longitude":-117.59327},{"id":111138,"name":"Alderton","latitude":47.16955,"longitude":-122.22928},{"id":111139,"name":"Alderwood Manor","latitude":47.82204,"longitude":-122.28207},{"id":111164,"name":"Algona","latitude":47.27899,"longitude":-122.25206},{"id":111205,"name":"Allyn","latitude":47.38565,"longitude":-122.82764},{"id":111266,"name":"Amboy","latitude":45.91011,"longitude":-122.44649},{"id":111278,"name":"Ames Lake","latitude":47.63288,"longitude":-121.96623},{"id":111297,"name":"Anacortes","latitude":48.5126,"longitude":-122.61267},{"id":111470,"name":"Arlington","latitude":48.19871,"longitude":-122.12514},{"id":111474,"name":"Arlington Heights","latitude":48.20205,"longitude":-122.06208},{"id":111501,"name":"Artondale","latitude":47.29954,"longitude":-122.62069},{"id":111550,"name":"Asotin","latitude":46.33933,"longitude":-117.04821},{"id":111551,"name":"Asotin County","latitude":46.19186,"longitude":-117.20307},{"id":111632,"name":"Auburn","latitude":47.30732,"longitude":-122.22845},{"id":111654,"name":"Ault Field","latitude":48.33812,"longitude":-122.67441},{"id":111735,"name":"Bainbridge Island","latitude":47.62621,"longitude":-122.52124},{"id":111795,"name":"Bangor Trident Base","latitude":47.72274,"longitude":-122.71446},{"id":111813,"name":"Barberton","latitude":45.69317,"longitude":-122.59899},{"id":111879,"name":"Basin City","latitude":46.59403,"longitude":-119.15223},{"id":111907,"name":"Battle Ground","latitude":45.78095,"longitude":-122.53343},{"id":112055,"name":"Belfair","latitude":47.45065,"longitude":-122.82737},{"id":112117,"name":"Bellevue","latitude":47.61038,"longitude":-122.20068},{"id":112120,"name":"Bellingham","latitude":48.75955,"longitude":-122.48822},{"id":112198,"name":"Benton City","latitude":46.26319,"longitude":-119.4878},{"id":112207,"name":"Benton County","latitude":46.23978,"longitude":-119.5112},{"id":112282,"name":"Bethel","latitude":47.49398,"longitude":-122.63125},{"id":112326,"name":"Big Lake","latitude":48.40288,"longitude":-122.24127},{"id":112353,"name":"Birch Bay","latitude":48.91789,"longitude":-122.74462},{"id":112374,"name":"Black Diamond","latitude":47.30871,"longitude":-122.00317},{"id":112404,"name":"Blaine","latitude":48.99372,"longitude":-122.74712},{"id":112547,"name":"Bonney Lake","latitude":47.17705,"longitude":-122.18651},{"id":112595,"name":"Bothell","latitude":47.76232,"longitude":-122.2054},{"id":112596,"name":"Bothell East","latitude":47.80631,"longitude":-122.18427},{"id":112597,"name":"Bothell West","latitude":47.80527,"longitude":-122.24064},{"id":112607,"name":"Boulevard Park","latitude":47.48927,"longitude":-122.31512},{"id":112723,"name":"Bremerton","latitude":47.56732,"longitude":-122.63264},{"id":112744,"name":"Brewster","latitude":48.09598,"longitude":-119.78062},{"id":112768,"name":"Bridgeport","latitude":48.0082,"longitude":-119.67116},{"id":112782,"name":"Brier","latitude":47.78454,"longitude":-122.27429},{"id":112922,"name":"Browns Point","latitude":47.30038,"longitude":-122.44124},{"id":112955,"name":"Brush Prairie","latitude":45.73289,"longitude":-122.54649},{"id":112964,"name":"Bryant","latitude":48.23899,"longitude":-122.15792},{"id":112967,"name":"Bryn Mawr-Skyway","latitude":47.4943,"longitude":-122.24092},{"id":112988,"name":"Buckley","latitude":47.16316,"longitude":-122.02678},{"id":113039,"name":"Bunk Foss","latitude":47.96171,"longitude":-122.09441},{"id":113048,"name":"Burbank","latitude":46.19986,"longitude":-119.01306},{"id":113052,"name":"Burien","latitude":47.47038,"longitude":-122.34679},{"id":113064,"name":"Burley","latitude":47.41787,"longitude":-122.63097},{"id":113076,"name":"Burlington","latitude":48.47566,"longitude":-122.32544},{"id":113240,"name":"Camano","latitude":48.17399,"longitude":-122.52821},{"id":113243,"name":"Camas","latitude":45.58706,"longitude":-122.39954},{"id":113338,"name":"Canterwood","latitude":47.3751,"longitude":-122.5893},{"id":113424,"name":"Carnation","latitude":47.64788,"longitude":-121.91401},{"id":113476,"name":"Carson","latitude":45.72539,"longitude":-121.81924},{"id":113517,"name":"Cascade Valley","latitude":47.13459,"longitude":-119.32808},{"id":113522,"name":"Cashmere","latitude":47.52235,"longitude":-120.4698},{"id":113550,"name":"Castle Rock","latitude":46.27511,"longitude":-122.90761},{"id":113569,"name":"Cathcart","latitude":47.84788,"longitude":-122.09929},{"id":113571,"name":"Cathlamet","latitude":46.20317,"longitude":-123.38318},{"id":113679,"name":"Central Park","latitude":46.97343,"longitude":-123.69239},{"id":113687,"name":"Centralia","latitude":46.71621,"longitude":-122.9543},{"id":113825,"name":"Chehalis","latitude":46.66205,"longitude":-122.96402},{"id":113826,"name":"Chelan","latitude":47.84097,"longitude":-120.01646},{"id":113827,"name":"Chelan County","latitude":47.8691,"longitude":-120.61891},{"id":113840,"name":"Cheney","latitude":47.48739,"longitude":-117.57576},{"id":113924,"name":"Chewelah","latitude":48.27629,"longitude":-117.71552},{"id":113944,"name":"Chico","latitude":47.61148,"longitude":-122.71042},{"id":114083,"name":"City of Sammamish","latitude":47.60444,"longitude":-122.03768},{"id":114097,"name":"Clallam County","latitude":48.11044,"longitude":-123.93432},{"id":114131,"name":"Clark County","latitude":45.77927,"longitude":-122.48259},{"id":114150,"name":"Clarkston","latitude":46.41629,"longitude":-117.04557},{"id":114151,"name":"Clarkston Heights-Vineland","latitude":46.38742,"longitude":-117.083},{"id":114207,"name":"Cle Elum","latitude":47.1954,"longitude":-120.93925},{"id":114212,"name":"Clear Lake","latitude":48.46427,"longitude":-122.23404},{"id":114221,"name":"Clearview","latitude":47.83371,"longitude":-122.12596},{"id":114321,"name":"Clyde Hill","latitude":47.63177,"longitude":-122.2179},{"id":114409,"name":"Colfax","latitude":46.88017,"longitude":-117.36435},{"id":114415,"name":"College Place","latitude":46.0493,"longitude":-118.3883},{"id":114484,"name":"Columbia County","latitude":46.29755,"longitude":-117.90788},{"id":114506,"name":"Colville","latitude":48.54657,"longitude":-117.90554},{"id":114561,"name":"Connell","latitude":46.66347,"longitude":-118.86111},{"id":114685,"name":"Cosmopolis","latitude":46.95537,"longitude":-123.77378},{"id":114694,"name":"Cottage Lake","latitude":47.74427,"longitude":-122.07735},{"id":114710,"name":"Coulee Dam","latitude":47.96543,"longitude":-118.97613},{"id":114720,"name":"Country Homes","latitude":47.7485,"longitude":-117.40439},{"id":114727,"name":"Coupeville","latitude":48.21982,"longitude":-122.68628},{"id":114741,"name":"Covington","latitude":47.35818,"longitude":-122.12216},{"id":114749,"name":"Cowlitz County","latitude":46.19329,"longitude":-122.68078},{"id":114828,"name":"Crocker","latitude":47.08091,"longitude":-122.10383},{"id":115000,"name":"Dallesport","latitude":45.61734,"longitude":-121.17952},{"id":115054,"name":"Darrington","latitude":48.25539,"longitude":-121.60151},{"id":115060,"name":"Davenport","latitude":47.65405,"longitude":-118.14997},{"id":115101,"name":"Dayton","latitude":46.32375,"longitude":-117.97244},{"id":115179,"name":"Deer Park","latitude":47.95434,"longitude":-117.47689},{"id":115272,"name":"Des Moines","latitude":47.40177,"longitude":-122.32429},{"id":115279,"name":"Desert Aire","latitude":46.6793,"longitude":-119.91727},{"id":115354,"name":"Dishman","latitude":47.66007,"longitude":-117.27596},{"id":115389,"name":"Dollar Corner","latitude":45.78012,"longitude":-122.6001},{"id":115436,"name":"Douglas County","latitude":47.73607,"longitude":-119.69172},{"id":115489,"name":"DuPont","latitude":47.09676,"longitude":-122.63124},{"id":115582,"name":"Duvall","latitude":47.74232,"longitude":-121.98568},{"id":115691,"name":"East Hill-Meridian","latitude":47.41052,"longitude":-122.17369},{"id":115738,"name":"East Port Orchard","latitude":47.52343,"longitude":-122.6243},{"id":115745,"name":"East Renton Highlands","latitude":47.48482,"longitude":-122.11234},{"id":115771,"name":"East Wenatchee","latitude":47.41568,"longitude":-120.29313},{"id":115772,"name":"East Wenatchee Bench","latitude":47.42568,"longitude":-120.28118},{"id":115777,"name":"Eastgate","latitude":47.57266,"longitude":-122.14578},{"id":115784,"name":"Eastmont","latitude":47.8974,"longitude":-122.18154},{"id":115809,"name":"Eatonville","latitude":46.86733,"longitude":-122.2665},{"id":115864,"name":"Edgewood","latitude":47.2501,"longitude":-122.29373},{"id":115878,"name":"Edmonds","latitude":47.81065,"longitude":-122.37736},{"id":115960,"name":"Electric City","latitude":47.93237,"longitude":-119.03808},{"id":115989,"name":"Elk Plain","latitude":47.05316,"longitude":-122.39762},{"id":116018,"name":"Ellensburg","latitude":46.99651,"longitude":-120.54785},{"id":116046,"name":"Elma","latitude":47.00343,"longitude":-123.40877},{"id":116123,"name":"Enetai","latitude":47.58482,"longitude":-122.59875},{"id":116152,"name":"Entiat","latitude":47.67596,"longitude":-120.20841},{"id":116153,"name":"Enumclaw","latitude":47.20427,"longitude":-121.9915},{"id":116156,"name":"Ephrata","latitude":47.31764,"longitude":-119.55365},{"id":116171,"name":"Erlands Point-Kitsap Lake","latitude":47.59719,"longitude":-122.70225},{"id":116189,"name":"Esperance","latitude":47.78899,"longitude":-122.35541},{"id":116260,"name":"Everett","latitude":47.97898,"longitude":-122.20208},{"id":116267,"name":"Everson","latitude":48.92012,"longitude":-122.34266},{"id":116297,"name":"Fairchild Air Force Base","latitude":47.61879,"longitude":-117.64826},{"id":116363,"name":"Fairwood","latitude":47.44843,"longitude":-122.15734},{"id":116371,"name":"Fall City","latitude":47.56732,"longitude":-121.88873},{"id":116465,"name":"Federal Way","latitude":47.32232,"longitude":-122.31262},{"id":116467,"name":"Felida","latitude":45.70956,"longitude":-122.70732},{"id":116484,"name":"Fern Prairie","latitude":45.63651,"longitude":-122.3987},{"id":116490,"name":"Ferndale","latitude":48.8465,"longitude":-122.59101},{"id":116498,"name":"Ferry County","latitude":48.47007,"longitude":-118.51649},{"id":116504,"name":"Fife","latitude":47.23927,"longitude":-122.35707},{"id":116505,"name":"Fife Heights","latitude":47.25899,"longitude":-122.34568},{"id":116517,"name":"Finley","latitude":46.15402,"longitude":-119.0339},{"id":116519,"name":"Fircrest","latitude":47.23954,"longitude":-122.51596},{"id":116538,"name":"Five Corners","latitude":45.68456,"longitude":-122.5751},{"id":116617,"name":"Fobes Hill","latitude":47.94899,"longitude":-122.11985},{"id":116641,"name":"Fords Prairie","latitude":46.7351,"longitude":-122.98902},{"id":116675,"name":"Forks","latitude":47.95036,"longitude":-124.38549},{"id":116802,"name":"Fox Island","latitude":47.25149,"longitude":-122.62902},{"id":116865,"name":"Franklin County","latitude":46.53477,"longitude":-118.89889},{"id":116893,"name":"Frederickson","latitude":47.09621,"longitude":-122.35873},{"id":116907,"name":"Freeland","latitude":48.00954,"longitude":-122.52598},{"id":116943,"name":"Friday Harbor","latitude":48.53427,"longitude":-123.01712},{"id":117087,"name":"Garfield County","latitude":46.43156,"longitude":-117.54519},{"id":117099,"name":"Garrett","latitude":46.05208,"longitude":-118.40275},{"id":117145,"name":"Geneva","latitude":48.74567,"longitude":-122.40183},{"id":117199,"name":"Gig Harbor","latitude":47.32926,"longitude":-122.58013},{"id":117258,"name":"Gleed","latitude":46.65818,"longitude":-120.6134},{"id":117339,"name":"Gold Bar","latitude":47.85677,"longitude":-121.69706},{"id":117360,"name":"Goldendale","latitude":45.82068,"longitude":-120.82173},{"id":117436,"name":"Graham","latitude":47.05288,"longitude":-122.29428},{"id":117454,"name":"Grand Coulee","latitude":47.94154,"longitude":-119.00335},{"id":117469,"name":"Grand Mound","latitude":46.78788,"longitude":-123.01125},{"id":117481,"name":"Grandview","latitude":46.25097,"longitude":-119.9017},{"id":117489,"name":"Granger","latitude":46.34207,"longitude":-120.18727},{"id":117498,"name":"Granite Falls","latitude":48.08399,"longitude":-121.96874},{"id":117521,"name":"Grant County","latitude":47.20566,"longitude":-119.45177},{"id":117558,"name":"Grays Harbor County","latitude":47.14445,"longitude":-123.82847},{"id":117980,"name":"Hansville","latitude":47.9187,"longitude":-122.55431},{"id":118203,"name":"Hazel Dell","latitude":45.67151,"longitude":-122.66288},{"id":118399,"name":"Highland","latitude":46.13152,"longitude":-119.11418},{"id":118498,"name":"Hobart","latitude":47.42177,"longitude":-121.97289},{"id":118504,"name":"Hockinson","latitude":45.73789,"longitude":-122.48704},{"id":118585,"name":"Home","latitude":47.27482,"longitude":-122.76375},{"id":118660,"name":"Hoquiam","latitude":46.98092,"longitude":-123.88933},{"id":118927,"name":"Indianola","latitude":47.74704,"longitude":-122.52569},{"id":118938,"name":"Inglewood-Finn Hill","latitude":47.72049,"longitude":-122.23167},{"id":119024,"name":"Island County","latitude":48.2082,"longitude":-122.66922},{"id":119036,"name":"Issaquah","latitude":47.5301,"longitude":-122.03262},{"id":119198,"name":"Jefferson County","latitude":47.77655,"longitude":-123.57431},{"id":119287,"name":"Joint Base Lewis McChord","latitude":47.10787,"longitude":-122.57694},{"id":119359,"name":"Kalama","latitude":46.00845,"longitude":-122.84455},{"id":119432,"name":"Kelso","latitude":46.14678,"longitude":-122.90844},{"id":119463,"name":"Kenmore","latitude":47.75732,"longitude":-122.24401},{"id":119475,"name":"Kennewick","latitude":46.21125,"longitude":-119.13723},{"id":119487,"name":"Kent","latitude":47.38093,"longitude":-122.23484},{"id":119527,"name":"Kettle Falls","latitude":48.61074,"longitude":-118.05582},{"id":119538,"name":"Key Center","latitude":47.34065,"longitude":-122.74541},{"id":119582,"name":"King County","latitude":47.49084,"longitude":-121.83583},{"id":119614,"name":"Kingsgate","latitude":47.72704,"longitude":-122.17957},{"id":119630,"name":"Kingston","latitude":47.7985,"longitude":-122.49806},{"id":119652,"name":"Kirkland","latitude":47.68149,"longitude":-122.20874},{"id":119660,"name":"Kitsap County","latitude":47.63983,"longitude":-122.649},{"id":119664,"name":"Kittitas","latitude":46.98318,"longitude":-120.41701},{"id":119665,"name":"Kittitas County","latitude":47.12417,"longitude":-120.67972},{"id":119669,"name":"Klahanie","latitude":47.43121,"longitude":-122.43652},{"id":119673,"name":"Klickitat County","latitude":45.87378,"longitude":-120.78926},{"id":119738,"name":"La Center","latitude":45.86234,"longitude":-122.67038},{"id":119812,"name":"Lacey","latitude":47.03426,"longitude":-122.82319},{"id":119912,"name":"Lake Forest Park","latitude":47.75676,"longitude":-122.28096},{"id":119938,"name":"Lake Marcel-Stillwater","latitude":47.69263,"longitude":-121.91513},{"id":119948,"name":"Lake Morton-Berrydale","latitude":47.33251,"longitude":-122.10286},{"id":119978,"name":"Lake Shore","latitude":45.69067,"longitude":-122.69093},{"id":119980,"name":"Lake Stevens","latitude":48.0151,"longitude":-122.06374},{"id":119981,"name":"Lake Stickney","latitude":47.87655,"longitude":-122.26214},{"id":120018,"name":"Lakeland North","latitude":47.33343,"longitude":-122.27695},{"id":120019,"name":"Lakeland South","latitude":47.27843,"longitude":-122.28326},{"id":120052,"name":"Lakewood","latitude":47.17176,"longitude":-122.51846},{"id":120114,"name":"Langley","latitude":48.04009,"longitude":-122.40626},{"id":120140,"name":"Larch Way","latitude":47.8429,"longitude":-122.25275},{"id":120268,"name":"Lea Hill","latitude":47.32621,"longitude":-122.18151},{"id":120281,"name":"Leavenworth","latitude":47.59623,"longitude":-120.66148},{"id":120417,"name":"Lewis County","latitude":46.57773,"longitude":-122.39241},{"id":120437,"name":"Lewisville","latitude":45.80984,"longitude":-122.52315},{"id":120475,"name":"Liberty Lake","latitude":47.67591,"longitude":-117.11821},{"id":120537,"name":"Lincoln County","latitude":47.57619,"longitude":-118.41879},{"id":120673,"name":"Lochsloy","latitude":48.05149,"longitude":-122.03208},{"id":120692,"name":"Lofall","latitude":47.81204,"longitude":-122.65821},{"id":120739,"name":"Long Beach","latitude":46.35232,"longitude":-124.05432},{"id":120752,"name":"Longbranch","latitude":47.20898,"longitude":-122.7568},{"id":120758,"name":"Longview","latitude":46.13817,"longitude":-122.93817},{"id":120759,"name":"Longview Heights","latitude":46.18039,"longitude":-122.95706},{"id":120919,"name":"Lynden","latitude":48.9465,"longitude":-122.45211},{"id":120931,"name":"Lynnwood","latitude":47.82093,"longitude":-122.31513},{"id":120951,"name":"Mabton","latitude":46.21485,"longitude":-119.99671},{"id":120957,"name":"Machias","latitude":47.98149,"longitude":-122.04596},{"id":121069,"name":"Maltby","latitude":47.8051,"longitude":-122.11318},{"id":121102,"name":"Manchester","latitude":47.55566,"longitude":-122.54507},{"id":121151,"name":"Manson","latitude":47.88486,"longitude":-120.15841},{"id":121168,"name":"Maple Heights-Lake Desire","latitude":47.44413,"longitude":-122.09736},{"id":121173,"name":"Maple Valley","latitude":47.39272,"longitude":-122.04641},{"id":121180,"name":"Maplewood","latitude":47.40176,"longitude":-122.55707},{"id":121219,"name":"Marietta","latitude":48.78705,"longitude":-122.58045},{"id":121220,"name":"Marietta-Alderwood","latitude":48.78965,"longitude":-122.55369},{"id":121333,"name":"Martha Lake","latitude":47.85093,"longitude":-122.2393},{"id":121361,"name":"Marysville","latitude":48.05176,"longitude":-122.17708},{"id":121382,"name":"Mason County","latitude":47.35048,"longitude":-123.18309},{"id":121409,"name":"Mattawa","latitude":46.73791,"longitude":-119.90282},{"id":121468,"name":"McChord Air Force Base","latitude":47.13397,"longitude":-122.49157},{"id":121470,"name":"McCleary","latitude":47.05315,"longitude":-123.26543},{"id":121538,"name":"McMillin","latitude":47.13982,"longitude":-122.23651},{"id":121553,"name":"Mead","latitude":47.76739,"longitude":-117.35494},{"id":121559,"name":"Meadow Glade","latitude":45.75845,"longitude":-122.56038},{"id":121568,"name":"Meadowdale","latitude":47.85287,"longitude":-122.33347},{"id":121600,"name":"Medical Lake","latitude":47.57294,"longitude":-117.68216},{"id":121606,"name":"Medina","latitude":47.62093,"longitude":-122.22762},{"id":121682,"name":"Mercer Island","latitude":47.57065,"longitude":-122.22207},{"id":121801,"name":"Midland","latitude":47.16704,"longitude":-122.40484},{"id":121863,"name":"Mill Creek","latitude":47.8601,"longitude":-122.2043},{"id":121864,"name":"Mill Creek East","latitude":47.83602,"longitude":-122.18766},{"id":121867,"name":"Mill Plain","latitude":45.6429,"longitude":-122.49398},{"id":121907,"name":"Millwood","latitude":47.68128,"longitude":-117.28271},{"id":121921,"name":"Milton","latitude":47.24816,"longitude":-122.3129},{"id":121952,"name":"Minnehaha","latitude":45.65901,"longitude":-122.64871},{"id":121975,"name":"Mirrormont","latitude":47.46232,"longitude":-121.99567},{"id":122065,"name":"Monroe","latitude":47.85538,"longitude":-121.97096},{"id":122083,"name":"Monroe North","latitude":47.88225,"longitude":-121.98729},{"id":122124,"name":"Montesano","latitude":46.98121,"longitude":-123.60266},{"id":122295,"name":"Morton","latitude":46.55844,"longitude":-122.2751},{"id":122302,"name":"Moses Lake","latitude":47.13014,"longitude":-119.27808},{"id":122303,"name":"Moses Lake North","latitude":47.19433,"longitude":-119.31719},{"id":122403,"name":"Mount Vernon","latitude":48.42122,"longitude":-122.33405},{"id":122405,"name":"Mount Vista","latitude":45.73428,"longitude":-122.63288},{"id":122439,"name":"Mountlake Terrace","latitude":47.78815,"longitude":-122.30874},{"id":122450,"name":"Mukilteo","latitude":47.94454,"longitude":-122.30458},{"id":122549,"name":"Napavine","latitude":46.57455,"longitude":-122.90818},{"id":122605,"name":"Navy Yard City","latitude":47.55343,"longitude":-122.66458},{"id":122823,"name":"Newcastle","latitude":47.53899,"longitude":-122.15568},{"id":122852,"name":"Newport","latitude":48.17963,"longitude":-117.04326},{"id":122936,"name":"Nooksack","latitude":48.92762,"longitude":-122.32155},{"id":122952,"name":"Normandy Park","latitude":47.43621,"longitude":-122.34068},{"id":122985,"name":"North Bend","latitude":47.49566,"longitude":-121.78678},{"id":123011,"name":"North Creek","latitude":47.81954,"longitude":-122.17624},{"id":123028,"name":"North Fort Lewis","latitude":47.12131,"longitude":-122.59452},{"id":123090,"name":"North Puyallup","latitude":47.20677,"longitude":-122.28234},{"id":123132,"name":"North Yelm","latitude":46.96315,"longitude":-122.6029},{"id":123242,"name":"Oak Harbor","latitude":48.29316,"longitude":-122.64322},{"id":123332,"name":"Ocean Park","latitude":46.49177,"longitude":-124.05208},{"id":123336,"name":"Ocean Shores","latitude":46.9737,"longitude":-124.15629},{"id":123393,"name":"Okanogan","latitude":48.36126,"longitude":-119.58339},{"id":123394,"name":"Okanogan County","latitude":48.54885,"longitude":-119.74079},{"id":123459,"name":"Olympia","latitude":47.03787,"longitude":-122.9007},{"id":123464,"name":"Omak","latitude":48.41099,"longitude":-119.52755},{"id":123499,"name":"Opportunity","latitude":47.64995,"longitude":-117.23991},{"id":123539,"name":"Orchards","latitude":45.66651,"longitude":-122.56093},{"id":123579,"name":"Oroville","latitude":48.93905,"longitude":-119.43562},{"id":123582,"name":"Orting","latitude":47.09788,"longitude":-122.20428},{"id":123627,"name":"Othello","latitude":46.82597,"longitude":-119.17529},{"id":123629,"name":"Otis Orchards-East Farms","latitude":47.70988,"longitude":-117.07975},{"id":123707,"name":"Pacific","latitude":47.26455,"longitude":-122.25012},{"id":123709,"name":"Pacific County","latitude":46.55128,"longitude":-123.77886},{"id":123792,"name":"Palouse","latitude":46.91017,"longitude":-117.07573},{"id":123872,"name":"Parkland","latitude":47.15538,"longitude":-122.43401},{"id":123883,"name":"Parkwood","latitude":47.53315,"longitude":-122.61014},{"id":123901,"name":"Pasco","latitude":46.23958,"longitude":-119.10057},{"id":123955,"name":"Peaceful Valley","latitude":48.93815,"longitude":-122.14733},{"id":124013,"name":"Pend Oreille County","latitude":48.5323,"longitude":-117.27397},{"id":124160,"name":"Picnic Point","latitude":47.88111,"longitude":-122.3284},{"id":124161,"name":"Picnic Point-North Lynnwood","latitude":47.86278,"longitude":-122.29497},{"id":124175,"name":"Pierce County","latitude":47.03764,"longitude":-122.13735},{"id":124433,"name":"Point Roberts","latitude":48.98538,"longitude":-123.07797},{"id":124456,"name":"Pomeroy","latitude":46.47487,"longitude":-117.60269},{"id":124493,"name":"Port Angeles","latitude":48.11815,"longitude":-123.43074},{"id":124494,"name":"Port Angeles East","latitude":48.10667,"longitude":-123.37172},{"id":124508,"name":"Port Hadlock-Irondale","latitude":48.03273,"longitude":-122.78529},{"id":124518,"name":"Port Ludlow","latitude":47.92537,"longitude":-122.68349},{"id":124525,"name":"Port Orchard","latitude":47.54037,"longitude":-122.63625},{"id":124537,"name":"Port Townsend","latitude":48.11704,"longitude":-122.76045},{"id":124603,"name":"Poulsbo","latitude":47.73593,"longitude":-122.64654},{"id":124629,"name":"Prairie Heights","latitude":47.14933,"longitude":-122.1053},{"id":124630,"name":"Prairie Ridge","latitude":47.1376,"longitude":-122.14873},{"id":124714,"name":"Prosser","latitude":46.2068,"longitude":-119.76892},{"id":124744,"name":"Pullman","latitude":46.73127,"longitude":-117.17962},{"id":124757,"name":"Purdy","latitude":47.38899,"longitude":-122.62541},{"id":124771,"name":"Puyallup","latitude":47.18538,"longitude":-122.2929},{"id":124800,"name":"Quincy","latitude":47.2343,"longitude":-119.85255},{"id":124827,"name":"Rainier","latitude":46.88815,"longitude":-122.68846},{"id":124909,"name":"Ravensdale","latitude":47.35232,"longitude":-121.98373},{"id":124920,"name":"Raymond","latitude":46.68649,"longitude":-123.73294},{"id":124979,"name":"Redmond","latitude":47.67399,"longitude":-122.12151},{"id":125026,"name":"Renton","latitude":47.48288,"longitude":-122.21707},{"id":125032,"name":"Republic","latitude":48.64822,"longitude":-118.73781},{"id":125072,"name":"Richland","latitude":46.28569,"longitude":-119.28446},{"id":125121,"name":"Ridgefield","latitude":45.81511,"longitude":-122.7426},{"id":125174,"name":"Ritzville","latitude":47.12755,"longitude":-118.37999},{"id":125191,"name":"Riverbend","latitude":47.46649,"longitude":-121.75039},{"id":125213,"name":"Riverton","latitude":47.48427,"longitude":-122.29457},{"id":125270,"name":"Rochester","latitude":46.82177,"longitude":-123.09625},{"id":125339,"name":"Rocky Point","latitude":47.59287,"longitude":-122.66848},{"id":125420,"name":"Rosedale","latitude":47.33149,"longitude":-122.65235},{"id":125488,"name":"Royal City","latitude":46.90097,"longitude":-119.63059},{"id":125765,"name":"Salmon Creek","latitude":45.71067,"longitude":-122.64899},{"id":125778,"name":"Sammamish","latitude":47.64177,"longitude":-122.0804},{"id":125823,"name":"San Juan County","latitude":48.53116,"longitude":-123.0249},{"id":126077,"name":"Seabeck","latitude":47.63954,"longitude":-122.82849},{"id":126076,"name":"SeaTac","latitude":47.44846,"longitude":-122.29217},{"id":126104,"name":"Seattle","latitude":47.60621,"longitude":-122.33207},{"id":126122,"name":"Sedro-Woolley","latitude":48.50389,"longitude":-122.23611},{"id":126129,"name":"Selah","latitude":46.65402,"longitude":-120.53007},{"id":126164,"name":"Sequim","latitude":48.07963,"longitude":-123.10234},{"id":126299,"name":"Shelton","latitude":47.21509,"longitude":-123.10071},{"id":126368,"name":"Shoreline","latitude":47.75565,"longitude":-122.34152},{"id":126424,"name":"Silver Firs","latitude":47.86602,"longitude":-122.1551},{"id":126439,"name":"Silverdale","latitude":47.64454,"longitude":-122.69487},{"id":126464,"name":"Sisco Heights","latitude":48.11538,"longitude":-122.09708},{"id":126474,"name":"Skagit County","latitude":48.48215,"longitude":-121.80227},{"id":126476,"name":"Skamania County","latitude":46.02276,"longitude":-121.9151},{"id":126533,"name":"Smokey Point","latitude":48.15232,"longitude":-122.18264},{"id":126542,"name":"Snohomish","latitude":47.91288,"longitude":-122.09818},{"id":126543,"name":"Snohomish County","latitude":48.04602,"longitude":-121.72218},{"id":126544,"name":"Snoqualmie","latitude":47.52871,"longitude":-121.82539},{"id":126553,"name":"Soap Lake","latitude":47.38931,"longitude":-119.49059},{"id":126625,"name":"South Bend","latitude":46.66315,"longitude":-123.80461},{"id":126673,"name":"South Hill","latitude":47.14121,"longitude":-122.27012},{"id":126746,"name":"South Wenatchee","latitude":47.39012,"longitude":-120.28958},{"id":126793,"name":"Southworth","latitude":47.51204,"longitude":-122.5018},{"id":126796,"name":"Spanaway","latitude":47.10399,"longitude":-122.43457},{"id":126842,"name":"Spokane","latitude":47.65966,"longitude":-117.42908},{"id":126843,"name":"Spokane County","latitude":47.62064,"longitude":-117.40401},{"id":126844,"name":"Spokane Valley","latitude":47.67323,"longitude":-117.23937},{"id":126974,"name":"Stanwood","latitude":48.24121,"longitude":-122.37071},{"id":127017,"name":"Steilacoom","latitude":47.16982,"longitude":-122.60263},{"id":127042,"name":"Stevens County","latitude":48.39906,"longitude":-117.85514},{"id":127045,"name":"Stevenson","latitude":45.69567,"longitude":-121.88452},{"id":127162,"name":"Sudden Valley","latitude":48.72289,"longitude":-122.34655},{"id":127198,"name":"Sultan","latitude":47.8626,"longitude":-121.81651},{"id":127199,"name":"Sumas","latitude":49.00012,"longitude":-122.26488},{"id":127215,"name":"Summit","latitude":47.16177,"longitude":-122.35707},{"id":127220,"name":"Summit View","latitude":47.13632,"longitude":-122.35202},{"id":127223,"name":"Sumner","latitude":47.20316,"longitude":-122.2404},{"id":127260,"name":"Sunnyside","latitude":46.32374,"longitude":-120.00865},{"id":127263,"name":"Sunnyslope","latitude":47.4729,"longitude":-120.33674},{"id":127284,"name":"Suquamish","latitude":47.73121,"longitude":-122.55236},{"id":127369,"name":"Tacoma","latitude":47.25288,"longitude":-122.44429},{"id":127416,"name":"Tanglewilde","latitude":47.0515,"longitude":-122.78241},{"id":127417,"name":"Tanglewilde-Thompson Place","latitude":47.05116,"longitude":-122.78081},{"id":127418,"name":"Tanner","latitude":47.47538,"longitude":-121.74622},{"id":127509,"name":"Tenino","latitude":46.85677,"longitude":-122.85291},{"id":127518,"name":"Terrace Heights","latitude":46.60624,"longitude":-120.43979},{"id":127613,"name":"Three Lakes","latitude":47.94482,"longitude":-122.01152},{"id":127631,"name":"Thurston County","latitude":46.9295,"longitude":-122.83208},{"id":127639,"name":"Tieton","latitude":46.70207,"longitude":-120.75535},{"id":127717,"name":"Tonasket","latitude":48.70515,"longitude":-119.4395},{"id":127734,"name":"Toppenish","latitude":46.37735,"longitude":-120.30867},{"id":127760,"name":"Town and Country","latitude":47.72739,"longitude":-117.42161},{"id":127773,"name":"Tracyton","latitude":47.60898,"longitude":-122.65514},{"id":127811,"name":"Trentwood","latitude":47.69656,"longitude":-117.21076},{"id":127879,"name":"Tukwila","latitude":47.47399,"longitude":-122.26096},{"id":127880,"name":"Tulalip","latitude":48.06843,"longitude":-122.29181},{"id":127881,"name":"Tulalip Bay","latitude":48.03732,"longitude":-122.31014},{"id":127890,"name":"Tumwater","latitude":47.00732,"longitude":-122.90931},{"id":128004,"name":"Union Gap","latitude":46.55735,"longitude":-120.47506},{"id":128007,"name":"Union Hill-Novelty Hill","latitude":47.67887,"longitude":-122.02833},{"id":128036,"name":"University Place","latitude":47.23565,"longitude":-122.5504},{"id":128144,"name":"Vancouver","latitude":45.63873,"longitude":-122.66149},{"id":128157,"name":"Vashon","latitude":47.44732,"longitude":-122.45985},{"id":128167,"name":"Venersborg","latitude":45.77373,"longitude":-122.42454},{"id":128178,"name":"Veradale","latitude":47.64995,"longitude":-117.20738},{"id":128332,"name":"Wahkiakum County","latitude":46.29125,"longitude":-123.43316},{"id":128354,"name":"Waitsburg","latitude":46.27042,"longitude":-118.15329},{"id":128393,"name":"Walla Walla","latitude":46.06458,"longitude":-118.34302},{"id":128394,"name":"Walla Walla County","latitude":46.2298,"longitude":-118.47845},{"id":128395,"name":"Walla Walla East","latitude":46.05184,"longitude":-118.30403},{"id":128404,"name":"Waller","latitude":47.20066,"longitude":-122.36929},{"id":128420,"name":"Walnut Grove","latitude":45.66789,"longitude":-122.59899},{"id":128453,"name":"Wapato","latitude":46.44763,"longitude":-120.42034},{"id":128460,"name":"Warden","latitude":46.96764,"longitude":-119.03973},{"id":128467,"name":"Warm Beach","latitude":48.17065,"longitude":-122.3646},{"id":128591,"name":"Washougal","latitude":45.58262,"longitude":-122.35342},{"id":128629,"name":"Waterville","latitude":47.64708,"longitude":-120.07118},{"id":128653,"name":"Wauna","latitude":47.37899,"longitude":-122.64263},{"id":128797,"name":"Wenatchee","latitude":47.42346,"longitude":-120.31035},{"id":128847,"name":"West Clarkston-Highland","latitude":46.40287,"longitude":-117.06395},{"id":128910,"name":"West Lake Sammamish","latitude":47.5776,"longitude":-122.10123},{"id":128911,"name":"West Lake Stevens","latitude":47.99343,"longitude":-122.1018},{"id":128923,"name":"West Longview","latitude":46.16789,"longitude":-122.999},{"id":128951,"name":"West Pasco","latitude":46.24541,"longitude":-119.18279},{"id":128968,"name":"West Richland","latitude":46.3043,"longitude":-119.36141},{"id":128981,"name":"West Side Highway","latitude":46.18399,"longitude":-122.91715},{"id":128996,"name":"West Valley","latitude":46.59207,"longitude":-120.60507},{"id":129003,"name":"West Wenatchee","latitude":47.44374,"longitude":-120.35341},{"id":129073,"name":"Westport","latitude":46.89009,"longitude":-124.10406},{"id":129105,"name":"Whatcom County","latitude":48.82975,"longitude":-121.87283},{"id":129129,"name":"White Center","latitude":47.51732,"longitude":-122.35485},{"id":129159,"name":"White Salmon","latitude":45.72762,"longitude":-121.48646},{"id":129204,"name":"Whitman County","latitude":46.90117,"longitude":-117.52299},{"id":129234,"name":"Wilderness Rim","latitude":47.44697,"longitude":-121.76857},{"id":129403,"name":"Winlock","latitude":46.49122,"longitude":-122.9379},{"id":129480,"name":"Wollochet","latitude":47.26871,"longitude":-122.58402},{"id":129523,"name":"Woodinville","latitude":47.75427,"longitude":-122.16346},{"id":129527,"name":"Woodland","latitude":45.90456,"longitude":-122.74399},{"id":129550,"name":"Woods Creek","latitude":47.87871,"longitude":-121.89846},{"id":129579,"name":"Woodway","latitude":47.79621,"longitude":-122.38291},{"id":129647,"name":"Yacolt","latitude":45.86595,"longitude":-122.40621},{"id":129650,"name":"Yakima","latitude":46.60207,"longitude":-120.5059},{"id":129651,"name":"Yakima County","latitude":46.45685,"longitude":-120.7387},{"id":129669,"name":"Yarrow Point","latitude":47.64621,"longitude":-122.21735},{"id":129681,"name":"Yelm","latitude":46.94204,"longitude":-122.60596},{"id":129754,"name":"Zillah","latitude":46.40207,"longitude":-120.262}]