[{"id":111095,"name":"Alamo","latitude":37.36496,"longitude":-115.16446},{"id":111908,"name":"Battle Mountain","latitude":40.64213,"longitude":-116.93427},{"id":111982,"name":"Beatty","latitude":36.90856,"longitude":-116.75923},{"id":112602,"name":"Boulder City","latitude":35.97859,"longitude":-114.83249},{"id":113043,"name":"Bunkerville","latitude":36.77303,"longitude":-114.12802},{"id":113213,"name":"Caliente","latitude":37.61496,"longitude":-114.51194},{"id":113399,"name":"Carlin","latitude":40.71381,"longitude":-116.10397},{"id":113478,"name":"Carson City","latitude":39.1638,"longitude":-119.7674},{"id":114012,"name":"Churchill County","latitude":39.58088,"longitude":-118.33578},{"id":114129,"name":"Clark County","latitude":36.2152,"longitude":-115.01356},{"id":114389,"name":"Cold Springs","latitude":39.68019,"longitude":-119.97659},{"id":115098,"name":"Dayton","latitude":39.23714,"longitude":-119.59295},{"id":115434,"name":"Douglas County","latitude":38.91224,"longitude":-119.61637},{"id":115768,"name":"East Valley","latitude":38.9434,"longitude":-119.69923},{"id":116008,"name":"Elko","latitude":40.83242,"longitude":-115.76312},{"id":116009,"name":"Elko County","latitude":41.14583,"longitude":-115.35776},{"id":116086,"name":"Ely","latitude":39.24744,"longitude":-114.88863},{"id":116149,"name":"Enterprise","latitude":36.02525,"longitude":-115.24194},{"id":116186,"name":"Esmeralda County","latitude":37.7847,"longitude":-117.63237},{"id":116237,"name":"Eureka","latitude":39.51271,"longitude":-115.96061},{"id":116238,"name":"Eureka County","latitude":39.98389,"longitude":-116.26856},{"id":116378,"name":"Fallon","latitude":39.47353,"longitude":-118.77737},{"id":116491,"name":"Fernley","latitude":39.60797,"longitude":-119.25183},{"id":117078,"name":"Gardnerville","latitude":38.9413,"longitude":-119.74962},{"id":117079,"name":"Gardnerville Ranchos","latitude":38.88824,"longitude":-119.74129},{"id":117357,"name":"Golden Valley","latitude":39.61547,"longitude":-119.82658},{"id":117363,"name":"Goldfield","latitude":37.70854,"longitude":-117.23563},{"id":118176,"name":"Hawthorne","latitude":38.52464,"longitude":-118.62458},{"id":118278,"name":"Henderson","latitude":36.0397,"longitude":-114.98194},{"id":118780,"name":"Humboldt County","latitude":41.40684,"longitude":-118.11197},{"id":118888,"name":"Incline Village","latitude":39.2513,"longitude":-119.97297},{"id":118909,"name":"Indian Hills","latitude":39.08602,"longitude":-119.78407},{"id":119057,"name":"Jackpot","latitude":41.98324,"longitude":-114.67476},{"id":119273,"name":"Johnson Lane","latitude":39.04796,"longitude":-119.72212},{"id":119610,"name":"Kingsbury","latitude":38.97713,"longitude":-119.90685},{"id":120097,"name":"Lander County","latitude":39.93381,"longitude":-117.03791},{"id":120163,"name":"Las Vegas","latitude":36.17497,"longitude":-115.13722},{"id":120185,"name":"Laughlin","latitude":35.16778,"longitude":-114.57302},{"id":120358,"name":"Lemmon Valley","latitude":39.63602,"longitude":-119.84325},{"id":120532,"name":"Lincoln County","latitude":37.64335,"longitude":-114.87755},{"id":120825,"name":"Lovelock","latitude":40.17935,"longitude":-118.47348},{"id":120939,"name":"Lyon County","latitude":39.0204,"longitude":-119.1892},{"id":121502,"name":"McGill","latitude":39.40494,"longitude":-114.77863},{"id":121727,"name":"Mesquite","latitude":36.80553,"longitude":-114.06719},{"id":121930,"name":"Minden","latitude":38.95407,"longitude":-119.76573},{"id":121936,"name":"Mineral County","latitude":38.53881,"longitude":-118.43521},{"id":122007,"name":"Moapa Town","latitude":36.68219,"longitude":-114.59416},{"id":122008,"name":"Moapa Valley","latitude":36.58053,"longitude":-114.47026},{"id":122017,"name":"Mogul","latitude":39.5138,"longitude":-119.92603},{"id":122622,"name":"Nellis Air Force Base","latitude":36.24607,"longitude":-115.05721},{"id":123052,"name":"North Las Vegas","latitude":36.19886,"longitude":-115.1175},{"id":123222,"name":"Nye County","latitude":38.04238,"longitude":-116.47193},{"id":123724,"name":"Pahrump","latitude":36.20829,"longitude":-115.98391},{"id":123819,"name":"Paradise","latitude":36.09719,"longitude":-115.14666},{"id":124091,"name":"Pershing County","latitude":40.44036,"longitude":-118.40444},{"id":124273,"name":"Pioche","latitude":37.92969,"longitude":-114.45221},{"id":125020,"name":"Reno","latitude":39.52963,"longitude":-119.8138},{"id":125885,"name":"Sandy Valley","latitude":35.81692,"longitude":-115.63223},{"id":126435,"name":"Silver Springs","latitude":39.41547,"longitude":-119.22461},{"id":126510,"name":"Smith","latitude":38.80047,"longitude":-119.32738},{"id":126517,"name":"Smith Valley","latitude":38.78421,"longitude":-119.34425},{"id":126801,"name":"Spanish Springs","latitude":39.64908,"longitude":-119.70741},{"id":126805,"name":"Sparks","latitude":39.53491,"longitude":-119.75269},{"id":126854,"name":"Spring Creek","latitude":40.72659,"longitude":-115.5859},{"id":126881,"name":"Spring Valley","latitude":36.10803,"longitude":-115.245},{"id":126939,"name":"Stagecoach","latitude":39.3738,"longitude":-119.37406},{"id":127102,"name":"Storey County","latitude":39.44653,"longitude":-119.52917},{"id":127205,"name":"Summerlin South","latitude":36.11708,"longitude":-115.33001},{"id":127242,"name":"Sun Valley","latitude":39.5963,"longitude":-119.77602},{"id":127269,"name":"Sunrise Manor","latitude":36.21108,"longitude":-115.07306},{"id":127722,"name":"Tonopah","latitude":38.06716,"longitude":-117.23008},{"id":127731,"name":"Topaz Ranch Estates","latitude":38.73565,"longitude":-119.50079},{"id":128180,"name":"Verdi","latitude":39.51824,"longitude":-119.98881},{"id":128290,"name":"Virginia City","latitude":39.30963,"longitude":-119.64962},{"id":128590,"name":"Washoe County","latitude":40.66542,"longitude":-119.6643},{"id":128783,"name":"Wells","latitude":41.11159,"longitude":-114.96449},{"id":129004,"name":"West Wendover","latitude":40.7391,"longitude":-114.07335},{"id":129153,"name":"White Pine County","latitude":39.44216,"longitude":-114.90159},{"id":129209,"name":"Whitney","latitude":36.09831,"longitude":-115.0363},{"id":129361,"name":"Winchester","latitude":36.12997,"longitude":-115.11889},{"id":129411,"name":"Winnemucca","latitude":40.97296,"longitude":-117.73568},{"id":129682,"name":"Yerington","latitude":38.98575,"longitude":-119.16293}]