[{"id":89894,"name":"Aghireșu","latitude":46.87209,"longitude":23.23773},{"id":89895,"name":"Aghireșu-Fabrici","latitude":46.8669,"longitude":23.27129},{"id":89906,"name":"Aiton","latitude":46.68333,"longitude":23.73333},{"id":89941,"name":"Aluniş","latitude":47.03333,"longitude":23.75},{"id":89969,"name":"Apahida","latitude":46.81667,"longitude":23.75},{"id":90014,"name":"Aşchileu Dorna","latitude":46.98333,"longitude":23.48333},{"id":90022,"name":"Baciu","latitude":46.8,"longitude":23.51667},{"id":90496,"name":"Băişoara","latitude":46.58333,"longitude":23.46667},{"id":90091,"name":"Beliş","latitude":46.65,"longitude":23.03333},{"id":90174,"name":"Bobâlna","latitude":47.14385,"longitude":23.64461},{"id":90192,"name":"Bogdăneşti","latitude":46.63333,"longitude":23.13333},{"id":90219,"name":"Bonțida","latitude":46.9155,"longitude":23.81475},{"id":90239,"name":"Borşa","latitude":46.93333,"longitude":23.66667},{"id":90430,"name":"Buza","latitude":46.9,"longitude":24.15},{"id":93825,"name":"Căianu","latitude":46.7846,"longitude":23.9185},{"id":93826,"name":"Căianu Mic","latitude":46.78333,"longitude":23.91667},{"id":93851,"name":"Călăraşi","latitude":46.48333,"longitude":23.86667},{"id":93852,"name":"Călăţele","latitude":46.76667,"longitude":23.01667},{"id":93854,"name":"Cămăraşu","latitude":46.78333,"longitude":24.13333},{"id":93797,"name":"Câmpia Turzii","latitude":46.55,"longitude":23.88333},{"id":93861,"name":"Căpuşu Mare","latitude":46.78333,"longitude":23.3},{"id":93885,"name":"Căşeiu","latitude":47.18333,"longitude":23.86667},{"id":93822,"name":"Câţcău","latitude":47.2,"longitude":23.78333},{"id":93879,"name":"Cătina","latitude":46.85,"longitude":24.18333},{"id":90602,"name":"Ceanu Mare","latitude":46.66667,"longitude":23.95},{"id":90669,"name":"Chinteni","latitude":46.86667,"longitude":23.53333},{"id":90685,"name":"Chiuiești","latitude":47.29686,"longitude":23.87553},{"id":90740,"name":"Ciucea","latitude":46.95,"longitude":22.81667},{"id":90758,"name":"Ciurila","latitude":46.65,"longitude":23.55},{"id":90771,"name":"Cluj-Napoca","latitude":46.76667,"longitude":23.6},{"id":90790,"name":"Cojocna","latitude":46.75,"longitude":23.83333},{"id":90830,"name":"Comuna Aghireşu","latitude":46.87785,"longitude":23.2532},{"id":90836,"name":"Comuna Aiton","latitude":46.68275,"longitude":23.71608},{"id":90860,"name":"Comuna Aluniş","latitude":47.05595,"longitude":23.74365},{"id":90876,"name":"Comuna Apahida","latitude":46.78296,"longitude":23.74433},{"id":90910,"name":"Comuna Aşchileu","latitude":46.98498,"longitude":23.48468},{"id":90914,"name":"Comuna Baciu","latitude":46.8201,"longitude":23.49036},{"id":91208,"name":"Comuna Băişoara","latitude":46.58331,"longitude":23.39349},{"id":90955,"name":"Comuna Beliş","latitude":46.65246,"longitude":22.95213},{"id":91013,"name":"Comuna Bobâlna","latitude":47.13319,"longitude":23.65163},{"id":91044,"name":"Comuna Bonţida","latitude":46.90036,"longitude":23.82228},{"id":91057,"name":"Comuna Borşa","latitude":46.92402,"longitude":23.6494},{"id":91178,"name":"Comuna Buza","latitude":46.90492,"longitude":24.18041},{"id":91567,"name":"Comuna Căianu","latitude":46.8067,"longitude":23.90883},{"id":91578,"name":"Comuna Călăraşi","latitude":46.49376,"longitude":23.85359},{"id":91579,"name":"Comuna Călăţele","latitude":46.76282,"longitude":23.03046},{"id":91580,"name":"Comuna Cămăraşu","latitude":46.78695,"longitude":24.11369},{"id":91564,"name":"Comuna Cãpuşu Mare","latitude":46.78746,"longitude":23.23462},{"id":91598,"name":"Comuna Căşeiu","latitude":47.2381,"longitude":23.86404},{"id":91558,"name":"Comuna Câţcău","latitude":47.23058,"longitude":23.79331},{"id":91594,"name":"Comuna Cătina","latitude":46.85179,"longitude":24.16497},{"id":91273,"name":"Comuna Ceanu Mare","latitude":46.65324,"longitude":23.94586},{"id":91316,"name":"Comuna Chinteni","latitude":46.88822,"longitude":23.55319},{"id":91327,"name":"Comuna Chiuieşti","latitude":47.32292,"longitude":23.92016},{"id":91362,"name":"Comuna Ciucea","latitude":46.95981,"longitude":22.84363},{"id":91376,"name":"Comuna Ciurila","latitude":46.63372,"longitude":23.53979},{"id":91395,"name":"Comuna Cojocna","latitude":46.72137,"longitude":23.83949},{"id":91438,"name":"Comuna Corneşti","latitude":47.02811,"longitude":23.685},{"id":91537,"name":"Comuna Cuzdrioara","latitude":47.18274,"longitude":23.93248},{"id":91731,"name":"Comuna Dăbâca","latitude":46.96989,"longitude":23.69456},{"id":91756,"name":"Comuna Feleacu","latitude":46.70345,"longitude":23.64021},{"id":91769,"name":"Comuna Fizeşu Gherlii","latitude":46.99442,"longitude":23.94727},{"id":91770,"name":"Comuna Floreşti","latitude":46.73375,"longitude":23.47861},{"id":91780,"name":"Comuna Frata","latitude":46.69878,"longitude":24.05385},{"id":91967,"name":"Comuna Gârbãu","latitude":46.84059,"longitude":23.37049},{"id":91835,"name":"Comuna Geaca","latitude":46.88141,"longitude":24.06256},{"id":91868,"name":"Comuna Gilău","latitude":46.72607,"longitude":23.34909},{"id":92055,"name":"Comuna Iara","latitude":46.54268,"longitude":23.52749},{"id":92059,"name":"Comuna Iclod","latitude":46.99174,"longitude":23.81618},{"id":92112,"name":"Comuna Izvoru Crişului","latitude":46.84542,"longitude":23.10025},{"id":92120,"name":"Comuna Jichişu De Jos","latitude":47.12028,"longitude":23.76788},{"id":92132,"name":"Comuna Jucu","latitude":46.84958,"longitude":23.80953},{"id":92197,"name":"Comuna Luna","latitude":46.47522,"longitude":23.94928},{"id":92375,"name":"Comuna Mãguri-Rãcãtãu","latitude":46.63948,"longitude":23.19485},{"id":92371,"name":"Comuna Mânăstireni","latitude":46.79131,"longitude":23.09871},{"id":92410,"name":"Comuna Mărgău","latitude":46.75677,"longitude":22.94429},{"id":92411,"name":"Comuna Mărişel","latitude":46.68422,"longitude":23.11466},{"id":92263,"name":"Comuna Mica","latitude":47.14436,"longitude":23.97593},{"id":92273,"name":"Comuna Mihai Viteazu","latitude":46.53477,"longitude":23.71595},{"id":92293,"name":"Comuna Mintiu Gherlii","latitude":47.07323,"longitude":23.92731},{"id":92314,"name":"Comuna Mociu","latitude":46.79232,"longitude":24.02853},{"id":92325,"name":"Comuna Moldoveneşti","latitude":46.4735,"longitude":23.68905},{"id":92431,"name":"Comuna Negreni","latitude":46.95224,"longitude":22.75835},{"id":92710,"name":"Comuna Pãlatca","latitude":46.87358,"longitude":23.98288},{"id":92535,"name":"Comuna Panticeu","latitude":47.04079,"longitude":23.55639},{"id":92564,"name":"Comuna Petreştii De Jos","latitude":46.58162,"longitude":23.62191},{"id":92602,"name":"Comuna Ploscoş","latitude":46.66066,"longitude":23.84322},{"id":92640,"name":"Comuna Poieni","latitude":46.88361,"longitude":22.86041},{"id":92829,"name":"Comuna Râșca","latitude":46.73082,"longitude":23.15413},{"id":92756,"name":"Comuna Recea Cristur","latitude":47.12155,"longitude":23.54554},{"id":93074,"name":"Comuna Sãcuieu","latitude":46.816,"longitude":22.8601},{"id":93050,"name":"Comuna Sâncraiu","latitude":46.8341,"longitude":22.99135},{"id":93103,"name":"Comuna Sănduleşti","latitude":46.58887,"longitude":23.73049},{"id":93060,"name":"Comuna Sânmărtin","latitude":47.00708,"longitude":24.07336},{"id":93062,"name":"Comuna Sânpaul","latitude":46.89597,"longitude":23.41731},{"id":93119,"name":"Comuna Săvădisla","latitude":46.6654,"longitude":23.44808},{"id":92925,"name":"Comuna Sic","latitude":46.93134,"longitude":23.89615},{"id":93023,"name":"Comuna Suatu","latitude":46.75372,"longitude":23.9582},{"id":93567,"name":"Comuna Ţaga","latitude":46.951,"longitude":24.02605},{"id":93194,"name":"Comuna Tritenii De Jos","latitude":46.58735,"longitude":24.00139},{"id":93213,"name":"Comuna Tureni","latitude":46.63917,"longitude":23.67684},{"id":93270,"name":"Comuna Unguraş","latitude":47.11667,"longitude":24.05},{"id":93289,"name":"Comuna Vad","latitude":47.20634,"longitude":23.71403},{"id":93307,"name":"Comuna Valea Ierii","latitude":46.64086,"longitude":23.31997},{"id":93358,"name":"Comuna Viişoara","latitude":46.55377,"longitude":23.93583},{"id":93416,"name":"Comuna Vultureni","latitude":46.95597,"longitude":23.56762},{"id":93605,"name":"Copăceni","latitude":46.59675,"longitude":23.73886},{"id":93634,"name":"Corneşti","latitude":47.03333,"longitude":23.68333},{"id":93788,"name":"Cuzdrioara","latitude":47.16667,"longitude":23.91667},{"id":94115,"name":"Dăbâca","latitude":46.98333,"longitude":23.66667},{"id":93910,"name":"Dej","latitude":47.15,"longitude":23.86667},{"id":93931,"name":"Dezmir","latitude":46.76475,"longitude":23.72451},{"id":94154,"name":"Feleacu","latitude":46.71667,"longitude":23.61667},{"id":94181,"name":"Fizeşu Gherlii","latitude":47.01667,"longitude":23.98333},{"id":94185,"name":"Floreşti","latitude":46.74574,"longitude":23.49375},{"id":94202,"name":"Frata","latitude":46.7,"longitude":24.05},{"id":94485,"name":"Gârbău","latitude":46.83305,"longitude":23.3524},{"id":94285,"name":"Geaca","latitude":46.86667,"longitude":24.1},{"id":94304,"name":"Gheorghieni","latitude":46.71393,"longitude":23.68853},{"id":94308,"name":"Gherla","latitude":47.03333,"longitude":23.91667},{"id":94344,"name":"Gilău","latitude":46.73245,"longitude":23.36174},{"id":94572,"name":"Huedin","latitude":46.86667,"longitude":23.05},{"id":94624,"name":"Iara","latitude":46.55,"longitude":23.51667},{"id":94634,"name":"Iclod","latitude":46.98333,"longitude":23.8},{"id":94718,"name":"Izvoru Crişului","latitude":46.83333,"longitude":23.1},{"id":94731,"name":"Jichişu de Jos","latitude":47.11667,"longitude":23.8},{"id":94851,"name":"Luna","latitude":46.50659,"longitude":23.91959},{"id":94852,"name":"Luna de Sus","latitude":46.74313,"longitude":23.43539},{"id":94874,"name":"Luncani","latitude":46.47274,"longitude":23.95095},{"id":95246,"name":"Măguri","latitude":46.62849,"longitude":23.10294},{"id":95247,"name":"Măguri-Răcătău","latitude":46.645,"longitude":23.197},{"id":95219,"name":"Mânăstireni","latitude":46.76667,"longitude":23.08333},{"id":95275,"name":"Mărgău","latitude":46.75,"longitude":22.96667},{"id":95276,"name":"Mărişel","latitude":46.65,"longitude":23.13333},{"id":94948,"name":"Mera","latitude":46.81525,"longitude":23.45405},{"id":94964,"name":"Mica","latitude":47.13333,"longitude":23.93333},{"id":94980,"name":"Mihai Viteazu","latitude":46.53333,"longitude":23.75},{"id":95009,"name":"Mintiu Gherlii","latitude":47.05,"longitude":23.95},{"id":95045,"name":"Mociu","latitude":46.8,"longitude":24.03333},{"id":95063,"name":"Moldoveneşti","latitude":46.5,"longitude":23.65},{"id":95130,"name":"Municipiul Câmpia Turzii","latitude":46.54417,"longitude":23.88472},{"id":95126,"name":"Municipiul Cluj-Napoca","latitude":46.77791,"longitude":23.60512},{"id":95135,"name":"Municipiul Dej","latitude":47.12783,"longitude":23.87504},{"id":95146,"name":"Municipiul Gherla","latitude":47.01431,"longitude":23.88134},{"id":95189,"name":"Municipiul Turda","latitude":46.57456,"longitude":23.78574},{"id":95314,"name":"Negreni","latitude":46.95378,"longitude":22.76347},{"id":95347,"name":"Nireș","latitude":47.11499,"longitude":23.98092},{"id":95394,"name":"Ocna Dejului","latitude":47.11581,"longitude":23.85934},{"id":95530,"name":"Oraş Huedin","latitude":46.87204,"longitude":23.03935},{"id":96010,"name":"Pădureni","latitude":46.59316,"longitude":24.027},{"id":96011,"name":"Pălatca","latitude":46.85,"longitude":23.98333},{"id":95709,"name":"Panticeu","latitude":47.03333,"longitude":23.56667},{"id":95748,"name":"Petreştii de Jos","latitude":46.58333,"longitude":23.65},{"id":95828,"name":"Ploscoș","latitude":46.64303,"longitude":23.84663},{"id":95891,"name":"Poieni","latitude":46.9188,"longitude":22.85826},{"id":96179,"name":"Râșca","latitude":46.73967,"longitude":23.10625},{"id":96205,"name":"Răscruci","latitude":46.90569,"longitude":23.7686},{"id":96072,"name":"Recea Cristur","latitude":47.06667,"longitude":23.53333},{"id":96150,"name":"Rugășești","latitude":47.23147,"longitude":23.87326},{"id":105998,"name":"Săcuieu","latitude":46.82335,"longitude":22.88824},{"id":96526,"name":"Sâncraiu","latitude":46.83333,"longitude":22.98333},{"id":106026,"name":"Sănduleşti","latitude":46.58333,"longitude":23.71667},{"id":96537,"name":"Sânmărghita","latitude":47.15649,"longitude":23.99461},{"id":96538,"name":"Sânmărtin","latitude":46.9,"longitude":23.56667},{"id":96539,"name":"Sânnicoară","latitude":46.7899,"longitude":23.7257},{"id":96542,"name":"Sânpaul","latitude":46.88333,"longitude":23.41667},{"id":106049,"name":"Săvădisla","latitude":46.68333,"longitude":23.45},{"id":96333,"name":"Sic","latitude":46.93333,"longitude":23.88333},{"id":96411,"name":"Soporu de Câmpie","latitude":46.69618,"longitude":24.00658},{"id":96485,"name":"Suatu","latitude":46.76667,"longitude":23.96667},{"id":96487,"name":"Suceagu","latitude":46.78432,"longitude":23.46511},{"id":97099,"name":"Ţaga","latitude":46.95,"longitude":24.05},{"id":106158,"name":"Tritenii de Jos","latitude":46.58333,"longitude":24.0},{"id":106159,"name":"Tritenii de Sus","latitude":46.60544,"longitude":23.99849},{"id":96558,"name":"Turda","latitude":46.56667,"longitude":23.78333},{"id":96561,"name":"Tureni","latitude":46.62934,"longitude":23.7024},{"id":96657,"name":"Unguraş","latitude":47.11667,"longitude":24.05},{"id":96672,"name":"Urca","latitude":46.54885,"longitude":23.96187},{"id":96694,"name":"Vad","latitude":47.2,"longitude":23.75},{"id":96704,"name":"Vaida-Cămăraș","latitude":46.82823,"longitude":23.94724},{"id":96727,"name":"Valea Ierii","latitude":46.65,"longitude":23.35},{"id":96820,"name":"Viişoara","latitude":46.55,"longitude":23.91667},{"id":96907,"name":"Vultureni","latitude":46.96667,"longitude":23.56667}]