[{"id":153349,"name":"Äetsä","latitude":61.28333,"longitude":22.68333},{"id":153290,"name":"Aimala","latitude":61.33,"longitude":23.69},{"id":153291,"name":"Aitoo","latitude":61.338974,"longitude":24.494319},{"id":153292,"name":"Akaa","latitude":61.16666667,"longitude":23.86805556},{"id":153293,"name":"Amuri","latitude":61.5,"longitude":23.745},{"id":153294,"name":"Haihara","latitude":61.4763,"longitude":23.87711},{"id":153295,"name":"Hallila","latitude":61.4625,"longitude":23.82916667},{"id":153297,"name":"Hämeenkyrö","latitude":61.63333333,"longitude":23.2},{"id":153296,"name":"Hervanta","latitude":61.4481,"longitude":23.8521},{"id":153298,"name":"Ikaalinen","latitude":61.76944444,"longitude":23.06805556},{"id":153299,"name":"Juupajoki","latitude":61.79666667,"longitude":24.37},{"id":153300,"name":"Kangasala","latitude":61.463889,"longitude":24.065},{"id":153301,"name":"Kihniö","latitude":62.20833333,"longitude":23.17916667},{"id":153302,"name":"Kiikka","latitude":61.32077778,"longitude":22.77538889},{"id":153303,"name":"Kiikoinen","latitude":61.45,"longitude":22.575},{"id":153304,"name":"Kolho","latitude":62.13333333,"longitude":24.51666667},{"id":153305,"name":"Kuhmalahti","latitude":61.505,"longitude":24.56666667},{"id":153306,"name":"Kuru","latitude":61.87558,"longitude":23.71948},{"id":153307,"name":"Kylmäkoski","latitude":61.15,"longitude":23.69166667},{"id":153312,"name":"Längelmäki","latitude":61.6889,"longitude":24.69194},{"id":153308,"name":"Lempäälä","latitude":61.31388889,"longitude":23.75277778},{"id":153309,"name":"Lentävänniemi","latitude":61.52801,"longitude":23.70575},{"id":153310,"name":"Lielahti","latitude":61.51666667,"longitude":23.66666667},{"id":153311,"name":"Luopioinen","latitude":61.36293,"longitude":24.66781},{"id":153315,"name":"Mänttä","latitude":62.03014,"longitude":24.62791},{"id":153313,"name":"Messukylä","latitude":61.48527778,"longitude":23.84472222},{"id":153314,"name":"Mouhijärvi","latitude":61.5,"longitude":23.01667},{"id":153316,"name":"Naistenmatka","latitude":61.46518,"longitude":23.65253},{"id":153317,"name":"Nekala","latitude":61.48333333,"longitude":23.79055556},{"id":153318,"name":"Nokia","latitude":61.47666667,"longitude":23.50527778},{"id":153319,"name":"Nurmi","latitude":61.53779,"longitude":23.94178},{"id":153320,"name":"Nuutajärvi","latitude":61.04,"longitude":23.43},{"id":153321,"name":"Orivesi","latitude":61.67777778,"longitude":24.35694444},{"id":153322,"name":"Osara","latitude":61.70866,"longitude":23.15871},{"id":153328,"name":"Pälkäne","latitude":61.35403,"longitude":24.51912},{"id":153323,"name":"Parkano","latitude":62.00972222,"longitude":23.025},{"id":153324,"name":"Pirkkala","latitude":61.46666667,"longitude":23.65},{"id":153325,"name":"Pispala","latitude":61.50611111,"longitude":23.7025},{"id":153326,"name":"Pohjaslahti","latitude":62.15631,"longitude":24.1319},{"id":153327,"name":"Punkalaidun","latitude":61.11166667,"longitude":23.105},{"id":153329,"name":"Ruovesi","latitude":61.983333,"longitude":24.083333},{"id":153334,"name":"Sääksmäki","latitude":61.2,"longitude":24.06666667},{"id":153330,"name":"Sahalahti","latitude":61.46666667,"longitude":24.31666667},{"id":153331,"name":"Sastamala","latitude":61.34166667,"longitude":22.90833333},{"id":153332,"name":"Suodenniemi","latitude":61.5581,"longitude":22.78526},{"id":153333,"name":"Suoniemi","latitude":61.44111111,"longitude":23.215},{"id":153335,"name":"Tampere","latitude":61.49805556,"longitude":23.76},{"id":153336,"name":"Teisko","latitude":61.67336111,"longitude":23.84766944},{"id":153337,"name":"Toijala","latitude":61.1678,"longitude":23.83819},{"id":153338,"name":"Tottijärvi","latitude":61.39777778,"longitude":23.34277778},{"id":153339,"name":"Urjala","latitude":61.08333333,"longitude":23.55},{"id":153340,"name":"Valkeakoski","latitude":61.26666667,"longitude":24.03055556},{"id":153341,"name":"Vammala","latitude":61.34027778,"longitude":22.90972222},{"id":153342,"name":"Vesilahti","latitude":61.316667,"longitude":23.616667},{"id":153343,"name":"Viiala","latitude":61.21023,"longitude":23.76738},{"id":153344,"name":"Viljakkala","latitude":61.70601,"longitude":23.26688},{"id":153345,"name":"Vilppula","latitude":62.02121,"longitude":24.50483},{"id":153346,"name":"Virrat","latitude":62.24027778,"longitude":23.77083333},{"id":153347,"name":"Vuores","latitude":61.431,"longitude":23.81184},{"id":153348,"name":"Ylöjärvi","latitude":61.55,"longitude":23.58333333}]