[{"id":151259,"name":"Abadiño","latitude":0.0,"longitude":0.0},{"id":151260,"name":"Abanto y Ciérvana-Abanto Zierbena","latitude":0.0,"longitude":0.0},{"id":151318,"name":"Ajangiz","latitude":0.0,"longitude":0.0},{"id":32319,"name":"Alonsotegi","latitude":43.24483,"longitude":-2.98759},{"id":151261,"name":"Amorebieta-Etxano","latitude":0.0,"longitude":0.0},{"id":32357,"name":"Amoroto","latitude":43.32634,"longitude":-2.51349},{"id":151262,"name":"Arakaldo","latitude":0.0,"longitude":0.0},{"id":151263,"name":"Arantzazu","latitude":0.0,"longitude":0.0},{"id":151311,"name":"Areatza","latitude":0.0,"longitude":0.0},{"id":151266,"name":"Arrankudiaga","latitude":0.0,"longitude":0.0},{"id":151319,"name":"Arratzu","latitude":0.0,"longitude":0.0},{"id":151267,"name":"Arrieta","latitude":0.0,"longitude":0.0},{"id":32507,"name":"Arrigorriaga","latitude":43.21006,"longitude":-2.88562},{"id":151271,"name":"Artea","latitude":0.0,"longitude":0.0},{"id":151265,"name":"Artzentales","latitude":0.0,"longitude":0.0},{"id":151309,"name":"Atxondo","latitude":0.0,"longitude":0.0},{"id":32557,"name":"Aulesti","latitude":43.3,"longitude":-2.56667},{"id":32618,"name":"Bakio","latitude":43.42917,"longitude":-2.80881},{"id":151308,"name":"Balmaseda","latitude":0.0,"longitude":0.0},{"id":32638,"name":"Barakaldo","latitude":43.29639,"longitude":-2.98813},{"id":151268,"name":"Barrika","latitude":0.0,"longitude":0.0},{"id":32688,"name":"Basauri","latitude":43.2397,"longitude":-2.8858},{"id":151310,"name":"Bedia","latitude":0.0,"longitude":0.0},{"id":32831,"name":"Berango","latitude":43.365,"longitude":-2.99601},{"id":32859,"name":"Bermeo","latitude":43.42088,"longitude":-2.72152},{"id":32863,"name":"Berriatua","latitude":43.31667,"longitude":-2.46667},{"id":32866,"name":"Berriz","latitude":43.16667,"longitude":-2.56667},{"id":32895,"name":"Bilbao","latitude":43.26271,"longitude":-2.92528},{"id":151269,"name":"Busturia","latitude":0.0,"longitude":0.0},{"id":33927,"name":"Derio","latitude":43.30544,"longitude":-2.88116},{"id":151273,"name":"Dima","latitude":0.0,"longitude":0.0},{"id":33961,"name":"Durango","latitude":43.17124,"longitude":-2.6338},{"id":33968,"name":"Ea","latitude":43.37985,"longitude":-2.58556},{"id":151276,"name":"Elantxobe","latitude":0.0,"longitude":0.0},{"id":34038,"name":"Elorrio","latitude":43.12924,"longitude":-2.54056},{"id":34066,"name":"Erandio","latitude":43.30438,"longitude":-2.97352},{"id":151277,"name":"Ereño","latitude":0.0,"longitude":0.0},{"id":34069,"name":"Ermua","latitude":43.18725,"longitude":-2.50261},{"id":34071,"name":"Errigoiti","latitude":43.31667,"longitude":-2.71667},{"id":151274,"name":"Etxebarri","latitude":0.0,"longitude":0.0},{"id":151275,"name":"Etxebarria","latitude":0.0,"longitude":0.0},{"id":34232,"name":"Forua","latitude":43.33343,"longitude":-2.67504},{"id":151278,"name":"Fruiz","latitude":0.0,"longitude":0.0},{"id":34378,"name":"Galdakao","latitude":43.23073,"longitude":-2.8429},{"id":151279,"name":"Galdames","latitude":0.0,"longitude":0.0},{"id":151280,"name":"Gamiz-Fika","latitude":0.0,"longitude":0.0},{"id":151281,"name":"Garai","latitude":0.0,"longitude":0.0},{"id":34436,"name":"Gatika","latitude":43.36313,"longitude":-2.87294},{"id":151282,"name":"Gautegiz Arteaga","latitude":0.0,"longitude":0.0},{"id":34457,"name":"Gernika-Lumo","latitude":43.31667,"longitude":-2.68333},{"id":34461,"name":"Getxo","latitude":43.35689,"longitude":-3.01146},{"id":151285,"name":"Gizaburuaga","latitude":0.0,"longitude":0.0},{"id":151283,"name":"Gordexola","latitude":0.0,"longitude":0.0},{"id":151284,"name":"Gorliz","latitude":0.0,"longitude":0.0},{"id":34568,"name":"Güeñes","latitude":43.21252,"longitude":-3.09497},{"id":34724,"name":"Ibarrangelu","latitude":43.39027,"longitude":-2.63423},{"id":151312,"name":"Igorre","latitude":0.0,"longitude":0.0},{"id":151286,"name":"Ispaster","latitude":0.0,"longitude":0.0},{"id":151317,"name":"Iurreta","latitude":0.0,"longitude":0.0},{"id":34783,"name":"Izurtza","latitude":43.15,"longitude":-2.63333},{"id":151270,"name":"Karrantza Harana/Valle de Carranza","latitude":0.0,"longitude":0.0},{"id":151314,"name":"Kortezubi","latitude":0.0,"longitude":0.0},{"id":34961,"name":"Lanestosa","latitude":43.21986,"longitude":-3.4392},{"id":151287,"name":"Larrabetzu","latitude":0.0,"longitude":0.0},{"id":151288,"name":"Laukiz","latitude":0.0,"longitude":0.0},{"id":35026,"name":"Leioa","latitude":43.32686,"longitude":-2.98884},{"id":35028,"name":"Lekeitio","latitude":43.36417,"longitude":-2.50492},{"id":151289,"name":"Lemoa","latitude":0.0,"longitude":0.0},{"id":151290,"name":"Lemoiz","latitude":0.0,"longitude":0.0},{"id":35041,"name":"Lezama","latitude":43.02799,"longitude":-2.97257},{"id":151313,"name":"Loiu","latitude":0.0,"longitude":0.0},{"id":151291,"name":"Mallabia","latitude":0.0,"longitude":0.0},{"id":35361,"name":"Mañaria","latitude":43.13819,"longitude":-2.66104},{"id":35294,"name":"Markina-Xemein","latitude":43.26667,"longitude":-2.5},{"id":151292,"name":"Maruri-Jatabe","latitude":0.0,"longitude":0.0},{"id":151294,"name":"Meñaka","latitude":0.0,"longitude":0.0},{"id":151293,"name":"Mendata","latitude":0.0,"longitude":0.0},{"id":35400,"name":"Mendexa","latitude":43.3459,"longitude":-2.4842},{"id":151296,"name":"Morga","latitude":0.0,"longitude":0.0},{"id":35662,"name":"Mundaka","latitude":43.40804,"longitude":-2.69852},{"id":35664,"name":"Mungia","latitude":43.35461,"longitude":-2.84524},{"id":151264,"name":"Munitibar-Arbatzegi Gerrikaitz","latitude":0.0,"longitude":0.0},{"id":151315,"name":"Murueta","latitude":0.0,"longitude":0.0},{"id":151298,"name":"Muskiz","latitude":0.0,"longitude":0.0},{"id":151297,"name":"Muxika","latitude":0.0,"longitude":0.0},{"id":151316,"name":"Nabarniz","latitude":0.0,"longitude":0.0},{"id":35924,"name":"Ondarroa","latitude":43.31667,"longitude":-2.41667},{"id":151301,"name":"Orozko","latitude":0.0,"longitude":0.0},{"id":35964,"name":"Ortuella","latitude":43.31113,"longitude":-3.05617},{"id":151299,"name":"Otxandio","latitude":0.0,"longitude":0.0},{"id":36244,"name":"Plentzia","latitude":43.4053,"longitude":-2.94794},{"id":36300,"name":"Portugalete","latitude":43.32099,"longitude":-3.02064},{"id":37155,"name":"Santurtzi","latitude":43.32842,"longitude":-3.03248},{"id":37233,"name":"Sestao","latitude":43.30975,"longitude":-3.00716},{"id":37292,"name":"Sondika","latitude":43.3002,"longitude":-2.92442},{"id":151304,"name":"Sopelana","latitude":0.0,"longitude":0.0},{"id":37297,"name":"Sopuerta","latitude":43.26239,"longitude":-3.15505},{"id":151302,"name":"Sukarrieta","latitude":0.0,"longitude":0.0},{"id":151305,"name":"Trucios-Turtzioz","latitude":0.0,"longitude":0.0},{"id":151306,"name":"Ubide","latitude":0.0,"longitude":0.0},{"id":151295,"name":"Ugao-Miraballes","latitude":0.0,"longitude":0.0},{"id":151307,"name":"Urduliz","latitude":0.0,"longitude":0.0},{"id":151300,"name":"Urduña/Orduña","latitude":0.0,"longitude":0.0},{"id":151303,"name":"Valle de Trápaga-Trapagaran","latitude":0.0,"longitude":0.0},{"id":38460,"name":"Zaldibar","latitude":43.16667,"longitude":-2.53333},{"id":38461,"name":"Zalla","latitude":43.23333,"longitude":-3.13333},{"id":38466,"name":"Zamudio","latitude":43.286,"longitude":-2.87},{"id":38472,"name":"Zaratamo","latitude":43.21667,"longitude":-2.86667},{"id":38490,"name":"Zeanuri","latitude":43.1,"longitude":-2.75},{"id":151272,"name":"Zeberio","latitude":0.0,"longitude":0.0},{"id":38493,"name":"Zierbena","latitude":43.35,"longitude":-3.08333},{"id":151320,"name":"Ziortza-Bolibar","latitude":0.0,"longitude":0.0}]