[{"id":148452,"name":"Algarrobo","latitude":-33.369256,"longitude":-71.668139},{"id":148453,"name":"Cabildo","latitude":-32.41737,"longitude":-70.82435},{"id":148454,"name":"Calle Larga","latitude":-32.85,"longitude":-70.63333333},{"id":18955,"name":"Cartagena","latitude":-33.55384,"longitude":-71.60761},{"id":148455,"name":"Casablanca","latitude":-33.31666667,"longitude":-71.41666667},{"id":148456,"name":"Catemu","latitude":-32.63333333,"longitude":-71.03333333},{"id":148457,"name":"Concón","latitude":-32.91666667,"longitude":-71.51666667},{"id":148458,"name":"El Quisco","latitude":-33.4,"longitude":-71.7},{"id":148459,"name":"El Tabo","latitude":-33.45,"longitude":-71.66666667},{"id":148460,"name":"Hijuelas","latitude":-32.8,"longitude":-71.16666667},{"id":19055,"name":"Isla de Pascua","latitude":-27.11048,"longitude":-109.29749},{"id":148461,"name":"Juan Fernández","latitude":-30.0256427,"longitude":-82.0519208},{"id":148463,"name":"La Calera","latitude":-32.78333333,"longitude":-71.21666667},{"id":148464,"name":"La Cruz","latitude":-32.81666667,"longitude":-71.23333333},{"id":18992,"name":"La Ligua","latitude":-32.45242,"longitude":-71.23106},{"id":19002,"name":"Limache","latitude":-33.01667,"longitude":-71.26667},{"id":19004,"name":"Llaillay","latitude":-32.84043,"longitude":-70.95623},{"id":19008,"name":"Los Andes","latitude":-32.83369,"longitude":-70.59827},{"id":148465,"name":"Nogales","latitude":-32.71666667,"longitude":-71.23333333},{"id":148466,"name":"Olmué","latitude":-33.0,"longitude":-71.2},{"id":148467,"name":"Panquehue","latitude":-32.8,"longitude":-70.83333333},{"id":148468,"name":"Papudo","latitude":-32.51666667,"longitude":-71.45},{"id":148469,"name":"Petorca","latitude":-32.25,"longitude":-70.93333333},{"id":148470,"name":"Puchuncaví","latitude":-32.72575,"longitude":-71.41514},{"id":148471,"name":"Putaendo","latitude":-32.63333333,"longitude":-70.73333333},{"id":19092,"name":"Quillota","latitude":-32.88341,"longitude":-71.24882},{"id":19093,"name":"Quilpué","latitude":-33.04752,"longitude":-71.44249},{"id":148472,"name":"Quintero","latitude":-32.78333333,"longitude":-71.53333333},{"id":148473,"name":"Rinconada","latitude":-32.83333333,"longitude":-70.7},{"id":19100,"name":"San Antonio","latitude":-33.59473,"longitude":-71.60746},{"id":148474,"name":"San Esteban","latitude":-32.8,"longitude":-70.58333333},{"id":19105,"name":"San Felipe","latitude":-32.74976,"longitude":-70.72584},{"id":148475,"name":"Santa María","latitude":-32.75,"longitude":-70.66666667},{"id":148462,"name":"Santo Domingo","latitude":-33.6471933,"longitude":-71.635279},{"id":19123,"name":"Valparaíso","latitude":-33.036,"longitude":-71.62963},{"id":19127,"name":"Villa Alemana","latitude":-33.04222,"longitude":-71.37333},{"id":19130,"name":"Viña del Mar","latitude":-33.02457,"longitude":-71.55183},{"id":148476,"name":"Zapallar","latitude":-32.5539,"longitude":-71.4577}]