[{"id":18950,"name":"Bulnes","latitude":-36.74232,"longitude":-72.29854},{"id":18963,"name":"Chillán","latitude":-36.60664,"longitude":-72.10344},{"id":148419,"name":"Chillán Viejo","latitude":-36.6229,"longitude":-72.1317},{"id":148420,"name":"Cobquecura","latitude":-36.13333333,"longitude":-72.78333333},{"id":148421,"name":"Coelemu","latitude":-36.48333333,"longitude":-72.7},{"id":18967,"name":"Coihueco","latitude":-36.62785,"longitude":-71.83068},{"id":148422,"name":"El Carmen","latitude":-36.9,"longitude":-72.03333333},{"id":148423,"name":"Ninhue","latitude":-36.4,"longitude":-72.4},{"id":148424,"name":"Ñiquén","latitude":-36.3,"longitude":-71.9},{"id":148425,"name":"Pemuco","latitude":-36.96666667,"longitude":-72.1},{"id":148426,"name":"Pinto","latitude":-36.7,"longitude":-71.9},{"id":148427,"name":"Portezuelo","latitude":-36.53333333,"longitude":-72.43333333},{"id":148428,"name":"Quillón","latitude":-36.73333333,"longitude":-72.46666667},{"id":19094,"name":"Quirihue","latitude":-36.27998,"longitude":-72.54118},{"id":148429,"name":"Ránquil","latitude":-36.65,"longitude":-72.55},{"id":19103,"name":"San Carlos","latitude":-36.42477,"longitude":-71.958},{"id":148430,"name":"San Fabián","latitude":-36.55,"longitude":-71.55},{"id":148431,"name":"San Ignacio","latitude":-36.7999991,"longitude":-72.0420762},{"id":148432,"name":"San Nicolás","latitude":-36.5,"longitude":-72.21666667},{"id":148433,"name":"Treguaco","latitude":-36.43333333,"longitude":-72.66666667},{"id":148434,"name":"Yungay","latitude":-37.11666667,"longitude":-72.01666667}]