[{"id":105295,"name":"Amphoe Chiang Khong","latitude":20.13587,"longitude":100.36527},{"id":105299,"name":"Amphoe Chiang Saen","latitude":20.23572,"longitude":100.15537},{"id":105325,"name":"Amphoe Doi Luang","latitude":20.14496,"longitude":100.15712},{"id":105433,"name":"Amphoe Khun Tan","latitude":19.86481,"longitude":100.28731},{"id":105499,"name":"Amphoe Mae Chan","latitude":20.1991,"longitude":99.88468},{"id":105501,"name":"Amphoe Mae Fa Luang","latitude":20.22228,"longitude":99.64147},{"id":105504,"name":"Amphoe Mae Lao","latitude":19.77223,"longitude":99.71128},{"id":105511,"name":"Amphoe Mae Sai","latitude":20.365,"longitude":99.92604},{"id":105514,"name":"Amphoe Mae Suai","latitude":19.69037,"longitude":99.48459},{"id":105540,"name":"Amphoe Mueang Chiang Rai","latitude":19.90824,"longitude":99.77299},{"id":105693,"name":"Amphoe Pa Daet","latitude":19.50643,"longitude":99.97615},{"id":105720,"name":"Amphoe Phan","latitude":19.5745,"longitude":99.77299},{"id":105733,"name":"Amphoe Phaya Mengrai","latitude":19.8732,"longitude":100.16257},{"id":106308,"name":"Amphoe Thoeng","latitude":19.6765,"longitude":100.20095},{"id":106359,"name":"Amphoe Wiang Chai","latitude":19.8636,"longitude":100.00065},{"id":106360,"name":"Amphoe Wiang Chiang Rung","latitude":20.02208,"longitude":100.07472},{"id":106362,"name":"Amphoe Wiang Kaen","latitude":20.00874,"longitude":100.48641},{"id":106365,"name":"Amphoe Wiang Pa Pao","latitude":19.3046,"longitude":99.44925},{"id":106472,"name":"Chiang Khong","latitude":20.26125,"longitude":100.40461},{"id":106475,"name":"Chiang Rai","latitude":19.90858,"longitude":99.8325},{"id":106476,"name":"Chiang Saen","latitude":20.27511,"longitude":100.08689},{"id":106562,"name":"Mae Chan","latitude":20.14675,"longitude":99.85256},{"id":106565,"name":"Mae Sai","latitude":20.43353,"longitude":99.87617},{"id":106606,"name":"Pa Daet","latitude":19.50489,"longitude":99.99241}]