[{"id":89878,"name":"Acâş","latitude":47.53333,"longitude":22.78333},{"id":89901,"name":"Agriș","latitude":47.88075,"longitude":23.0034},{"id":89957,"name":"Andrid","latitude":47.51667,"longitude":22.35},{"id":89967,"name":"Apa","latitude":47.76667,"longitude":23.2},{"id":89983,"name":"Ardud","latitude":47.63333,"longitude":22.88333},{"id":90020,"name":"Babța","latitude":47.45778,"longitude":22.94283},{"id":90458,"name":"Bârsău de Sus","latitude":47.6,"longitude":23.21667},{"id":90551,"name":"Bătarci","latitude":48.03333,"longitude":23.16667},{"id":90092,"name":"Beltiug","latitude":47.55,"longitude":22.85},{"id":90116,"name":"Berveni","latitude":47.75,"longitude":22.46667},{"id":90154,"name":"Bixad","latitude":47.93333,"longitude":23.4},{"id":90190,"name":"Bogdand","latitude":47.41667,"longitude":22.93333},{"id":90204,"name":"Boinești","latitude":47.91567,"longitude":23.35117},{"id":90244,"name":"Botiz","latitude":47.83333,"longitude":22.95},{"id":93840,"name":"Călineşti-Oaş","latitude":47.9,"longitude":23.3},{"id":93855,"name":"Cămărzana","latitude":48.0,"longitude":23.31667},{"id":93853,"name":"Cămin","latitude":47.72836,"longitude":22.47987},{"id":93858,"name":"Căpleni","latitude":47.71667,"longitude":22.5},{"id":93872,"name":"Cărășeu","latitude":47.74126,"longitude":23.09798},{"id":90580,"name":"Carei","latitude":47.68333,"longitude":22.46667},{"id":93882,"name":"Căuaş","latitude":47.56667,"longitude":22.55},{"id":90608,"name":"Cehal","latitude":47.38333,"longitude":22.6},{"id":90641,"name":"Certeze","latitude":47.9,"longitude":23.46667},{"id":90700,"name":"Cidreag","latitude":47.98677,"longitude":22.96395},{"id":90752,"name":"Ciumești","latitude":47.66382,"longitude":22.34069},{"id":90820,"name":"Comuna Acâş","latitude":47.53143,"longitude":22.74106},{"id":90833,"name":"Comuna Agriş","latitude":47.87377,"longitude":23.00343},{"id":90869,"name":"Comuna Andrid","latitude":47.5172,"longitude":22.34688},{"id":90875,"name":"Comuna Apa","latitude":47.74934,"longitude":23.18966},{"id":91195,"name":"Comuna Bârsău","latitude":47.59376,"longitude":23.24257},{"id":91245,"name":"Comuna Bătarci","latitude":48.04054,"longitude":23.14274},{"id":90956,"name":"Comuna Beltiug","latitude":47.56523,"longitude":22.85452},{"id":90974,"name":"Comuna Berveni","latitude":47.74896,"longitude":22.47553},{"id":91000,"name":"Comuna Bixad","latitude":47.92031,"longitude":23.37337},{"id":91025,"name":"Comuna Bogdand","latitude":47.41824,"longitude":22.92868},{"id":91061,"name":"Comuna Botiz","latitude":47.83285,"longitude":22.94865},{"id":91559,"name":"Comuna Cãlineşti-Oaş","latitude":47.9034,"longitude":23.27351},{"id":91581,"name":"Comuna Cămărzana","latitude":47.99435,"longitude":23.30874},{"id":91563,"name":"Comuna Cãmin","latitude":47.72836,"longitude":22.47987},{"id":91583,"name":"Comuna Căpleni","latitude":47.70942,"longitude":22.50637},{"id":91596,"name":"Comuna Căuaş","latitude":47.57998,"longitude":22.55546},{"id":91276,"name":"Comuna Cehal","latitude":47.3844,"longitude":22.59613},{"id":91298,"name":"Comuna Certeze","latitude":47.92014,"longitude":23.4735},{"id":91371,"name":"Comuna Ciumeşti","latitude":47.66308,"longitude":22.33452},{"id":91484,"name":"Comuna Craidorolţ","latitude":47.59793,"longitude":22.69883},{"id":91510,"name":"Comuna Crucişor","latitude":47.65949,"longitude":23.24776},{"id":91523,"name":"Comuna Culciu","latitude":47.75246,"longitude":23.05593},{"id":91631,"name":"Comuna Doba","latitude":47.74588,"longitude":22.68383},{"id":91667,"name":"Comuna Dorolţ","latitude":47.84524,"longitude":22.78642},{"id":91776,"name":"Comuna Foieni","latitude":47.7,"longitude":22.38333},{"id":91850,"name":"Comuna Gherţa Mică","latitude":47.93724,"longitude":23.22169},{"id":91989,"name":"Comuna Halmeu","latitude":47.97833,"longitude":23.05362},{"id":92005,"name":"Comuna Hodod","latitude":47.3987,"longitude":23.04633},{"id":92012,"name":"Comuna Homoroade","latitude":47.63896,"longitude":23.06593},{"id":92141,"name":"Comuna Lazuri","latitude":47.89143,"longitude":22.87213},{"id":92250,"name":"Comuna Medieşu Aurit","latitude":47.79451,"longitude":23.1536},{"id":92268,"name":"Comuna Micula","latitude":47.91687,"longitude":22.93652},{"id":92316,"name":"Comuna Moftinu","latitude":47.68333,"longitude":22.6},{"id":92483,"name":"Comuna Odoreu","latitude":47.79427,"longitude":22.99639},{"id":92505,"name":"Comuna Oraşu Nou","latitude":47.8347,"longitude":23.30211},{"id":92713,"name":"Comuna Pãuleşti","latitude":47.74992,"longitude":22.94743},{"id":92562,"name":"Comuna Petreşti","latitude":47.58993,"longitude":22.35972},{"id":92586,"name":"Comuna Pir","latitude":47.4665,"longitude":22.3938},{"id":92590,"name":"Comuna Pişcolt","latitude":47.59761,"longitude":22.27498},{"id":92648,"name":"Comuna Pomi","latitude":47.68071,"longitude":23.32362},{"id":92663,"name":"Comuna Porumbeşti","latitude":47.98491,"longitude":22.97236},{"id":92741,"name":"Comuna Racşa","latitude":47.82068,"longitude":23.33247},{"id":93088,"name":"Comuna Săcăşeni","latitude":47.46964,"longitude":22.68273},{"id":92870,"name":"Comuna Sanislău","latitude":47.63116,"longitude":22.33109},{"id":92872,"name":"Comuna Santău","latitude":47.51152,"longitude":22.47327},{"id":93113,"name":"Comuna Săuca","latitude":47.46041,"longitude":22.48621},{"id":92970,"name":"Comuna Socond","latitude":47.54018,"longitude":22.98135},{"id":93034,"name":"Comuna Supur","latitude":47.45826,"longitude":22.80767},{"id":93127,"name":"Comuna Tarna Mare","latitude":48.08356,"longitude":23.19491},{"id":93231,"name":"Comuna Târşolţ","latitude":47.95,"longitude":23.35},{"id":93140,"name":"Comuna Terebeşti","latitude":47.67823,"longitude":22.74226},{"id":93158,"name":"Comuna Tiream","latitude":47.58553,"longitude":22.43993},{"id":93218,"name":"Comuna Turţ","latitude":47.98018,"longitude":23.20968},{"id":93217,"name":"Comuna Turulung","latitude":47.92351,"longitude":23.10382},{"id":93286,"name":"Comuna Urziceni","latitude":47.73286,"longitude":22.40181},{"id":93329,"name":"Comuna Valea Vinului","latitude":47.69553,"longitude":23.18488},{"id":93331,"name":"Comuna Vama","latitude":47.84354,"longitude":23.3966},{"id":93347,"name":"Comuna Vetiş","latitude":47.79292,"longitude":22.75623},{"id":93357,"name":"Comuna Viile Satu Mare","latitude":47.66667,"longitude":22.95},{"id":93703,"name":"Craidorolţ","latitude":47.61667,"longitude":22.7},{"id":93743,"name":"Crucişor","latitude":47.68333,"longitude":23.25},{"id":93767,"name":"Culciu Mic","latitude":47.76667,"longitude":23.03333},{"id":93893,"name":"Dara","latitude":47.81636,"longitude":22.75216},{"id":93906,"name":"Decebal","latitude":47.7663,"longitude":22.75603},{"id":93944,"name":"Doba","latitude":47.73333,"longitude":22.71667},{"id":93946,"name":"Dobra","latitude":47.49477,"longitude":22.82762},{"id":93994,"name":"Domănești","latitude":47.71071,"longitude":22.58975},{"id":94007,"name":"Dorolţ","latitude":47.85,"longitude":22.81667},{"id":94054,"name":"Drăgușeni","latitude":47.90541,"longitude":23.0778},{"id":94078,"name":"Dumbrava","latitude":47.84418,"longitude":23.0806},{"id":94196,"name":"Foieni","latitude":47.7,"longitude":22.38333},{"id":94315,"name":"Gherța Mare","latitude":47.96884,"longitude":23.20853},{"id":94314,"name":"Gherţa Mică","latitude":47.93333,"longitude":23.23333},{"id":94518,"name":"Halmeu","latitude":47.96667,"longitude":23.01667},{"id":94542,"name":"Hodod","latitude":47.4,"longitude":23.03333},{"id":94554,"name":"Homorodu de Jos","latitude":47.66667,"longitude":23.08333},{"id":94586,"name":"Huta Certeze","latitude":47.92583,"longitude":23.48715},{"id":94672,"name":"Iojib","latitude":47.81617,"longitude":23.15603},{"id":94766,"name":"Lazuri","latitude":47.85,"longitude":22.86667},{"id":94813,"name":"Livada","latitude":47.86667,"longitude":23.13333},{"id":94840,"name":"Lucăceni","latitude":47.74194,"longitude":22.47819},{"id":95233,"name":"Mădăras","latitude":47.68403,"longitude":22.86554},{"id":94944,"name":"Medieşu Aurit","latitude":47.78333,"longitude":23.15},{"id":94970,"name":"Micula","latitude":47.9,"longitude":22.95},{"id":95049,"name":"Moftinu Mare","latitude":47.66667,"longitude":22.66667},{"id":95050,"name":"Moftinu Mic","latitude":47.68669,"longitude":22.60054},{"id":95060,"name":"Moișeni","latitude":47.92798,"longitude":23.46833},{"id":95125,"name":"Municipiul Carei","latitude":47.68203,"longitude":22.46635},{"id":95178,"name":"Municipiul Satu Mare","latitude":47.76514,"longitude":22.83565},{"id":95317,"name":"Negreşti-Oaş","latitude":47.86667,"longitude":23.43333},{"id":95381,"name":"Oar","latitude":47.80569,"longitude":22.73085},{"id":95409,"name":"Odoreu","latitude":47.8,"longitude":23.0},{"id":95636,"name":"Oraș Ardud","latitude":47.63333,"longitude":22.88333},{"id":95641,"name":"Oraș Livada","latitude":47.86667,"longitude":23.13333},{"id":95549,"name":"Oraş Negreşti-Oaş","latitude":47.86801,"longitude":23.41816},{"id":95650,"name":"Oraș Tăşnad","latitude":47.48333,"longitude":22.58333},{"id":95634,"name":"Oraşu Nou","latitude":47.83333,"longitude":23.28333},{"id":96030,"name":"Păuleşti","latitude":47.78333,"longitude":22.91667},{"id":95747,"name":"Petreşti","latitude":47.6,"longitude":22.36667},{"id":95795,"name":"Pir","latitude":47.46667,"longitude":22.36667},{"id":95805,"name":"Pişcolt","latitude":47.58333,"longitude":22.3},{"id":95869,"name":"Poiana Codrului","latitude":47.62667,"longitude":23.25056},{"id":95903,"name":"Pomi","latitude":47.7,"longitude":23.31667},{"id":95924,"name":"Porumbești","latitude":47.98305,"longitude":22.98076},{"id":95935,"name":"Potău","latitude":47.75673,"longitude":23.1209},{"id":96050,"name":"Racşa","latitude":47.82068,"longitude":23.33247},{"id":106002,"name":"Săcăşeni","latitude":47.48333,"longitude":22.68333},{"id":96239,"name":"Sanislău","latitude":47.63333,"longitude":22.33333},{"id":96241,"name":"Santău","latitude":47.51667,"longitude":22.51667},{"id":106036,"name":"Sărăuad","latitude":47.47944,"longitude":22.62559},{"id":106041,"name":"Sătmărel","latitude":47.7347,"longitude":22.79536},{"id":96256,"name":"Satu Mare","latitude":47.79926,"longitude":22.86255},{"id":106042,"name":"Săuca","latitude":47.46667,"longitude":22.48333},{"id":96398,"name":"Socond","latitude":47.56667,"longitude":22.95},{"id":96470,"name":"Stâna","latitude":47.50757,"longitude":22.96423},{"id":96503,"name":"Supuru de Jos","latitude":47.46667,"longitude":22.8},{"id":106062,"name":"Tarna Mare","latitude":48.09175,"longitude":23.19369},{"id":96597,"name":"Târşolţ","latitude":47.95,"longitude":23.35},{"id":96598,"name":"Târşolţel","latitude":47.95,"longitude":23.35},{"id":96630,"name":"Tăşnad","latitude":47.48333,"longitude":22.58333},{"id":106083,"name":"Terebeşti","latitude":47.68333,"longitude":22.71667},{"id":106105,"name":"Tiream","latitude":47.61667,"longitude":22.46667},{"id":106157,"name":"Trip","latitude":47.9245,"longitude":23.37648},{"id":96551,"name":"Tur","latitude":47.88231,"longitude":23.39045},{"id":96569,"name":"Turţ","latitude":47.98333,"longitude":23.21667},{"id":96568,"name":"Turulung","latitude":47.93333,"longitude":23.08333},{"id":96687,"name":"Urziceni","latitude":47.73333,"longitude":22.4},{"id":96752,"name":"Valea Seacă","latitude":48.0808,"longitude":23.16489},{"id":96763,"name":"Valea Vinului","latitude":47.71667,"longitude":23.18333},{"id":96770,"name":"Vama","latitude":47.83333,"longitude":23.4},{"id":96795,"name":"Vetiş","latitude":47.8,"longitude":22.76667},{"id":96816,"name":"Viile Satu Mare","latitude":47.66667,"longitude":22.95}]