[{"id":63211,"name":"Abashiri","latitude":44.02127,"longitude":144.26971},{"id":63212,"name":"Abashiri Shi","latitude":43.98565,"longitude":144.21051},{"id":63225,"name":"Akabira","latitude":43.55139,"longitude":142.05306},{"id":63226,"name":"Akabira-shi","latitude":43.5679,"longitude":142.06281},{"id":63259,"name":"Asahikawa","latitude":43.77063,"longitude":142.36489},{"id":63264,"name":"Ashibetsu","latitude":43.50972,"longitude":142.18556},{"id":63265,"name":"Ashibetsu-shi","latitude":43.42542,"longitude":142.20161},{"id":63285,"name":"Bibai","latitude":43.32472,"longitude":141.85861},{"id":63309,"name":"Chitose","latitude":42.81944,"longitude":141.65222},{"id":63310,"name":"Chitose Shi","latitude":42.80048,"longitude":141.50951},{"id":63322,"name":"Date","latitude":42.46806,"longitude":140.86806},{"id":63324,"name":"Date-shi","latitude":42.49337,"longitude":140.89142},{"id":63326,"name":"Ebetsu","latitude":43.10806,"longitude":141.55056},{"id":63333,"name":"Eniwa-shi","latitude":42.88333,"longitude":141.56667},{"id":63356,"name":"Fukagawa","latitude":43.70806,"longitude":142.03917},{"id":63357,"name":"Fukagawa-shi","latitude":43.79334,"longitude":142.09923},{"id":63378,"name":"Furano-shi","latitude":43.28182,"longitude":142.47349},{"id":63416,"name":"Hakodate","latitude":41.77583,"longitude":140.73667},{"id":63417,"name":"Hakodate Shi","latitude":41.83754,"longitude":140.92597},{"id":63516,"name":"Hokuto","latitude":41.81626,"longitude":140.63472},{"id":63519,"name":"Hokuto-shi","latitude":41.86411,"longitude":140.55424},{"id":63521,"name":"Honchō","latitude":41.8944,"longitude":140.69386},{"id":63594,"name":"Ishikari","latitude":43.23972,"longitude":141.35389},{"id":63595,"name":"Ishikari-shi","latitude":43.46596,"longitude":141.44298},{"id":63626,"name":"Iwamizawa","latitude":43.20028,"longitude":141.75972},{"id":63627,"name":"Iwamizawa-shi","latitude":43.18086,"longitude":141.79744},{"id":63628,"name":"Iwanai","latitude":42.97444,"longitude":140.50889},{"id":63691,"name":"Kamiiso","latitude":41.82013,"longitude":140.64482},{"id":63692,"name":"Kamikawa","latitude":43.84,"longitude":142.77111},{"id":63800,"name":"Kitahiroshima","latitude":42.97583,"longitude":141.56722},{"id":63801,"name":"Kitahiroshima-shi","latitude":42.98581,"longitude":141.55678},{"id":63809,"name":"Kitami","latitude":43.80306,"longitude":143.89083},{"id":63851,"name":"Ktiami Shi","latitude":43.8516,"longitude":143.7152},{"id":63886,"name":"Kushiro","latitude":42.975,"longitude":144.37472},{"id":63887,"name":"Kushiro Shi","latitude":43.1591,"longitude":144.06647},{"id":63917,"name":"Makubetsu","latitude":45.37139,"longitude":141.82111},{"id":63951,"name":"Mikasa","latitude":43.25581,"longitude":141.88818},{"id":63952,"name":"Mikasa-shi","latitude":43.23976,"longitude":141.99273},{"id":64024,"name":"Mombetsu","latitude":44.3525,"longitude":143.3525},{"id":64025,"name":"Monbetsu Shi","latitude":44.20323,"longitude":143.29293},{"id":64038,"name":"Motomachi","latitude":43.82634,"longitude":144.09638},{"id":64049,"name":"Muroran","latitude":42.31722,"longitude":140.98806},{"id":64050,"name":"Muroran-shi","latitude":42.36659,"longitude":140.98845},{"id":64117,"name":"Nayoro","latitude":44.35056,"longitude":142.45778},{"id":64118,"name":"Nayoro Shi","latitude":44.33951,"longitude":142.45932},{"id":64120,"name":"Nemuro","latitude":43.32361,"longitude":145.575},{"id":64121,"name":"Nemuro-shi","latitude":43.33333,"longitude":145.61667},{"id":64145,"name":"Niseko Town","latitude":42.77871,"longitude":140.66903},{"id":64161,"name":"Noboribetsu","latitude":42.45215,"longitude":141.17914},{"id":64162,"name":"Noboribetsu-shi","latitude":42.46565,"longitude":141.07578},{"id":64180,"name":"Obihiro","latitude":42.91722,"longitude":143.20444},{"id":64181,"name":"Obihiro Shi","latitude":42.75736,"longitude":143.03061},{"id":64215,"name":"Otaru","latitude":43.18944,"longitude":141.00222},{"id":64216,"name":"Otaru-shi","latitude":43.15628,"longitude":141.02572},{"id":64217,"name":"Otofuke","latitude":42.99167,"longitude":143.20028},{"id":64224,"name":"Rebun Gun","latitude":45.38263,"longitude":141.02839},{"id":64227,"name":"Rishiri Gun","latitude":45.18244,"longitude":141.22859},{"id":64228,"name":"Rishiri Town","latitude":45.15928,"longitude":141.19629},{"id":64230,"name":"Rumoi","latitude":43.93444,"longitude":141.64278},{"id":64231,"name":"Rumoi-shi","latitude":43.8856,"longitude":141.75567},{"id":64285,"name":"Sapporo","latitude":43.06667,"longitude":141.35},{"id":64286,"name":"Sapporo-shi","latitude":43.06667,"longitude":141.35},{"id":64310,"name":"Shibetsu","latitude":43.65899,"longitude":145.13197},{"id":64311,"name":"Shibetsu Shi","latitude":44.11522,"longitude":142.54054},{"id":64329,"name":"Shimo-furano","latitude":43.35,"longitude":142.38333},{"id":64354,"name":"Shiraoi","latitude":42.55,"longitude":141.35},{"id":64365,"name":"Shizunai-furukawachō","latitude":42.33389,"longitude":142.36694},{"id":64386,"name":"Sunagawa","latitude":43.48639,"longitude":141.90556},{"id":64387,"name":"Sunagawa-shi","latitude":43.50328,"longitude":141.93274},{"id":64451,"name":"Takikawa","latitude":43.55278,"longitude":141.90639},{"id":64452,"name":"Takikawa-shi","latitude":43.60837,"longitude":141.94988},{"id":64565,"name":"Tōbetsu","latitude":43.21694,"longitude":141.51694},{"id":64501,"name":"Tomakomai","latitude":42.63694,"longitude":141.60333},{"id":64502,"name":"Tomakomai Shi","latitude":42.68226,"longitude":141.57948},{"id":64607,"name":"Utashinai","latitude":43.51667,"longitude":142.05},{"id":64608,"name":"Utashinai-shi","latitude":43.49366,"longitude":142.03878},{"id":64619,"name":"Wakkanai","latitude":45.40944,"longitude":141.67389},{"id":64620,"name":"Wakkanai Shi","latitude":45.33243,"longitude":141.82831},{"id":64668,"name":"Yoichi","latitude":43.20389,"longitude":140.77028},{"id":64704,"name":"Yūbari","latitude":43.03778,"longitude":141.95778},{"id":64705,"name":"Yūbari-shi","latitude":43.04336,"longitude":142.11065}]