[{"id":81036,"name":"Daulo","latitude":-5.98333,"longitude":145.23333},{"id":81042,"name":"Goroka","latitude":-6.05,"longitude":145.38333},{"id":81045,"name":"Henganofi","latitude":-6.21667,"longitude":145.66667},{"id":81054,"name":"Kainantu","latitude":-6.41667,"longitude":145.91667},{"id":81077,"name":"Lufa","latitude":-6.45,"longitude":145.25},{"id":81095,"name":"Obura Wonenara","latitude":-6.55434,"longitude":145.97328},{"id":81096,"name":"Okapa","latitude":-6.63333,"longitude":145.5},{"id":81118,"name":"Unggai Bena","latitude":-6.11667,"longitude":145.51667}]