[{"id":97664,"name":"Arkhangel’sk","latitude":64.5401,"longitude":40.5433},{"id":97903,"name":"Berëznik","latitude":62.852,"longitude":42.7071},{"id":98153,"name":"Cheremushskiy","latitude":61.27306,"longitude":47.26361},{"id":98358,"name":"Dvinskoy","latitude":62.1519,"longitude":45.1184},{"id":98655,"name":"Il’insko-Podomskoye","latitude":61.11444,"longitude":47.97861},{"id":98646,"name":"Ileza","latitude":61.05328,"longitude":43.90021},{"id":98698,"name":"Isakogorka","latitude":64.446,"longitude":40.6531},{"id":98809,"name":"Kamenka","latitude":65.8835,"longitude":44.1272},{"id":98879,"name":"Kargopol’","latitude":61.50359,"longitude":38.9486},{"id":98880,"name":"Kargopol’skiy Rayon","latitude":61.33333,"longitude":39.0},{"id":98884,"name":"Karpogory","latitude":64.00189,"longitude":44.44513},{"id":98909,"name":"Katunino","latitude":64.3862,"longitude":40.6298},{"id":98964,"name":"Kharitonovo","latitude":61.40092,"longitude":47.49779},{"id":98994,"name":"Kholmogorskiy Rayon","latitude":64.08333,"longitude":41.66667},{"id":98995,"name":"Kholmogory","latitude":64.2229,"longitude":41.656},{"id":99088,"name":"Kizema","latitude":61.11304,"longitude":44.83017},{"id":99126,"name":"Kodino","latitude":63.71976,"longitude":39.64465},{"id":99197,"name":"Konëvo","latitude":62.11745,"longitude":39.33131},{"id":99186,"name":"Konosha","latitude":60.9736,"longitude":40.257},{"id":99221,"name":"Koryazhma","latitude":61.31433,"longitude":47.16914},{"id":99246,"name":"Kotlas","latitude":61.25745,"longitude":46.64963},{"id":99247,"name":"Kotlasskiy Rayon","latitude":61.16667,"longitude":46.33333},{"id":99297,"name":"Krasnoborsk","latitude":61.55978,"longitude":45.93396},{"id":99435,"name":"Kuloy","latitude":61.03049,"longitude":42.49252},{"id":99580,"name":"Lenskiy Rayon","latitude":62.0,"longitude":48.66667},{"id":99588,"name":"Leshukonskiy Rayon","latitude":65.0,"longitude":47.0},{"id":99589,"name":"Leshukonskoye","latitude":64.8977,"longitude":45.7655},{"id":99675,"name":"Loyga","latitude":61.07845,"longitude":44.6075},{"id":99689,"name":"Lukovetskiy","latitude":64.2956,"longitude":41.9211},{"id":99876,"name":"Mezen’","latitude":65.8401,"longitude":44.2542},{"id":99875,"name":"Mezenskiy Rayon","latitude":65.75,"longitude":44.0},{"id":99924,"name":"Mirnyy","latitude":61.33289,"longitude":44.53598},{"id":100240,"name":"Novodvinsk","latitude":64.4165,"longitude":40.8122},{"id":100374,"name":"Nyandoma","latitude":61.6656,"longitude":40.2013},{"id":100375,"name":"Nyandomskiy Rayon","latitude":62.0,"longitude":40.66667},{"id":100407,"name":"Oksovskiy","latitude":62.60623,"longitude":39.89845},{"id":100446,"name":"Onega","latitude":63.90692,"longitude":38.11112},{"id":100447,"name":"Onezhskiy Rayon","latitude":63.33333,"longitude":38.0},{"id":100675,"name":"Pinega","latitude":64.69969,"longitude":43.39016},{"id":100677,"name":"Pinezhskiy Rayon","latitude":64.66667,"longitude":43.0},{"id":100701,"name":"Plesetsk","latitude":62.70804,"longitude":40.29159},{"id":100734,"name":"Podyuga","latitude":61.095,"longitude":40.86472},{"id":100834,"name":"Primorskiy Rayon","latitude":65.0,"longitude":41.0},{"id":100845,"name":"Privodino","latitude":61.07599,"longitude":46.50238},{"id":100890,"name":"Puksoozero","latitude":62.5903,"longitude":40.6066},{"id":100972,"name":"Rochegda","latitude":62.6678,"longitude":43.4133},{"id":101089,"name":"Samoded","latitude":63.6083,"longitude":40.5111},{"id":101217,"name":"Severodvinsk","latitude":64.5635,"longitude":39.8302},{"id":101243,"name":"Shalakusha","latitude":62.22472,"longitude":40.25389},{"id":101256,"name":"Shangaly","latitude":61.12842,"longitude":43.33427},{"id":101300,"name":"Shenkursk","latitude":62.1091,"longitude":42.89595},{"id":101301,"name":"Shenkurskiy Rayon","latitude":62.25,"longitude":42.41667},{"id":101323,"name":"Shipitsyno","latitude":61.28056,"longitude":46.52083},{"id":101474,"name":"Sol’vychegodsk","latitude":61.33046,"longitude":46.91559},{"id":101448,"name":"Solginskiy","latitude":61.05,"longitude":41.34278},{"id":102022,"name":"Udimskiy","latitude":61.14171,"longitude":45.91443},{"id":102074,"name":"Urdoma","latitude":61.75335,"longitude":48.5442},{"id":102138,"name":"Ust’-Shonosha","latitude":61.1531,"longitude":41.343},{"id":102144,"name":"Ust’yanskiy Rayon","latitude":61.33333,"longitude":43.66667},{"id":102162,"name":"Uyemskiy","latitude":64.4743,"longitude":40.8524},{"id":102203,"name":"Vas’kovo","latitude":64.4122,"longitude":40.4639},{"id":102221,"name":"Vel’sk","latitude":61.07006,"longitude":42.0983},{"id":102222,"name":"Vel’skiy Rayon","latitude":61.0,"longitude":42.0},{"id":102274,"name":"Verkhnyaya Toyma","latitude":62.2347,"longitude":45.0009},{"id":102360,"name":"Voloshka","latitude":61.33139,"longitude":40.08583},{"id":102427,"name":"Vychegodskiy","latitude":61.24702,"longitude":46.89842},{"id":102462,"name":"Yagry","latitude":64.59417,"longitude":39.81028},{"id":102494,"name":"Yarensk","latitude":62.16755,"longitude":49.09162},{"id":102557,"name":"Yemetsk","latitude":63.47191,"longitude":41.78023},{"id":102558,"name":"Yemtsa","latitude":63.07337,"longitude":40.33285},{"id":102575,"name":"Yertsevo","latitude":60.7966,"longitude":40.086}]