[{"id":89692,"name":"Água de Pau","latitude":37.72142,"longitude":-25.5117},{"id":88968,"name":"Angra do Heroísmo","latitude":38.65483,"longitude":-27.21734},{"id":88969,"name":"Angústias","latitude":38.52547,"longitude":-28.63132},{"id":88994,"name":"Arrifes","latitude":37.76667,"longitude":-25.7},{"id":89037,"name":"Biscoitos","latitude":38.78333,"longitude":-27.25},{"id":89057,"name":"Cabouco","latitude":37.76667,"longitude":-25.56667},{"id":89062,"name":"Cais do Pico","latitude":38.52531,"longitude":-28.32074},{"id":89069,"name":"Calheta","latitude":38.60186,"longitude":-28.01792},{"id":89070,"name":"Calheta de São Jorge","latitude":38.59767,"longitude":-27.91459},{"id":89105,"name":"Castelo Branco","latitude":38.52198,"longitude":-28.71365},{"id":89131,"name":"Corvo","latitude":39.69771,"longitude":-31.1055},{"id":89163,"name":"Fajã de Baixo","latitude":37.75,"longitude":-25.65},{"id":89172,"name":"Fenais da Ajuda","latitude":37.85128,"longitude":-25.32406},{"id":89173,"name":"Fenais da Luz","latitude":37.8249,"longitude":-25.64229},{"id":89181,"name":"Feteira","latitude":38.65429,"longitude":-27.14995},{"id":89187,"name":"Fonte Bastardo","latitude":38.69201,"longitude":-27.07942},{"id":89199,"name":"Furnas","latitude":37.77567,"longitude":-25.31035},{"id":89223,"name":"Horta","latitude":38.53737,"longitude":-28.62615},{"id":89228,"name":"Lagoa","latitude":37.74486,"longitude":-25.57184},{"id":89231,"name":"Lajes","latitude":38.76352,"longitude":-27.10336},{"id":89232,"name":"Lajes das Flores","latitude":39.41619,"longitude":-31.21725},{"id":89233,"name":"Lajes do Pico","latitude":38.42797,"longitude":-28.17402},{"id":89267,"name":"Madalena","latitude":38.53642,"longitude":-28.5266},{"id":89269,"name":"Maia","latitude":37.83247,"longitude":-25.38976},{"id":89333,"name":"Mosteiros","latitude":37.89017,"longitude":-25.81999},{"id":89350,"name":"Nordeste","latitude":37.82721,"longitude":-25.22863},{"id":89412,"name":"Ponta Delgada","latitude":37.7423,"longitude":-25.67093},{"id":89413,"name":"Ponta Garça","latitude":37.71667,"longitude":-25.36667},{"id":89427,"name":"Porto Judeu","latitude":38.64814,"longitude":-27.11944},{"id":89428,"name":"Porto Martins","latitude":38.68146,"longitude":-27.05835},{"id":89434,"name":"Povoação","latitude":37.76471,"longitude":-25.24487},{"id":89437,"name":"Praia da Vitória","latitude":38.73333,"longitude":-27.06667},{"id":89451,"name":"Rabo de Peixe","latitude":37.81022,"longitude":-25.58263},{"id":89460,"name":"Relva","latitude":37.75271,"longitude":-25.71848},{"id":89466,"name":"Ribeira Grande","latitude":38.51667,"longitude":-28.7},{"id":89467,"name":"Ribeira Seca","latitude":37.81667,"longitude":-25.53333},{"id":89469,"name":"Ribeirinha","latitude":38.66203,"longitude":-27.18093},{"id":89479,"name":"Rosto de Cão","latitude":37.75,"longitude":-25.65},{"id":89494,"name":"Santa Bárbara","latitude":38.69608,"longitude":-27.33907},{"id":89502,"name":"Santa Cruz da Graciosa","latitude":39.04946,"longitude":-28.00432},{"id":89501,"name":"Santa Cruz das Flores","latitude":39.46984,"longitude":-31.18514},{"id":89558,"name":"São Bartolomeu","latitude":38.67491,"longitude":-27.29349},{"id":89577,"name":"São Mateus","latitude":38.6563,"longitude":-27.26935},{"id":89586,"name":"São Roque","latitude":37.75418,"longitude":-25.64127},{"id":89588,"name":"São Roque do Pico","latitude":38.51631,"longitude":-28.30752},{"id":89589,"name":"São Sebastião","latitude":38.66584,"longitude":-27.08976},{"id":89592,"name":"São Vicente","latitude":37.81829,"longitude":-25.66583},{"id":89529,"name":"Senhora do Rosário","latitude":37.83333,"longitude":-25.15},{"id":89633,"name":"Velas","latitude":38.67995,"longitude":-28.15155},{"id":89673,"name":"Vila do Porto","latitude":36.97454,"longitude":-25.09967},{"id":89650,"name":"Vila Franca do Campo","latitude":37.71667,"longitude":-25.43333}]