[{"id":79791,"name":"Edgecumbe","latitude":-37.98333,"longitude":176.83333},{"id":79809,"name":"Katikati","latitude":-37.55,"longitude":175.91667},{"id":79811,"name":"Kawerau","latitude":-38.1,"longitude":176.7},{"id":79821,"name":"Maketu","latitude":-37.76667,"longitude":176.45},{"id":79835,"name":"Murupara","latitude":-38.46667,"longitude":176.7},{"id":79845,"name":"Opotiki","latitude":-38.00915,"longitude":177.28706},{"id":79875,"name":"Rotorua","latitude":-38.13874,"longitude":176.24516},{"id":79889,"name":"Tauranga","latitude":-37.68611,"longitude":176.16667},{"id":79901,"name":"Waihi Beach","latitude":-37.4,"longitude":175.93333},{"id":79919,"name":"Whakatane","latitude":-37.95855,"longitude":176.98545}]