[{"id":57588,"name":"Abrama","latitude":20.85865,"longitude":72.90648},{"id":57591,"name":"Adalaj","latitude":23.16453,"longitude":72.58107},{"id":147572,"name":"Agol","latitude":23.15,"longitude":72.26666667},{"id":57606,"name":"Ahmedabad","latitude":23.02579,"longitude":72.58727},{"id":57608,"name":"Ahwa","latitude":20.75718,"longitude":73.68626},{"id":147573,"name":"Akrund","latitude":23.28333333,"longitude":73.11666667},{"id":57683,"name":"Amod","latitude":21.99317,"longitude":72.87047},{"id":147574,"name":"Amod","latitude":21.991,"longitude":72.871},{"id":57685,"name":"Amreli","latitude":21.50789,"longitude":71.18323},{"id":57688,"name":"Amroli","latitude":21.25084,"longitude":72.83878},{"id":57695,"name":"Anand","latitude":22.4,"longitude":72.75},{"id":57709,"name":"Anjar","latitude":23.11316,"longitude":70.02671},{"id":57710,"name":"Ankleshwar","latitude":21.63236,"longitude":72.99001},{"id":58104,"name":"Babra","latitude":21.84577,"longitude":71.30544},{"id":142125,"name":"Bagasara","latitude":21.48333333,"longitude":70.95},{"id":57799,"name":"Bagasra","latitude":21.48719,"longitude":70.95516},{"id":147575,"name":"Bakharla","latitude":21.731517,"longitude":69.635296},{"id":147576,"name":"Balagam","latitude":21.36666667,"longitude":70.1},{"id":147577,"name":"Balasinor","latitude":22.955891,"longitude":73.336499},{"id":147578,"name":"Balisana","latitude":23.816436,"longitude":72.257536},{"id":147579,"name":"Bamanbore","latitude":22.41666667,"longitude":71.01666667},{"id":57858,"name":"Banas Kantha","latitude":24.25,"longitude":72.5},{"id":147580,"name":"Bandia","latitude":23.39604,"longitude":69.01155},{"id":58135,"name":"Bantva","latitude":21.48815,"longitude":70.07576},{"id":58140,"name":"Bardoli","latitude":21.12297,"longitude":73.11151},{"id":57911,"name":"Bedi","latitude":22.50143,"longitude":70.04363},{"id":57948,"name":"Bhachau","latitude":23.29858,"longitude":70.34279},{"id":147581,"name":"Bhadran","latitude":22.3593,"longitude":72.9005},{"id":147582,"name":"Bhandu","latitude":23.7,"longitude":72.36666667},{"id":58014,"name":"Bhanvad","latitude":21.93053,"longitude":69.78081},{"id":57967,"name":"Bharuch","latitude":21.69482,"longitude":72.9805},{"id":147583,"name":"Bhatha","latitude":21.18333333,"longitude":72.76666667},{"id":57972,"name":"Bhavnagar","latitude":21.76287,"longitude":72.15331},{"id":58017,"name":"Bhayavadar","latitude":21.85523,"longitude":70.24791},{"id":147584,"name":"Bhildi","latitude":24.18333333,"longitude":72.03333333},{"id":147585,"name":"Bhojpur Dharampur","latitude":23.25,"longitude":69.67},{"id":58002,"name":"Bhuj","latitude":23.25397,"longitude":69.66928},{"id":58045,"name":"Bilimora","latitude":20.76957,"longitude":72.96134},{"id":58046,"name":"Bilkha","latitude":21.4415,"longitude":70.60063},{"id":58084,"name":"Borsad","latitude":22.40788,"longitude":72.89817},{"id":58085,"name":"Botad","latitude":22.16917,"longitude":71.66671},{"id":58174,"name":"Chaklasi","latitude":22.6532,"longitude":72.94497},{"id":58180,"name":"Chalala","latitude":21.41073,"longitude":71.16621},{"id":147586,"name":"Chaloda","latitude":22.8,"longitude":72.45},{"id":147587,"name":"Champaner","latitude":22.4859,"longitude":73.5371},{"id":131595,"name":"Chanasma","latitude":23.71472,"longitude":72.11279},{"id":131529,"name":"Chhala","latitude":23.30779,"longitude":72.77404},{"id":131535,"name":"Chhota Udepur","latitude":22.30401,"longitude":74.0158},{"id":131548,"name":"Chikhli","latitude":20.75751,"longitude":73.06268},{"id":131582,"name":"Chotila","latitude":22.42347,"longitude":71.19641},{"id":147588,"name":"Chuda","latitude":22.48333333,"longitude":71.68333333},{"id":147589,"name":"Dabhoda","latitude":23.16666667,"longitude":72.73333333},{"id":131635,"name":"Dabhoi","latitude":22.18333,"longitude":73.43333},{"id":131642,"name":"Dahegam","latitude":23.16903,"longitude":72.82161},{"id":142126,"name":"Dahod","latitude":22.52,"longitude":74.15},{"id":131808,"name":"Dakor","latitude":22.75268,"longitude":73.14967},{"id":131809,"name":"Damnagar","latitude":21.69232,"longitude":71.51747},{"id":147590,"name":"Dandi","latitude":21.32988,"longitude":72.62484},{"id":142127,"name":"Dangs (India)","latitude":20.75,"longitude":73.75},{"id":147591,"name":"Danta","latitude":24.18861111,"longitude":72.76583333},{"id":131673,"name":"Dayapar","latitude":23.63371,"longitude":68.90192},{"id":131680,"name":"Delvada","latitude":20.77544,"longitude":71.04646},{"id":142128,"name":"Delwada","latitude":20.7833,"longitude":71.05},{"id":147592,"name":"Detroj","latitude":23.33333333,"longitude":72.18333333},{"id":131704,"name":"Devbhumi Dwarka","latitude":22.20253,"longitude":69.65498},{"id":131705,"name":"Devgadh Bariya","latitude":22.70517,"longitude":73.90882},{"id":131716,"name":"Dhandhuka","latitude":22.38185,"longitude":71.98664},{"id":131717,"name":"Dhanera","latitude":24.50967,"longitude":72.02343},{"id":147593,"name":"Dhansura","latitude":23.35,"longitude":73.2},{"id":131719,"name":"Dharampur","latitude":20.53693,"longitude":73.17368},{"id":147594,"name":"Dharasana","latitude":20.68333333,"longitude":72.91666667},{"id":131755,"name":"Dhari","latitude":21.32855,"longitude":71.02645},{"id":147595,"name":"Dhasa","latitude":21.8,"longitude":71.51666667},{"id":131738,"name":"Dhola","latitude":21.88129,"longitude":71.77269},{"id":147596,"name":"Dholera","latitude":22.248,"longitude":72.195},{"id":131739,"name":"Dholka","latitude":22.72732,"longitude":72.44128},{"id":131741,"name":"Dhoraji","latitude":21.73359,"longitude":70.45004},{"id":131743,"name":"Dhrangadhra","latitude":22.99167,"longitude":71.46793},{"id":131742,"name":"Dhrol","latitude":22.567,"longitude":70.41769},{"id":131747,"name":"Dhuwaran","latitude":22.23779,"longitude":72.7591},{"id":131817,"name":"Disa","latitude":24.25612,"longitude":72.17928},{"id":131782,"name":"Dohad","latitude":22.9,"longitude":74.0},{"id":147597,"name":"Dumkhal","latitude":21.7396,"longitude":73.8449},{"id":131800,"name":"Dungarpur","latitude":21.28777,"longitude":71.7556},{"id":131803,"name":"Dwarka","latitude":22.23944,"longitude":68.96778},{"id":131888,"name":"Gadhada","latitude":21.96957,"longitude":71.57828},{"id":131899,"name":"Gandevi","latitude":20.81214,"longitude":72.99811},{"id":132046,"name":"Gandhidham","latitude":23.08333,"longitude":70.13333},{"id":131900,"name":"Gandhinagar","latitude":23.21667,"longitude":72.68333},{"id":131925,"name":"Gariadhar","latitude":21.53889,"longitude":71.57737},{"id":147598,"name":"Ghodasar","latitude":24.45,"longitude":71.85},{"id":131944,"name":"Ghogha","latitude":21.68813,"longitude":72.2763},{"id":131958,"name":"Gir Somnath","latitude":20.91287,"longitude":70.3671},{"id":131964,"name":"Godhra","latitude":22.77547,"longitude":73.61488},{"id":131982,"name":"Gondal","latitude":21.96074,"longitude":70.80255},{"id":147599,"name":"Gorwa","latitude":22.3301,"longitude":73.1611},{"id":147600,"name":"Halenda","latitude":22.088185,"longitude":71.05171},{"id":132139,"name":"Halol","latitude":22.50321,"longitude":73.47242},{"id":132060,"name":"Halvad","latitude":23.01516,"longitude":71.18029},{"id":132065,"name":"Hansot","latitude":21.58496,"longitude":72.80764},{"id":132143,"name":"Harij","latitude":23.69356,"longitude":71.907},{"id":147601,"name":"Harsol","latitude":23.36,"longitude":73.02},{"id":147602,"name":"Hathuran","latitude":21.5,"longitude":72.97},{"id":132096,"name":"Himatnagar","latitude":23.59893,"longitude":72.96602},{"id":147603,"name":"Idar","latitude":23.83,"longitude":73.0},{"id":147604,"name":"Jakhau","latitude":23.21861111,"longitude":68.71694444},{"id":142129,"name":"Jalalpore","latitude":20.9491,"longitude":72.9136},{"id":132219,"name":"Jalalpur","latitude":20.94896,"longitude":72.89829},{"id":147605,"name":"Jalia","latitude":21.8,"longitude":70.25},{"id":147606,"name":"Jambuda","latitude":22.51666667,"longitude":70.21666667},{"id":132226,"name":"Jambusar","latitude":22.05236,"longitude":72.80074},{"id":132230,"name":"Jamnagar","latitude":22.47292,"longitude":70.06673},{"id":147607,"name":"Jarod","latitude":22.433,"longitude":73.333},{"id":132243,"name":"Jasdan","latitude":22.03709,"longitude":71.20794},{"id":147608,"name":"Jetalpur","latitude":22.88333333,"longitude":72.6},{"id":132261,"name":"Jetalsar","latitude":21.70891,"longitude":70.57695},{"id":132262,"name":"Jetpur","latitude":21.75482,"longitude":70.62347},{"id":147609,"name":"Jetpur (Navagadh)","latitude":21.75482,"longitude":70.62347},{"id":147610,"name":"Jhalod","latitude":23.10027778,"longitude":74.15611111},{"id":132272,"name":"Jhulasan","latitude":23.3286,"longitude":72.47314},{"id":132285,"name":"Jodhpur","latitude":21.90174,"longitude":70.0327},{"id":147611,"name":"Jodhpur (Ahmedabad)","latitude":21.88,"longitude":70.03},{"id":142130,"name":"Jodia","latitude":22.71667,"longitude":70.28333},{"id":132287,"name":"Jodiya Bandar","latitude":22.71667,"longitude":70.28333},{"id":132317,"name":"Junagadh","latitude":21.25,"longitude":70.33333},{"id":132321,"name":"Kachchh","latitude":23.58333,"longitude":70.0},{"id":147612,"name":"Kachholi","latitude":20.83333333,"longitude":72.96666667},{"id":132327,"name":"Kadi","latitude":23.29908,"longitude":72.33362},{"id":132329,"name":"Kadod","latitude":21.21717,"longitude":73.21972},{"id":132689,"name":"Kalavad","latitude":22.20789,"longitude":70.38343},{"id":132682,"name":"Kalol","latitude":22.60777,"longitude":73.46272},{"id":132698,"name":"Kandla","latitude":23.03333,"longitude":70.21667},{"id":147613,"name":"Kandla port","latitude":23.03,"longitude":70.22},{"id":132708,"name":"Kanodar","latitude":24.08932,"longitude":72.39354},{"id":132390,"name":"Kapadvanj","latitude":23.02302,"longitude":73.07113},{"id":132394,"name":"Karamsad","latitude":22.54243,"longitude":72.90392},{"id":147614,"name":"Kariana","latitude":21.88333333,"longitude":71.35},{"id":147615,"name":"Karjan","latitude":22.05304167,"longitude":73.12351389},{"id":132723,"name":"Kathor","latitude":21.28854,"longitude":72.9407},{"id":132425,"name":"Katpur","latitude":21.05869,"longitude":71.79457},{"id":142131,"name":"Kavant","latitude":22.09282,"longitude":74.05078},{"id":132434,"name":"Kawant","latitude":22.09282,"longitude":74.05078},{"id":147616,"name":"Kayavarohan","latitude":22.067,"longitude":73.25},{"id":147617,"name":"Kerwada","latitude":21.9,"longitude":72.85},{"id":132446,"name":"Keshod","latitude":21.30328,"longitude":70.24861},{"id":142132,"name":"Khambhalia","latitude":22.2,"longitude":69.65},{"id":132462,"name":"Khambhat","latitude":22.31744,"longitude":72.61916},{"id":147618,"name":"Khavda","latitude":23.85,"longitude":69.72},{"id":132488,"name":"Kheda","latitude":22.75,"longitude":72.83333},{"id":132489,"name":"Khedbrahma","latitude":24.0299,"longitude":73.04632},{"id":147619,"name":"Khedoi","latitude":23.05927778,"longitude":69.91895556},{"id":147620,"name":"Kherali","latitude":22.68333333,"longitude":71.6},{"id":132494,"name":"Kheralu","latitude":23.88534,"longitude":72.61869},{"id":132547,"name":"Kodinar","latitude":20.79393,"longitude":70.70216},{"id":132588,"name":"Kosamba","latitude":21.46202,"longitude":72.95842},{"id":147621,"name":"Kothara","latitude":23.133,"longitude":68.932},{"id":147622,"name":"Kotharia","latitude":22.23,"longitude":70.81},{"id":147623,"name":"Kukarmunda","latitude":21.51666667,"longitude":74.13333333},{"id":147624,"name":"Kukma","latitude":23.217822,"longitude":69.777922},{"id":132647,"name":"Kundla","latitude":21.34222,"longitude":71.30633},{"id":142133,"name":"Kutch district","latitude":23.915,"longitude":70.367},{"id":132670,"name":"Kutiyana","latitude":21.6241,"longitude":69.98494},{"id":147628,"name":"Ladol","latitude":23.61666667,"longitude":72.73333333},{"id":147625,"name":"Lakhpat","latitude":23.82611111,"longitude":68.77694444},{"id":132747,"name":"Lakhtar","latitude":22.85683,"longitude":71.78844},{"id":132797,"name":"Lalpur","latitude":22.19073,"longitude":69.96351},{"id":147626,"name":"Langhnaj","latitude":23.45,"longitude":72.48333333},{"id":132802,"name":"Lathi","latitude":21.7231,"longitude":71.38843},{"id":132764,"name":"Limbdi","latitude":22.56507,"longitude":71.81076},{"id":147627,"name":"Limkheda","latitude":22.81666667,"longitude":73.98333333},{"id":132804,"name":"Lunavada","latitude":23.12841,"longitude":73.61043},{"id":147629,"name":"Madhavpur Ghed","latitude":21.29929167,"longitude":70.02513889},{"id":147630,"name":"Madhi","latitude":22.1,"longitude":69.1},{"id":132831,"name":"Mahemdavad","latitude":22.82359,"longitude":72.75551},{"id":132834,"name":"Mahesana","latitude":23.66667,"longitude":72.5},{"id":147631,"name":"Mahisa","latitude":22.85,"longitude":73.05},{"id":132841,"name":"Mahudha","latitude":22.82082,"longitude":72.94032},{"id":147632,"name":"Mahuva","latitude":21.0833,"longitude":71.8},{"id":147633,"name":"Mahuva (Surat)","latitude":21.02,"longitude":73.15},{"id":133068,"name":"Malpur","latitude":23.36035,"longitude":73.46595},{"id":133085,"name":"Manavadar","latitude":21.49813,"longitude":70.13775},{"id":133073,"name":"Mandal","latitude":23.28865,"longitude":71.91854},{"id":133076,"name":"Mandvi","latitude":22.83282,"longitude":69.35237},{"id":142134,"name":"Mandvi (Surat)","latitude":21.25526,"longitude":73.30412},{"id":133077,"name":"Mangrol","latitude":21.12268,"longitude":70.11484},{"id":147634,"name":"Mangrol (Junagadh)","latitude":21.12,"longitude":70.12},{"id":133081,"name":"Mansa","latitude":23.42564,"longitude":72.65739},{"id":132960,"name":"Meghraj","latitude":23.49805,"longitude":73.51352},{"id":142135,"name":"Mehsana","latitude":23.6,"longitude":72.4},{"id":132966,"name":"Mendarda","latitude":21.32112,"longitude":70.44078},{"id":147635,"name":"Mithapur","latitude":22.41,"longitude":69.0},{"id":132978,"name":"Modasa","latitude":23.46253,"longitude":73.29857},{"id":132993,"name":"Morbi","latitude":22.81731,"longitude":70.8377},{"id":142136,"name":"Morva (Hadaf)","latitude":22.90469,"longitude":73.83912},{"id":133000,"name":"Morwa","latitude":22.90469,"longitude":73.83912},{"id":133029,"name":"Mundra","latitude":22.83918,"longitude":69.7219},{"id":133106,"name":"Nadiad","latitude":22.69385,"longitude":72.86157},{"id":147636,"name":"Nadiad","latitude":22.7,"longitude":72.87},{"id":147637,"name":"Nagwa","latitude":25.69621,"longitude":84.2359},{"id":147638,"name":"Naldhara","latitude":20.96666667,"longitude":73.16666667},{"id":133133,"name":"Naliya","latitude":23.26058,"longitude":68.82655},{"id":147639,"name":"Nargol","latitude":20.233,"longitude":72.75},{"id":133169,"name":"Narmada","latitude":21.87377,"longitude":73.49527},{"id":133170,"name":"Naroda","latitude":23.07041,"longitude":72.65702},{"id":133187,"name":"Navsari","latitude":20.95,"longitude":72.92},{"id":147640,"name":"Nikora","latitude":21.78586,"longitude":73.13968},{"id":147641,"name":"Nizar","latitude":21.47727,"longitude":74.19595},{"id":147642,"name":"Odadar","latitude":21.56666667,"longitude":69.66666667},{"id":133297,"name":"Okha","latitude":22.46756,"longitude":69.07002},{"id":133298,"name":"Olpad","latitude":21.33649,"longitude":72.75161},{"id":133313,"name":"Paddhari","latitude":22.43654,"longitude":70.60162},{"id":133315,"name":"Padra","latitude":22.2398,"longitude":73.08451},{"id":133526,"name":"Palanpur","latitude":24.17128,"longitude":72.43827},{"id":147643,"name":"Palanswa","latitude":23.46666667,"longitude":70.93333333},{"id":133532,"name":"Palitana","latitude":21.52519,"longitude":71.82309},{"id":133533,"name":"Paliyad","latitude":22.25757,"longitude":71.56024},{"id":147644,"name":"Paliyad (Bhavnagar)","latitude":22.25757,"longitude":71.56024},{"id":147645,"name":"Palsana","latitude":21.08,"longitude":72.98},{"id":133536,"name":"Panch Mahals","latitude":22.75,"longitude":73.6},{"id":142137,"name":"Panchmahal district","latitude":22.75,"longitude":73.6},{"id":133548,"name":"Pardi","latitude":20.5087,"longitude":72.94569},{"id":133362,"name":"Parnera","latitude":20.56101,"longitude":72.94846},{"id":133376,"name":"Patan","latitude":23.7,"longitude":71.8},{"id":142138,"name":"Pavi Jetpur","latitude":22.34472,"longitude":73.84093},{"id":133429,"name":"Petlad","latitude":22.47681,"longitude":72.79995},{"id":147646,"name":"Pipavav","latitude":20.96666667,"longitude":71.56666667},{"id":147647,"name":"Piplod","latitude":22.81666667,"longitude":73.9},{"id":133480,"name":"Porbandar","latitude":21.64219,"longitude":69.60929},{"id":147648,"name":"Prabhas Patan","latitude":20.88808,"longitude":70.40129},{"id":147649,"name":"Prantij","latitude":23.43841944,"longitude":72.85718056},{"id":133657,"name":"Radhanpur","latitude":23.83238,"longitude":71.6047},{"id":133679,"name":"Rajkot","latitude":22.33333,"longitude":70.83333},{"id":133682,"name":"Rajpipla","latitude":21.86667,"longitude":73.5},{"id":133684,"name":"Rajula","latitude":21.03854,"longitude":71.44345},{"id":133718,"name":"Ranavav","latitude":21.68734,"longitude":69.74485},{"id":147650,"name":"Ranpur","latitude":22.3667,"longitude":71.75},{"id":133722,"name":"Rapar","latitude":23.57267,"longitude":70.64718},{"id":147651,"name":"Reha","latitude":23.151725,"longitude":69.750086},{"id":133643,"name":"Roha","latitude":23.19646,"longitude":69.27076},{"id":133739,"name":"Sabar Kantha","latitude":23.62974,"longitude":73.00197},{"id":133742,"name":"Sachin","latitude":21.08718,"longitude":72.88153},{"id":133766,"name":"Salaya","latitude":22.31038,"longitude":69.60376},{"id":147652,"name":"Samakhiali","latitude":23.3034,"longitude":70.50688},{"id":134069,"name":"Sanand","latitude":22.99227,"longitude":72.38177},{"id":133790,"name":"Sankheda","latitude":22.17021,"longitude":73.5782},{"id":147653,"name":"Sarbhon","latitude":21.05,"longitude":73.0833},{"id":147654,"name":"Sardoi","latitude":23.5667,"longitude":73.2667},{"id":133808,"name":"Sarkhej","latitude":22.98297,"longitude":72.50196},{"id":147655,"name":"Sathamba","latitude":23.169125,"longitude":73.32661667},{"id":133831,"name":"Savarkundla","latitude":21.33726,"longitude":71.3035},{"id":147656,"name":"Savli","latitude":22.56666667,"longitude":73.21666667},{"id":134085,"name":"Sayla","latitude":22.54925,"longitude":71.48324},{"id":133900,"name":"Shahpur","latitude":22.15611,"longitude":70.77068},{"id":133882,"name":"Shivrajpur","latitude":22.42319,"longitude":73.60865},{"id":142139,"name":"Siddhpur","latitude":23.9167,"longitude":72.3833},{"id":133925,"name":"Sihor","latitude":21.71134,"longitude":71.96179},{"id":133932,"name":"Sikka","latitude":22.43218,"longitude":69.84158},{"id":133954,"name":"Sinor","latitude":21.91117,"longitude":73.33974},{"id":133984,"name":"Sojitra","latitude":22.53884,"longitude":72.71984},{"id":133995,"name":"Songadh","latitude":21.16966,"longitude":73.56357},{"id":147657,"name":"Supedi","latitude":21.762,"longitude":70.378},{"id":134096,"name":"Surat","latitude":21.17801,"longitude":72.81189},{"id":134050,"name":"Surendranagar","latitude":22.72706,"longitude":71.64856},{"id":147658,"name":"Sutrapada","latitude":20.8928,"longitude":70.465},{"id":134107,"name":"Talaja","latitude":21.3527,"longitude":72.03524},{"id":134112,"name":"Tankara","latitude":22.65622,"longitude":70.74945},{"id":134114,"name":"Tapi","latitude":21.12,"longitude":73.4},{"id":134164,"name":"Than","latitude":22.57422,"longitude":71.19942},{"id":142140,"name":"Thangadh","latitude":22.56666667,"longitude":71.18333333},{"id":134144,"name":"Tharad","latitude":24.39597,"longitude":71.62577},{"id":134168,"name":"Thasra","latitude":22.79831,"longitude":73.21174},{"id":134145,"name":"The Dangs","latitude":20.75,"longitude":73.75},{"id":147659,"name":"Umarpada","latitude":21.45,"longitude":73.5},{"id":134277,"name":"Umrala","latitude":21.84353,"longitude":71.80305},{"id":134275,"name":"Umreth","latitude":22.69881,"longitude":73.11561},{"id":134278,"name":"Un","latitude":23.88745,"longitude":71.76975},{"id":134280,"name":"Una","latitude":20.82318,"longitude":71.03795},{"id":134284,"name":"Unjha","latitude":23.80366,"longitude":72.39101},{"id":134286,"name":"Upleta","latitude":21.74015,"longitude":70.28256},{"id":134297,"name":"Utran","latitude":21.23333,"longitude":72.86667},{"id":147660,"name":"Vadgam","latitude":24.08333333,"longitude":72.48333333},{"id":134309,"name":"Vadnagar","latitude":23.78593,"longitude":72.63893},{"id":134310,"name":"Vadodara","latitude":22.29941,"longitude":73.20812},{"id":134381,"name":"Vaghodia","latitude":22.30505,"longitude":73.40016},{"id":147661,"name":"Vaghodia INA","latitude":22.3,"longitude":73.3833},{"id":134318,"name":"Vallabh Vidyanagar","latitude":22.53333,"longitude":72.9},{"id":142141,"name":"Vallabhipur","latitude":21.8878,"longitude":71.8795},{"id":134322,"name":"Valsad","latitude":20.5,"longitude":73.08333},{"id":147662,"name":"Vanala","latitude":22.45,"longitude":71.98333333},{"id":142142,"name":"Vansda","latitude":20.45,"longitude":73.22},{"id":147663,"name":"Vanthli","latitude":21.4833,"longitude":70.3333},{"id":134326,"name":"Vapi","latitude":20.37175,"longitude":72.90493},{"id":134331,"name":"Vartej","latitude":21.73947,"longitude":72.06553},{"id":134332,"name":"Vasa","latitude":22.66079,"longitude":72.75519},{"id":147664,"name":"Vasavad","latitude":21.82657,"longitude":71.02436},{"id":142143,"name":"Vaso","latitude":22.66079,"longitude":72.75519},{"id":147665,"name":"Vataman","latitude":22.53,"longitude":72.42},{"id":134339,"name":"Vejalpur","latitude":22.69021,"longitude":73.56299},{"id":134349,"name":"Veraval","latitude":20.9077,"longitude":70.36786},{"id":134357,"name":"Vijapur","latitude":23.5623,"longitude":72.74848},{"id":142144,"name":"Vinchhiya","latitude":22.21027,"longitude":71.37967},{"id":134363,"name":"Vinchia","latitude":22.21027,"longitude":71.37967},{"id":147666,"name":"Viramgam","latitude":23.12,"longitude":72.03},{"id":134365,"name":"Virpur","latitude":23.1892,"longitude":73.47987},{"id":134387,"name":"Visavadar","latitude":21.33954,"longitude":70.74966},{"id":134371,"name":"Visnagar","latitude":23.69855,"longitude":72.5521},{"id":134378,"name":"Vyara","latitude":21.11079,"longitude":73.39365},{"id":142145,"name":"Wadhai","latitude":20.76666667,"longitude":73.48333333},{"id":142146,"name":"Wadhwan","latitude":22.7,"longitude":71.68333333},{"id":134389,"name":"Waghai","latitude":20.77048,"longitude":73.50074},{"id":134416,"name":"Wankaner","latitude":22.61198,"longitude":70.94379}]