[{"id":76414,"name":"Bagan Serai","latitude":5.0108,"longitude":100.54101},{"id":76423,"name":"Batu Gajah","latitude":4.46916,"longitude":101.04107},{"id":76429,"name":"Bidur","latitude":4.11667,"longitude":101.28333},{"id":76450,"name":"Ipoh","latitude":4.5841,"longitude":101.0829},{"id":76457,"name":"Kampar","latitude":4.3,"longitude":101.15},{"id":76459,"name":"Kampong Dungun","latitude":3.21667,"longitude":101.31667},{"id":76494,"name":"Kuala Kangsar","latitude":4.76667,"longitude":100.93333},{"id":76519,"name":"Lumut","latitude":4.2323,"longitude":100.6298},{"id":76532,"name":"Pantai Remis","latitude":4.4557,"longitude":100.6288},{"id":76534,"name":"Parit Buntar","latitude":5.12671,"longitude":100.49316},{"id":76564,"name":"Simpang Empat","latitude":4.95,"longitude":100.63333},{"id":76571,"name":"Taiping","latitude":4.85,"longitude":100.73333},{"id":76579,"name":"Tapah Road","latitude":4.16667,"longitude":101.2},{"id":76583,"name":"Teluk Intan","latitude":4.02219,"longitude":101.02083}]