[{"id":146174,"name":"Akurana","latitude":7.365,"longitude":80.617222},{"id":146150,"name":"Alawatugoda","latitude":7.41048962,"longitude":80.60918933},{"id":146149,"name":"Ambatenna","latitude":7.35252855,"longitude":80.61378113},{"id":146148,"name":"Daskara","latitude":7.20902217,"longitude":80.57764643},{"id":146147,"name":"Daulagala","latitude":7.22882494,"longitude":80.57756073},{"id":146173,"name":"Delthota","latitude":7.18491721,"longitude":80.70488697},{"id":146172,"name":"Doluwa","latitude":7.18518536,"longitude":80.6057345},{"id":146146,"name":"Galagedara","latitude":7.368333,"longitude":80.5275},{"id":146145,"name":"Galhinna","latitude":7.416142,"longitude":80.568842},{"id":66472,"name":"Gampola","latitude":7.1643,"longitude":80.5696},{"id":146171,"name":"Ganga Ihala Korale","latitude":7.11455516,"longitude":80.5144881},{"id":146144,"name":"Hanguranketa","latitude":7.166667,"longitude":80.783333},{"id":146143,"name":"Hapugastalawa","latitude":7.05872498,"longitude":80.57137014},{"id":146170,"name":"Harispattuwa","latitude":7.33016007,"longitude":80.58765149},{"id":146169,"name":"Hatharaliyadda","latitude":7.33032982,"longitude":80.47875881},{"id":66485,"name":"Kadugannawa","latitude":7.2547,"longitude":80.5242},{"id":146168,"name":"Kandy Four Gravets","latitude":7.28318748,"longitude":80.63527585},{"id":146153,"name":"Katugastota","latitude":7.333333,"longitude":80.616667},{"id":146167,"name":"Kundasale","latitude":7.30391594,"longitude":80.71230408},{"id":146142,"name":"Madawala","latitude":7.328331,"longitude":80.673552},{"id":146166,"name":"Medadumbara","latitude":7.30425996,"longitude":80.77519844},{"id":146141,"name":"Menikdiwela","latitude":7.083333,"longitude":80.733333},{"id":146165,"name":"Minipe","latitude":7.22638754,"longitude":81.00116732},{"id":146151,"name":"Nawalapitiya","latitude":7.03696481,"longitude":80.51626688},{"id":146152,"name":"Pallekele","latitude":7.283333,"longitude":80.7},{"id":146164,"name":"Panvila","latitude":7.4092975,"longitude":80.73966228},{"id":146163,"name":"Pasbage Korale","latitude":7.0151045,"longitude":80.54078073},{"id":146162,"name":"Pathadumbara","latitude":7.34931196,"longitude":80.66303689},{"id":146161,"name":"Pathahewaheta","latitude":7.23139207,"longitude":80.70848937},{"id":146154,"name":"Peradeniya","latitude":7.266667,"longitude":80.6},{"id":146140,"name":"Pilimathalawa","latitude":7.27,"longitude":80.57},{"id":146160,"name":"Poojapitiya","latitude":7.38093796,"longitude":80.58913708},{"id":146139,"name":"Pussellawa","latitude":7.105333,"longitude":80.636667},{"id":146138,"name":"Talatuoya","latitude":7.25,"longitude":80.683333},{"id":146137,"name":"Teldeniya","latitude":7.3,"longitude":80.766667},{"id":146159,"name":"Thumpane","latitude":7.36616728,"longitude":80.51587048},{"id":146133,"name":"Udadumbara","latitude":7.35,"longitude":80.833333},{"id":146158,"name":"Udapalatha","latitude":7.11515526,"longitude":80.6024834},{"id":146157,"name":"Ududumbara","latitude":7.31434839,"longitude":80.87707756},{"id":146156,"name":"Udunuwara","latitude":7.22777866,"longitude":80.55894578},{"id":146136,"name":"Ulapane","latitude":7.102778,"longitude":80.561111},{"id":146135,"name":"Watadeniya","latitude":7.195011,"longitude":80.552494},{"id":66542,"name":"Wattegama","latitude":7.350278,"longitude":80.6825},{"id":146134,"name":"Welamboda","latitude":7.2,"longitude":80.55},{"id":146155,"name":"Yatinuwara","latitude":7.28584509,"longitude":80.53516168}]