[{"id":32076,"name":"Alcalá de los Gazules","latitude":36.46212,"longitude":-5.72382},{"id":32080,"name":"Alcalá del Valle","latitude":36.90448,"longitude":-5.1724},{"id":32210,"name":"Algar","latitude":36.65748,"longitude":-5.65558},{"id":32216,"name":"Algeciras","latitude":36.13326,"longitude":-5.45051},{"id":32223,"name":"Algodonales","latitude":36.88044,"longitude":-5.40536},{"id":32437,"name":"Arcos de la Frontera","latitude":36.75075,"longitude":-5.81056},{"id":32646,"name":"Barbate","latitude":36.19237,"longitude":-5.92186},{"id":151361,"name":"Barrios Los","latitude":0.0,"longitude":0.0},{"id":32766,"name":"Benalup-Casas Viejas","latitude":36.34375,"longitude":-5.8128},{"id":32773,"name":"Benaocaz","latitude":36.70069,"longitude":-5.42222},{"id":32957,"name":"Bornos","latitude":36.81677,"longitude":-5.74448},{"id":151362,"name":"Bosque El","latitude":0.0,"longitude":0.0},{"id":33117,"name":"Cadiz","latitude":36.52672,"longitude":-6.2891},{"id":33420,"name":"Castellar de la Frontera","latitude":36.31736,"longitude":-5.45407},{"id":33631,"name":"Chiclana de la Frontera","latitude":36.41976,"longitude":-6.14367},{"id":33641,"name":"Chipiona","latitude":36.73663,"longitude":-6.43703},{"id":33761,"name":"Conil de la Frontera","latitude":36.27719,"longitude":-6.0885},{"id":34115,"name":"Espera","latitude":36.87446,"longitude":-5.806},{"id":151363,"name":"Gastor El","latitude":0.0,"longitude":0.0},{"id":34507,"name":"Grazalema","latitude":36.76018,"longitude":-5.36839},{"id":34812,"name":"Jerez de la Frontera","latitude":36.68645,"longitude":-6.13606},{"id":34817,"name":"Jimena de la Frontera","latitude":36.43517,"longitude":-5.45387},{"id":151364,"name":"Línea de la Concepción La","latitude":0.0,"longitude":0.0},{"id":151365,"name":"Medina-Sidonia","latitude":0.0,"longitude":0.0},{"id":35917,"name":"Olvera","latitude":36.93418,"longitude":-5.26678},{"id":36078,"name":"Paterna de Rivera","latitude":36.52246,"longitude":-5.86578},{"id":36346,"name":"Prado del Rey","latitude":36.78756,"longitude":-5.55589},{"id":151366,"name":"Puerto de Santa María El","latitude":0.0,"longitude":0.0},{"id":36447,"name":"Puerto Real","latitude":36.52819,"longitude":-6.19011},{"id":36450,"name":"Puerto Serrano","latitude":36.92209,"longitude":-5.54304},{"id":36680,"name":"Rota","latitude":36.62545,"longitude":-6.3622},{"id":36835,"name":"San Fernando","latitude":36.4759,"longitude":-6.19817},{"id":36842,"name":"San José del Valle","latitude":36.60554,"longitude":-5.79895},{"id":36919,"name":"San Roque","latitude":36.21067,"longitude":-5.38415},{"id":36947,"name":"Sanlúcar de Barrameda","latitude":36.77808,"longitude":-6.3515},{"id":37236,"name":"Setenil de las Bodegas","latitude":36.86397,"longitude":-5.18177},{"id":37381,"name":"Tarifa","latitude":36.01393,"longitude":-5.60695},{"id":37487,"name":"Torre Alháquime","latitude":36.91588,"longitude":-5.23381},{"id":37625,"name":"Trebujena","latitude":36.87075,"longitude":-6.17586},{"id":37670,"name":"Ubrique","latitude":36.67777,"longitude":-5.446},{"id":37921,"name":"Vejer de la Frontera","latitude":36.25213,"longitude":-5.96717},{"id":38124,"name":"Villaluenga del Rosario","latitude":36.69644,"longitude":-5.38601},{"id":38136,"name":"Villamartín","latitude":36.85979,"longitude":-5.64485},{"id":38454,"name":"Zahara","latitude":36.84055,"longitude":-5.39128}]