[{"id":88925,"name":"Aldeia Nova de São Bento","latitude":37.92603,"longitude":-7.40804},{"id":88944,"name":"Aljustrel","latitude":37.87759,"longitude":-8.16516},{"id":88949,"name":"Almodôvar","latitude":37.4959,"longitude":-8.09372},{"id":88950,"name":"Almograve","latitude":37.65665,"longitude":-8.79214},{"id":88957,"name":"Alvito","latitude":38.24653,"longitude":-8.05038},{"id":89020,"name":"Barrancos","latitude":38.13446,"longitude":-6.97604},{"id":89027,"name":"Beja","latitude":38.01506,"longitude":-7.86323},{"id":89036,"name":"Beringel","latitude":38.05656,"longitude":-7.98427},{"id":89039,"name":"Boavista dos Pinheiros","latitude":37.58058,"longitude":-8.66441},{"id":89056,"name":"Cabeça Gorda","latitude":37.92401,"longitude":-7.7929},{"id":89111,"name":"Castro Verde","latitude":37.69828,"longitude":-8.08581},{"id":89136,"name":"Cuba","latitude":38.21972,"longitude":-7.92114},{"id":89176,"name":"Ferreira do Alentejo","latitude":38.05,"longitude":-8.03333},{"id":89340,"name":"Mértola","latitude":37.65918,"longitude":-7.66434},{"id":89299,"name":"Minas de São Domingos","latitude":37.67322,"longitude":-7.49765},{"id":89335,"name":"Moura","latitude":38.1401,"longitude":-7.44856},{"id":89346,"name":"Neves","latitude":38.0227,"longitude":-7.81344},{"id":89352,"name":"Odemira","latitude":37.59798,"longitude":-8.63972},{"id":89372,"name":"Ourique","latitude":37.69156,"longitude":-8.31031},{"id":89397,"name":"Penedo Gordo","latitude":37.98477,"longitude":-7.91651},{"id":89485,"name":"Salvada","latitude":37.93771,"longitude":-7.77448},{"id":89572,"name":"São Luis","latitude":37.71556,"longitude":-8.66472},{"id":89590,"name":"São Teotónio","latitude":37.51282,"longitude":-8.70708},{"id":89533,"name":"Serpa","latitude":37.95201,"longitude":-7.47534},{"id":89642,"name":"Vidigueira","latitude":38.18448,"longitude":-7.74469},{"id":89658,"name":"Vila Nova de Milfontes","latitude":37.72377,"longitude":-8.78278},{"id":89690,"name":"Zambujeira do Mar","latitude":37.52799,"longitude":-8.78483}]