[{"id":130555,"name":"Hà Giang","latitude":22.82333,"longitude":104.98357},{"id":130235,"name":"Huyện Bắc Mê","latitude":22.75477,"longitude":105.29023},{"id":130236,"name":"Huyện Bắc Quang","latitude":22.42301,"longitude":104.91831},{"id":130548,"name":"Huyện Đồng Văn","latitude":23.25449,"longitude":105.27626},{"id":130406,"name":"Huyện Quang Bình","latitude":22.41507,"longitude":104.66018},{"id":130508,"name":"Huyện Vị Xuyên","latitude":22.73096,"longitude":104.90827},{"id":130511,"name":"Huyện Xín Mần","latitude":22.64148,"longitude":104.52089},{"id":130516,"name":"Huyện Yên Minh","latitude":23.06992,"longitude":105.17865}]