[{"id":107259,"name":"Bahçe İlçesi","latitude":37.20105,"longitude":36.57687},{"id":107543,"name":"Düziçi İlçesi","latitude":37.25062,"longitude":36.47051},{"id":107798,"name":"Hasanbeyli","latitude":37.12838,"longitude":36.54608},{"id":107860,"name":"Kadirli","latitude":37.37389,"longitude":36.09611},{"id":108294,"name":"Osmaniye","latitude":37.07417,"longitude":36.24778},{"id":108504,"name":"Sumbas İlçesi","latitude":37.46169,"longitude":36.02914},{"id":108585,"name":"Toprakkale","latitude":37.06855,"longitude":36.14661}]