[{"id":110981,"name":"Abernathy","latitude":33.8323,"longitude":-101.84295},{"id":110983,"name":"Abilene","latitude":32.44874,"longitude":-99.73314},{"id":110988,"name":"Abram","latitude":26.1998,"longitude":-98.41113},{"id":111034,"name":"Addison","latitude":32.96179,"longitude":-96.82917},{"id":111059,"name":"Agua Dulce","latitude":31.65511,"longitude":-106.13887},{"id":111092,"name":"Alamo","latitude":26.18369,"longitude":-98.12306},{"id":111096,"name":"Alamo Heights","latitude":29.48495,"longitude":-98.46585},{"id":111104,"name":"Albany","latitude":32.72345,"longitude":-99.2973},{"id":111140,"name":"Aldine","latitude":29.93245,"longitude":-95.38021},{"id":111141,"name":"Aledo","latitude":32.69596,"longitude":-97.60225},{"id":111171,"name":"Alice","latitude":27.75225,"longitude":-98.06972},{"id":111173,"name":"Alief","latitude":29.71106,"longitude":-95.59633},{"id":111187,"name":"Allen","latitude":33.10317,"longitude":-96.67055},{"id":111224,"name":"Alpine","latitude":30.35862,"longitude":-103.66206},{"id":111240,"name":"Alto","latitude":31.65045,"longitude":-95.07272},{"id":111244,"name":"Alton","latitude":26.28729,"longitude":-98.31335},{"id":111246,"name":"Alton North (historical)","latitude":26.29535,"longitude":-98.30446},{"id":111257,"name":"Alvarado","latitude":32.40653,"longitude":-97.21168},{"id":111258,"name":"Alvin","latitude":29.42385,"longitude":-95.2441},{"id":111259,"name":"Alvord","latitude":33.35845,"longitude":-97.69475},{"id":111263,"name":"Amarillo","latitude":35.222,"longitude":-101.8313},{"id":111276,"name":"Ames","latitude":30.05383,"longitude":-94.74353},{"id":111301,"name":"Anahuac","latitude":29.773,"longitude":-94.6827},{"id":111312,"name":"Anderson","latitude":30.48715,"longitude":-95.9869},{"id":111319,"name":"Anderson County","latitude":31.81333,"longitude":-95.65255},{"id":111320,"name":"Anderson Mill","latitude":30.45492,"longitude":-97.80584},{"id":111331,"name":"Andrews","latitude":32.31872,"longitude":-102.54572},{"id":111333,"name":"Andrews County","latitude":32.30503,"longitude":-102.63781},{"id":111336,"name":"Angelina County","latitude":31.25476,"longitude":-94.61185},{"id":111339,"name":"Angleton","latitude":29.16941,"longitude":-95.43188},{"id":111347,"name":"Anna","latitude":33.349,"longitude":-96.5486},{"id":111354,"name":"Annetta","latitude":32.7093,"longitude":-97.67614},{"id":111360,"name":"Anson","latitude":32.7565,"longitude":-99.89621},{"id":111370,"name":"Anthony","latitude":31.99927,"longitude":-106.60555},{"id":111375,"name":"Anton","latitude":33.8112,"longitude":-102.16379},{"id":111410,"name":"Aransas County","latitude":28.01501,"longitude":-97.07382},{"id":111411,"name":"Aransas Pass","latitude":27.90947,"longitude":-97.14999},{"id":111430,"name":"Archer City","latitude":33.59566,"longitude":-98.62561},{"id":111431,"name":"Archer County","latitude":33.61525,"longitude":-98.68765},{"id":111437,"name":"Arcola","latitude":29.49607,"longitude":-95.46578},{"id":111450,"name":"Argyle","latitude":33.12123,"longitude":-97.18335},{"id":111464,"name":"Arlington","latitude":32.73569,"longitude":-97.10807},{"id":111481,"name":"Armstrong County","latitude":34.96493,"longitude":-101.3574},{"id":111521,"name":"Asherton","latitude":28.44193,"longitude":-99.76033},{"id":111554,"name":"Aspermont","latitude":33.13343,"longitude":-100.22733},{"id":111565,"name":"Atascocita","latitude":29.99883,"longitude":-95.1766},{"id":111566,"name":"Atascosa County","latitude":28.89352,"longitude":-98.52713},{"id":111576,"name":"Athens","latitude":32.20487,"longitude":-95.85552},{"id":111591,"name":"Atlanta","latitude":33.11374,"longitude":-94.16435},{"id":111618,"name":"Aubrey","latitude":33.30428,"longitude":-96.98612},{"id":111658,"name":"Aurora","latitude":33.06068,"longitude":-97.50336},{"id":111668,"name":"Austin","latitude":30.26715,"longitude":-97.74306},{"id":111670,"name":"Austin County","latitude":29.88702,"longitude":-96.27791},{"id":111710,"name":"Azle","latitude":32.89513,"longitude":-97.54586},{"id":111719,"name":"Bacliff","latitude":29.5069,"longitude":-94.99243},{"id":111730,"name":"Bailey County","latitude":34.06852,"longitude":-102.82987},{"id":111736,"name":"Baird","latitude":32.39402,"longitude":-99.39424},{"id":111749,"name":"Balch Springs","latitude":32.72874,"longitude":-96.62277},{"id":111750,"name":"Balcones Heights","latitude":29.48801,"longitude":-98.55169},{"id":111773,"name":"Ballinger","latitude":31.73821,"longitude":-99.94731},{"id":111788,"name":"Bandera","latitude":29.72661,"longitude":-99.07365},{"id":111789,"name":"Bandera County","latitude":29.74721,"longitude":-99.24624},{"id":111796,"name":"Bangs","latitude":31.7171,"longitude":-99.13255},{"id":111844,"name":"Barrett","latitude":29.87995,"longitude":-95.06298},{"id":111862,"name":"Bartlett","latitude":30.79491,"longitude":-97.42556},{"id":111868,"name":"Barton Creek","latitude":30.28521,"longitude":-97.86917},{"id":111870,"name":"Bartonville","latitude":33.07318,"longitude":-97.13168},{"id":111884,"name":"Bastrop","latitude":30.11049,"longitude":-97.31527},{"id":111885,"name":"Bastrop County","latitude":30.10361,"longitude":-97.31201},{"id":111895,"name":"Batesville","latitude":28.95108,"longitude":-99.61783},{"id":111921,"name":"Bay City","latitude":28.98276,"longitude":-95.9694},{"id":111943,"name":"Baylor County","latitude":33.61649,"longitude":-99.21351},{"id":111950,"name":"Bayou Vista","latitude":29.32635,"longitude":-94.93853},{"id":111958,"name":"Baytown","latitude":29.7355,"longitude":-94.97743},{"id":111963,"name":"Beach City","latitude":29.66217,"longitude":-94.88992},{"id":111989,"name":"Beaumont","latitude":30.08605,"longitude":-94.10185},{"id":112021,"name":"Bedford","latitude":32.84402,"longitude":-97.14307},{"id":112033,"name":"Bee Cave","latitude":30.30854,"longitude":-97.94501},{"id":112034,"name":"Bee County","latitude":28.41739,"longitude":-97.74119},{"id":112044,"name":"Beeville","latitude":28.40095,"longitude":-97.74974},{"id":112069,"name":"Bell County","latitude":31.03767,"longitude":-97.4782},{"id":112075,"name":"Bellaire","latitude":29.70579,"longitude":-95.45883},{"id":112122,"name":"Bellmead","latitude":31.59405,"longitude":-97.10889},{"id":112127,"name":"Bells","latitude":33.61038,"longitude":-96.41082},{"id":112129,"name":"Bellville","latitude":29.95023,"longitude":-96.25719},{"id":112149,"name":"Belton","latitude":31.05601,"longitude":-97.46445},{"id":112164,"name":"Benavides","latitude":27.59892,"longitude":-98.40807},{"id":112165,"name":"Benbrook","latitude":32.67319,"longitude":-97.46058},{"id":112169,"name":"Benjamin","latitude":33.58398,"longitude":-99.79231},{"id":112256,"name":"Berryville","latitude":32.08849,"longitude":-95.4719},{"id":112259,"name":"Bertram","latitude":30.7438,"longitude":-98.05558},{"id":112299,"name":"Beverly","latitude":31.52517,"longitude":-97.14195},{"id":112304,"name":"Beverly Hills","latitude":31.52156,"longitude":-97.15389},{"id":112307,"name":"Bevil Oaks","latitude":30.15021,"longitude":-94.26963},{"id":112308,"name":"Bexar County","latitude":29.44896,"longitude":-98.52002},{"id":112324,"name":"Big Lake","latitude":31.19154,"longitude":-101.46039},{"id":112333,"name":"Big Sandy","latitude":32.58375,"longitude":-95.10883},{"id":112335,"name":"Big Spring","latitude":32.2504,"longitude":-101.47874},{"id":112363,"name":"Bishop","latitude":27.58614,"longitude":-97.79916},{"id":112418,"name":"Blanco","latitude":30.09799,"longitude":-98.42141},{"id":112419,"name":"Blanco County","latitude":30.26638,"longitude":-98.39987},{"id":112450,"name":"Bloomington","latitude":28.64777,"longitude":-96.89249},{"id":112456,"name":"Blossom","latitude":33.6615,"longitude":-95.38579},{"id":112472,"name":"Blue Mound","latitude":32.85652,"longitude":-97.33891},{"id":112497,"name":"Boerne","latitude":29.79466,"longitude":-98.73197},{"id":112500,"name":"Bogata","latitude":33.47067,"longitude":-95.21384},{"id":112515,"name":"Boling","latitude":29.26441,"longitude":-95.94384},{"id":112522,"name":"Bolivar Peninsula","latitude":29.47829,"longitude":-94.57991},{"id":112535,"name":"Bonham","latitude":33.57733,"longitude":-96.17831},{"id":112551,"name":"Booker","latitude":36.45336,"longitude":-100.53737},{"id":112575,"name":"Borden County","latitude":32.74369,"longitude":-101.43175},{"id":112577,"name":"Borger","latitude":35.66782,"longitude":-101.39739},{"id":112584,"name":"Bosque County","latitude":31.9004,"longitude":-97.63435},{"id":112619,"name":"Bovina","latitude":34.51368,"longitude":-102.883},{"id":112624,"name":"Bowie","latitude":33.559,"longitude":-97.84865},{"id":112625,"name":"Bowie County","latitude":33.44576,"longitude":-94.42332},{"id":112641,"name":"Boyd","latitude":33.07873,"longitude":-97.5653},{"id":112657,"name":"Brackettville","latitude":29.31051,"longitude":-100.41786},{"id":112678,"name":"Brady","latitude":31.13517,"longitude":-99.33506},{"id":112704,"name":"Brazoria","latitude":29.04441,"longitude":-95.56911},{"id":112705,"name":"Brazoria County","latitude":29.16783,"longitude":-95.43426},{"id":112706,"name":"Brazos County","latitude":30.6608,"longitude":-96.30239},{"id":112710,"name":"Breckenridge","latitude":32.75568,"longitude":-98.90229},{"id":112724,"name":"Brenham","latitude":30.16688,"longitude":-96.39774},{"id":112745,"name":"Brewster County","latitude":29.81195,"longitude":-103.25176},{"id":112748,"name":"Briar","latitude":32.99512,"longitude":-97.5428},{"id":112749,"name":"Briarcliff","latitude":30.40742,"longitude":-98.04446},{"id":112756,"name":"Bridge City","latitude":30.02077,"longitude":-93.84573},{"id":112759,"name":"Bridgeport","latitude":33.21012,"longitude":-97.75476},{"id":112801,"name":"Briscoe County","latitude":34.53026,"longitude":-101.20859},{"id":112884,"name":"Brooks County","latitude":27.03157,"longitude":-98.21872},{"id":112885,"name":"Brookshire","latitude":29.78606,"longitude":-95.95107},{"id":112888,"name":"Brookside Village","latitude":29.5869,"longitude":-95.32522},{"id":112910,"name":"Brown County","latitude":31.77426,"longitude":-98.99979},{"id":112917,"name":"Brownfield","latitude":33.1812,"longitude":-102.27435},{"id":112923,"name":"Brownsboro","latitude":32.30237,"longitude":-95.61357},{"id":112932,"name":"Brownsville","latitude":25.90175,"longitude":-97.49748},{"id":112940,"name":"Brownwood","latitude":31.70932,"longitude":-98.99116},{"id":112944,"name":"Bruceville-Eddy","latitude":31.30517,"longitude":-97.25167},{"id":112956,"name":"Brushy Creek","latitude":30.51353,"longitude":-97.73973},{"id":112959,"name":"Bryan","latitude":30.67436,"longitude":-96.36996},{"id":112976,"name":"Buchanan Dam","latitude":30.7399,"longitude":-98.43114},{"id":112993,"name":"Buda","latitude":30.08521,"longitude":-97.84028},{"id":113010,"name":"Buffalo","latitude":31.46379,"longitude":-96.05802},{"id":113030,"name":"Bullard","latitude":32.13988,"longitude":-95.32023},{"id":113035,"name":"Bulverde","latitude":29.74383,"longitude":-98.45307},{"id":113036,"name":"Buna","latitude":30.43298,"longitude":-93.9624},{"id":113042,"name":"Bunker Hill Village","latitude":29.76745,"longitude":-95.52994},{"id":113053,"name":"Burkburnett","latitude":34.09787,"longitude":-98.57061},{"id":113061,"name":"Burleson","latitude":32.54208,"longitude":-97.32085},{"id":113062,"name":"Burleson County","latitude":30.49248,"longitude":-96.62146},{"id":113078,"name":"Burnet","latitude":30.75824,"longitude":-98.22836},{"id":113079,"name":"Burnet County","latitude":30.7883,"longitude":-98.18245},{"id":113100,"name":"Bushland","latitude":35.192,"longitude":-102.06464},{"id":113157,"name":"Cactus","latitude":36.05226,"longitude":-102.0024},{"id":113161,"name":"Caddo Mills","latitude":33.06567,"longitude":-96.22776},{"id":113180,"name":"Caldwell","latitude":30.53132,"longitude":-96.69303},{"id":113186,"name":"Caldwell County","latitude":29.83712,"longitude":-97.62},{"id":113207,"name":"Calhoun County","latitude":28.43911,"longitude":-96.61507},{"id":113223,"name":"Callahan County","latitude":32.29766,"longitude":-99.37349},{"id":113233,"name":"Calvert","latitude":30.97797,"longitude":-96.67386},{"id":113275,"name":"Cameron","latitude":30.85325,"longitude":-96.97693},{"id":113277,"name":"Cameron County","latitude":26.1515,"longitude":-97.45286},{"id":113280,"name":"Cameron Park","latitude":25.96452,"longitude":-97.47665},{"id":113282,"name":"Cameron Park Colonia","latitude":25.97147,"longitude":-97.47832},{"id":113286,"name":"Camp County","latitude":32.97322,"longitude":-94.97848},{"id":113294,"name":"Camp Swift","latitude":30.19077,"longitude":-97.29221},{"id":113314,"name":"Canadian","latitude":35.91282,"longitude":-100.38208},{"id":113342,"name":"Canton","latitude":32.55652,"longitude":-95.8633},{"id":113353,"name":"Canutillo","latitude":31.91149,"longitude":-106.60027},{"id":113354,"name":"Canyon","latitude":34.98033,"longitude":-101.9188},{"id":113358,"name":"Canyon Lake","latitude":29.87522,"longitude":-98.26251},{"id":113447,"name":"Carrizo Springs","latitude":28.52193,"longitude":-99.86061},{"id":113470,"name":"Carrollton","latitude":32.95373,"longitude":-96.89028},{"id":113479,"name":"Carson County","latitude":35.40351,"longitude":-101.35418},{"id":113495,"name":"Carthage","latitude":32.15738,"longitude":-94.33742},{"id":113528,"name":"Cass County","latitude":33.07754,"longitude":-94.34359},{"id":113545,"name":"Castle Hills","latitude":29.52329,"longitude":-98.51641},{"id":113556,"name":"Castro County","latitude":34.52996,"longitude":-102.26167},{"id":113558,"name":"Castroville","latitude":29.35579,"longitude":-98.87864},{"id":113614,"name":"Cedar Hill","latitude":32.58847,"longitude":-96.95612},{"id":113619,"name":"Cedar Park","latitude":30.5052,"longitude":-97.82029},{"id":113631,"name":"Celina","latitude":33.32456,"longitude":-96.78444},{"id":113636,"name":"Center","latitude":31.79545,"longitude":-94.17909},{"id":113657,"name":"Centerville","latitude":31.25796,"longitude":-95.97829},{"id":113675,"name":"Central Gardens","latitude":29.99549,"longitude":-94.01406},{"id":114960,"name":"César Chávez","latitude":26.3034,"longitude":-98.11529},{"id":113721,"name":"Chambers County","latitude":29.70826,"longitude":-94.67138},{"id":113730,"name":"Chandler","latitude":32.30793,"longitude":-95.47996},{"id":113736,"name":"Channelview","latitude":29.77606,"longitude":-95.11465},{"id":113737,"name":"Channing","latitude":35.68365,"longitude":-102.3302},{"id":113778,"name":"Charlotte","latitude":28.86192,"longitude":-98.70641},{"id":113855,"name":"Cherokee County","latitude":31.83695,"longitude":-95.16518},{"id":113942,"name":"Chico","latitude":33.29595,"longitude":-97.79892},{"id":113950,"name":"Childress","latitude":34.42645,"longitude":-100.204},{"id":113951,"name":"Childress County","latitude":34.5292,"longitude":-100.20757},{"id":113959,"name":"China","latitude":30.04799,"longitude":-94.33574},{"id":113962,"name":"China Grove","latitude":29.38885,"longitude":-98.3489},{"id":114018,"name":"Cibolo","latitude":29.56162,"longitude":-98.22696},{"id":114022,"name":"Cienegas Terrace","latitude":29.36745,"longitude":-100.94371},{"id":114026,"name":"Cinco Ranch","latitude":29.73884,"longitude":-95.758},{"id":114029,"name":"Circle D-KC Estates","latitude":30.161,"longitude":-97.23473},{"id":114031,"name":"Cisco","latitude":32.38819,"longitude":-98.97923},{"id":114035,"name":"Citrus City","latitude":26.32646,"longitude":-98.3853},{"id":114112,"name":"Clarendon","latitude":34.93783,"longitude":-100.8882},{"id":114155,"name":"Clarksville","latitude":33.61066,"longitude":-95.05272},{"id":114162,"name":"Claude","latitude":35.11172,"longitude":-101.36322},{"id":114185,"name":"Clay County","latitude":33.78553,"longitude":-98.2085},{"id":114214,"name":"Clear Lake Shores","latitude":29.54745,"longitude":-95.03215},{"id":114229,"name":"Cleburne","latitude":32.34764,"longitude":-97.38668},{"id":114246,"name":"Cleveland","latitude":30.34132,"longitude":-95.08549},{"id":114256,"name":"Clifton","latitude":31.78238,"longitude":-97.57669},{"id":114266,"name":"Clint","latitude":31.59234,"longitude":-106.22414},{"id":114312,"name":"Cloverleaf","latitude":29.77828,"longitude":-95.17188},{"id":114317,"name":"Clute","latitude":29.02469,"longitude":-95.39883},{"id":114319,"name":"Clyde","latitude":32.40596,"longitude":-99.49369},{"id":114352,"name":"Cochran County","latitude":33.60414,"longitude":-102.82846},{"id":114356,"name":"Cockrell Hill","latitude":32.73624,"longitude":-96.88695},{"id":114377,"name":"Coke County","latitude":31.88853,"longitude":-100.52991},{"id":114390,"name":"Coldspring","latitude":30.59242,"longitude":-95.12938},{"id":114398,"name":"Coleman","latitude":31.82737,"longitude":-99.42645},{"id":114400,"name":"Coleman County","latitude":31.77321,"longitude":-99.45364},{"id":114417,"name":"College Station","latitude":30.62798,"longitude":-96.33441},{"id":114422,"name":"Colleyville","latitude":32.88096,"longitude":-97.15501},{"id":114426,"name":"Collin County","latitude":33.18791,"longitude":-96.57237},{"id":114430,"name":"Collingsworth County","latitude":34.96488,"longitude":-100.27007},{"id":114437,"name":"Collinsville","latitude":33.5615,"longitude":-96.91111},{"id":114456,"name":"Colorado City","latitude":32.38817,"longitude":-100.86456},{"id":114457,"name":"Colorado County","latitude":29.62082,"longitude":-96.52628},{"id":114495,"name":"Columbus","latitude":29.70662,"longitude":-96.53969},{"id":114509,"name":"Comal County","latitude":29.80818,"longitude":-98.27825},{"id":114511,"name":"Comanche","latitude":31.89737,"longitude":-98.60366},{"id":114514,"name":"Comanche County","latitude":31.94798,"longitude":-98.55826},{"id":114516,"name":"Combes","latitude":26.24869,"longitude":-97.73388},{"id":114517,"name":"Combine","latitude":32.58847,"longitude":-96.5086},{"id":114520,"name":"Comfort","latitude":29.96771,"longitude":-98.90503},{"id":114524,"name":"Commerce","latitude":33.24706,"longitude":-95.89997},{"id":114533,"name":"Concho County","latitude":31.3265,"longitude":-99.86396},{"id":114570,"name":"Conroe","latitude":30.31188,"longitude":-95.45605},{"id":114578,"name":"Converse","latitude":29.51801,"longitude":-98.31612},{"id":114594,"name":"Cooke County","latitude":33.63919,"longitude":-97.21262},{"id":114601,"name":"Cooper","latitude":31.24324,"longitude":-95.58217},{"id":114619,"name":"Coppell","latitude":32.95457,"longitude":-97.01501},{"id":114620,"name":"Copper Canyon","latitude":33.09595,"longitude":-97.09668},{"id":114621,"name":"Copperas Cove","latitude":31.12406,"longitude":-97.90308},{"id":114644,"name":"Corinth","latitude":33.15401,"longitude":-97.06473},{"id":114665,"name":"Corpus Christi","latitude":27.80058,"longitude":-97.39638},{"id":114668,"name":"Corrigan","latitude":30.99686,"longitude":-94.82715},{"id":114670,"name":"Corsicana","latitude":32.09543,"longitude":-96.46887},{"id":114683,"name":"Coryell County","latitude":31.39091,"longitude":-97.7992},{"id":114695,"name":"Cottle County","latitude":34.07765,"longitude":-100.27874},{"id":114706,"name":"Cottonwood Shores","latitude":30.55575,"longitude":-98.32391},{"id":114708,"name":"Cotulla","latitude":28.43693,"longitude":-99.23503},{"id":114765,"name":"Crandall","latitude":32.62791,"longitude":-96.45582},{"id":114769,"name":"Crane","latitude":31.39736,"longitude":-102.35014},{"id":114770,"name":"Crane County","latitude":31.4285,"longitude":-102.51557},{"id":114829,"name":"Crockett","latitude":31.31824,"longitude":-95.45661},{"id":114832,"name":"Crockett County","latitude":30.72298,"longitude":-101.41215},{"id":114842,"name":"Crosby","latitude":29.91189,"longitude":-95.06215},{"id":114845,"name":"Crosby County","latitude":33.61462,"longitude":-101.29996},{"id":114846,"name":"Crosbyton","latitude":33.66008,"longitude":-101.23793},{"id":114851,"name":"Cross Mountain","latitude":29.6455,"longitude":-98.65947},{"id":114862,"name":"Crowell","latitude":33.98397,"longitude":-99.72482},{"id":114864,"name":"Crowley","latitude":32.57903,"longitude":-97.36252},{"id":114876,"name":"Crystal City","latitude":28.67748,"longitude":-99.82811},{"id":114892,"name":"Cuero","latitude":29.09387,"longitude":-97.28916},{"id":114893,"name":"Culberson County","latitude":31.44716,"longitude":-104.51742},{"id":114943,"name":"Cut and Shoot","latitude":30.33327,"longitude":-95.35799},{"id":114953,"name":"Cypress","latitude":29.96911,"longitude":-95.69717},{"id":114972,"name":"Daingerfield","latitude":33.03179,"longitude":-94.72187},{"id":114986,"name":"Dalhart","latitude":36.05948,"longitude":-102.51325},{"id":114987,"name":"Dallam County","latitude":36.27789,"longitude":-102.60222},{"id":114990,"name":"Dallas","latitude":32.78306,"longitude":-96.80667},{"id":114997,"name":"Dallas County","latitude":32.76663,"longitude":-96.77787},{"id":115005,"name":"Dalworthington Gardens","latitude":32.70291,"longitude":-97.15529},{"id":115014,"name":"Danbury","latitude":29.2283,"longitude":-95.34494},{"id":115085,"name":"Dawson County","latitude":32.74253,"longitude":-101.94768},{"id":115093,"name":"Dayton","latitude":30.04661,"longitude":-94.8852},{"id":115107,"name":"De Kalb","latitude":33.50873,"longitude":-94.61632},{"id":115109,"name":"De Leon","latitude":32.11097,"longitude":-98.53588},{"id":115143,"name":"Deaf Smith County","latitude":34.96602,"longitude":-102.60494},{"id":115155,"name":"Decatur","latitude":33.23428,"longitude":-97.58614},{"id":115125,"name":"DeCordova","latitude":32.42986,"longitude":-97.69503},{"id":115175,"name":"Deer Park","latitude":29.70523,"longitude":-95.12382},{"id":115195,"name":"Del Rio","latitude":29.36273,"longitude":-100.89676},{"id":115224,"name":"Delta County","latitude":33.38629,"longitude":-95.67227},{"id":115237,"name":"Denison","latitude":33.75566,"longitude":-96.53666},{"id":115247,"name":"Denton","latitude":33.21484,"longitude":-97.13307},{"id":115248,"name":"Denton County","latitude":33.20526,"longitude":-97.11697},{"id":115254,"name":"Denver City","latitude":32.96455,"longitude":-102.8291},{"id":115138,"name":"DeSoto","latitude":32.58986,"longitude":-96.85695},{"id":115299,"name":"Devine","latitude":29.13996,"longitude":-98.90531},{"id":115306,"name":"Deweyville","latitude":30.29771,"longitude":-93.7435},{"id":115141,"name":"DeWitt County","latitude":29.08208,"longitude":-97.35678},{"id":115319,"name":"Diboll","latitude":31.18713,"longitude":-94.78104},{"id":115320,"name":"Dickens","latitude":33.62175,"longitude":-100.83652},{"id":115321,"name":"Dickens County","latitude":33.61661,"longitude":-100.77886},{"id":115325,"name":"Dickinson","latitude":29.46079,"longitude":-95.05132},{"id":115339,"name":"Dilley","latitude":28.66748,"longitude":-99.17059},{"id":115348,"name":"Dimmit County","latitude":28.42254,"longitude":-99.75673},{"id":115349,"name":"Dimmitt","latitude":34.5509,"longitude":-102.31186},{"id":115384,"name":"Doffing","latitude":26.27452,"longitude":-98.38585},{"id":115399,"name":"Donley County","latitude":34.96542,"longitude":-100.81399},{"id":115400,"name":"Donna","latitude":26.17035,"longitude":-98.05195},{"id":115403,"name":"Doolittle","latitude":26.35337,"longitude":-98.11666},{"id":115416,"name":"Double Oak","latitude":33.06512,"longitude":-97.11057},{"id":115479,"name":"Dripping Springs","latitude":30.19021,"longitude":-98.08668},{"id":115492,"name":"Dublin","latitude":32.08514,"longitude":-98.34199},{"id":115515,"name":"Dumas","latitude":35.86559,"longitude":-101.97324},{"id":115525,"name":"Duncanville","latitude":32.6518,"longitude":-96.90834},{"id":115581,"name":"Duval County","latitude":27.68133,"longitude":-98.50891},{"id":115603,"name":"Eagle Lake","latitude":29.58968,"longitude":-96.33358},{"id":115606,"name":"Eagle Mountain","latitude":32.89346,"longitude":-97.44446},{"id":115608,"name":"Eagle Pass","latitude":28.70914,"longitude":-100.49952},{"id":115622,"name":"Early","latitude":31.7421,"longitude":-98.94561},{"id":115624,"name":"Earth","latitude":34.23314,"longitude":-102.41075},{"id":115632,"name":"East Bernard","latitude":29.53107,"longitude":-96.07107},{"id":115780,"name":"Eastland","latitude":32.40152,"longitude":-98.81756},{"id":115781,"name":"Eastland County","latitude":32.32707,"longitude":-98.83232},{"id":115819,"name":"Ector County","latitude":31.86916,"longitude":-102.54276},{"id":115820,"name":"Edcouch","latitude":26.29396,"longitude":-97.96056},{"id":115829,"name":"Eden","latitude":31.21628,"longitude":-99.84563},{"id":115839,"name":"Edgecliff Village","latitude":32.65763,"longitude":-97.34279},{"id":115860,"name":"Edgewood","latitude":32.69818,"longitude":-95.88524},{"id":115870,"name":"Edinburg","latitude":26.30174,"longitude":-98.16334},{"id":115884,"name":"Edna","latitude":28.97859,"longitude":-96.64609},{"id":115891,"name":"Edwards County","latitude":29.98263,"longitude":-100.30474},{"id":115908,"name":"Eidson Road","latitude":28.6772,"longitude":-100.48702},{"id":115912,"name":"El Campo","latitude":29.19664,"longitude":-96.26969},{"id":115913,"name":"El Cenizo","latitude":27.35224,"longitude":-99.49254},{"id":115926,"name":"El Lago","latitude":29.56356,"longitude":-95.04521},{"id":115930,"name":"El Paso","latitude":31.75872,"longitude":-106.48693},{"id":115932,"name":"El Paso County","latitude":31.76855,"longitude":-106.23483},{"id":115954,"name":"Eldorado","latitude":30.86017,"longitude":-100.60093},{"id":115959,"name":"Electra","latitude":34.02926,"longitude":-98.91896},{"id":115965,"name":"Elgin","latitude":30.34965,"longitude":-97.37027},{"id":115997,"name":"Elkhart","latitude":31.62517,"longitude":-95.5794},{"id":116032,"name":"Ellis County","latitude":32.34843,"longitude":-96.79448},{"id":116043,"name":"Elm Creek","latitude":28.77442,"longitude":-100.49174},{"id":116048,"name":"Elmendorf","latitude":29.25607,"longitude":-98.33279},{"id":116068,"name":"Elsa","latitude":26.2934,"longitude":-97.99306},{"id":116108,"name":"Emory","latitude":32.87457,"longitude":-95.76552},{"id":116115,"name":"Encantada-Ranchito-El Calaboz","latitude":26.03344,"longitude":-97.63307},{"id":116141,"name":"Ennis","latitude":32.32931,"longitude":-96.62527},{"id":116161,"name":"Erath County","latitude":32.23626,"longitude":-98.21797},{"id":116183,"name":"Escobares","latitude":26.41062,"longitude":-98.96253},{"id":116228,"name":"Euless","latitude":32.83707,"longitude":-97.08195},{"id":116243,"name":"Evadale","latitude":30.35493,"longitude":-94.07268},{"id":116266,"name":"Everman","latitude":32.63097,"longitude":-97.28918},{"id":116279,"name":"Fabens","latitude":31.50234,"longitude":-106.15859},{"id":116287,"name":"Fair Oaks Ranch","latitude":29.74578,"longitude":-98.64336},{"id":116298,"name":"Fairchilds","latitude":29.43135,"longitude":-95.78023},{"id":116311,"name":"Fairfield","latitude":31.72461,"longitude":-96.16525},{"id":116351,"name":"Fairview","latitude":33.1579,"longitude":-96.63166},{"id":116366,"name":"Falcon Lake Estates","latitude":26.87282,"longitude":-99.25531},{"id":116368,"name":"Falfurrias","latitude":27.22699,"longitude":-98.14417},{"id":116382,"name":"Falls County","latitude":31.25327,"longitude":-96.93585},{"id":116391,"name":"Fannett","latitude":29.92605,"longitude":-94.25074},{"id":116393,"name":"Fannin County","latitude":33.59381,"longitude":-96.10683},{"id":116403,"name":"Farmers Branch","latitude":32.92651,"longitude":-96.89612},{"id":116406,"name":"Farmersville","latitude":33.16345,"longitude":-96.35998},{"id":116431,"name":"Farwell","latitude":34.38341,"longitude":-103.038},{"id":116432,"name":"Fate","latitude":32.94151,"longitude":-96.38137},{"id":116449,"name":"Fayette County","latitude":29.87679,"longitude":-96.91976},{"id":116494,"name":"Ferris","latitude":32.53403,"longitude":-96.66555},{"id":116506,"name":"Fifth Street","latitude":29.59829,"longitude":-95.55133},{"id":116528,"name":"Fisher County","latitude":32.74282,"longitude":-100.40217},{"id":116556,"name":"Flatonia","latitude":29.68773,"longitude":-97.1086},{"id":116581,"name":"Florence","latitude":30.8413,"longitude":-97.79363},{"id":116590,"name":"Floresville","latitude":29.13358,"longitude":-98.15612},{"id":116601,"name":"Flower Mound","latitude":33.01457,"longitude":-97.09696},{"id":116611,"name":"Floyd County","latitude":34.07242,"longitude":-101.30323},{"id":116612,"name":"Floydada","latitude":33.98452,"longitude":-101.33766},{"id":116616,"name":"Foard County","latitude":33.97462,"longitude":-99.77798},{"id":116655,"name":"Forest Hill","latitude":32.67208,"longitude":-97.26918},{"id":116677,"name":"Forney","latitude":32.74818,"longitude":-96.47193},{"id":116692,"name":"Fort Bend County","latitude":29.52749,"longitude":-95.77089},{"id":116694,"name":"Fort Bliss","latitude":31.81357,"longitude":-106.41224},{"id":116700,"name":"Fort Clark Springs","latitude":29.30607,"longitude":-100.42202},{"id":116703,"name":"Fort Davis","latitude":30.58821,"longitude":-103.89463},{"id":116716,"name":"Fort Hancock","latitude":31.29846,"longitude":-105.84525},{"id":116717,"name":"Fort Hood","latitude":31.13489,"longitude":-97.77561},{"id":116752,"name":"Fort Stockton","latitude":30.89404,"longitude":-102.87932},{"id":116764,"name":"Fort Worth","latitude":32.72541,"longitude":-97.32085},{"id":116788,"name":"Four Corners","latitude":29.66857,"longitude":-95.65772},{"id":116830,"name":"Franklin","latitude":31.02602,"longitude":-96.48524},{"id":116855,"name":"Franklin County","latitude":33.17555,"longitude":-95.21842},{"id":116877,"name":"Frankston","latitude":32.05266,"longitude":-95.50635},{"id":116890,"name":"Fredericksburg","latitude":30.2752,"longitude":-98.87198},{"id":116911,"name":"Freeport","latitude":28.95414,"longitude":-95.35966},{"id":116916,"name":"Freer","latitude":27.8828,"longitude":-98.61779},{"id":116917,"name":"Freestone County","latitude":31.70489,"longitude":-96.14909},{"id":116938,"name":"Fresno","latitude":29.53885,"longitude":-95.44744},{"id":116952,"name":"Friendswood","latitude":29.5294,"longitude":-95.20104},{"id":116953,"name":"Frio County","latitude":28.86782,"longitude":-99.10827},{"id":116954,"name":"Friona","latitude":34.64173,"longitude":-102.7241},{"id":116955,"name":"Frisco","latitude":33.15067,"longitude":-96.82361},{"id":116958,"name":"Fritch","latitude":35.63977,"longitude":-101.60323},{"id":116984,"name":"Fulshear","latitude":29.68996,"longitude":-95.89968},{"id":116989,"name":"Fulton","latitude":28.0614,"longitude":-97.0411},{"id":117011,"name":"Gail","latitude":32.77038,"longitude":-101.44541},{"id":117012,"name":"Gaines County","latitude":32.74073,"longitude":-102.63518},{"id":117017,"name":"Gainesville","latitude":33.62594,"longitude":-97.13335},{"id":117025,"name":"Galena Park","latitude":29.73356,"longitude":-95.23021},{"id":117042,"name":"Galveston","latitude":29.30135,"longitude":-94.7977},{"id":117044,"name":"Galveston County","latitude":29.29767,"longitude":-94.81087},{"id":117047,"name":"Ganado","latitude":29.04054,"longitude":-96.51358},{"id":117060,"name":"Garden City","latitude":31.86402,"longitude":-101.48123},{"id":117067,"name":"Garden Ridge","latitude":29.63467,"longitude":-98.30529},{"id":117071,"name":"Gardendale","latitude":32.0204,"longitude":-102.38015},{"id":117080,"name":"Garfield","latitude":30.18744,"longitude":-97.55778},{"id":117088,"name":"Garland","latitude":32.91262,"longitude":-96.63888},{"id":117108,"name":"Garza County","latitude":33.17988,"longitude":-101.29842},{"id":117122,"name":"Gatesville","latitude":31.43516,"longitude":-97.74391},{"id":117154,"name":"George West","latitude":28.3325,"longitude":-98.11751},{"id":117160,"name":"Georgetown","latitude":30.63269,"longitude":-97.67723},{"id":117177,"name":"Geronimo","latitude":29.663,"longitude":-97.96695},{"id":117181,"name":"Gholson","latitude":31.701,"longitude":-97.2164},{"id":117195,"name":"Giddings","latitude":30.18272,"longitude":-96.93637},{"id":117215,"name":"Gillespie County","latitude":30.31806,"longitude":-98.94648},{"id":117221,"name":"Gilmer","latitude":32.72875,"longitude":-94.94244},{"id":117235,"name":"Gladewater","latitude":32.53653,"longitude":-94.94272},{"id":117252,"name":"Glasscock County","latitude":31.86946,"longitude":-101.5208},{"id":117274,"name":"Glen Rose","latitude":32.23459,"longitude":-97.75531},{"id":117298,"name":"Glenn Heights","latitude":32.54875,"longitude":-96.85667},{"id":117335,"name":"Godley","latitude":32.44903,"longitude":-97.52669},{"id":117366,"name":"Goldthwaite","latitude":31.44989,"longitude":-98.57088},{"id":117368,"name":"Goliad","latitude":28.66833,"longitude":-97.38833},{"id":117369,"name":"Goliad County","latitude":28.6571,"longitude":-97.42649},{"id":117371,"name":"Gonzales","latitude":29.50163,"longitude":-97.45249},{"id":117373,"name":"Gonzales County","latitude":29.45673,"longitude":-97.49252},{"id":117406,"name":"Gorman","latitude":32.21375,"longitude":-98.67061},{"id":117435,"name":"Graham","latitude":33.10706,"longitude":-98.5895},{"id":117445,"name":"Granbury","latitude":32.44208,"longitude":-97.7942},{"id":117471,"name":"Grand Prairie","latitude":32.74596,"longitude":-96.99778},{"id":117475,"name":"Grand Saline","latitude":32.67346,"longitude":-95.70941},{"id":117480,"name":"Grandview","latitude":32.27042,"longitude":-97.17918},{"id":117486,"name":"Granger","latitude":30.71769,"longitude":-97.44278},{"id":117501,"name":"Granite Shoals","latitude":30.58908,"longitude":-98.38392},{"id":117538,"name":"Grape Creek","latitude":31.57932,"longitude":-100.5476},{"id":117539,"name":"Grapeland","latitude":31.49185,"longitude":-95.47856},{"id":117540,"name":"Grapevine","latitude":32.93429,"longitude":-97.07807},{"id":117554,"name":"Gray County","latitude":35.40116,"longitude":-100.81256},{"id":117563,"name":"Grayson County","latitude":33.62681,"longitude":-96.67772},{"id":117583,"name":"Greatwood","latitude":29.55413,"longitude":-95.67578},{"id":117612,"name":"Green Valley Farms","latitude":26.12202,"longitude":-97.56054},{"id":117689,"name":"Greenville","latitude":33.13845,"longitude":-96.11081},{"id":117715,"name":"Gregg County","latitude":32.48047,"longitude":-94.81695},{"id":117716,"name":"Gregory","latitude":27.92224,"longitude":-97.28999},{"id":117738,"name":"Grimes County","latitude":30.54347,"longitude":-95.9855},{"id":117742,"name":"Groesbeck","latitude":31.52434,"longitude":-96.53387},{"id":117761,"name":"Groves","latitude":29.94827,"longitude":-93.91712},{"id":117762,"name":"Groveton","latitude":31.05491,"longitude":-95.12577},{"id":117774,"name":"Gruver","latitude":36.26503,"longitude":-101.40627},{"id":117778,"name":"Guadalupe County","latitude":29.58305,"longitude":-97.94858},{"id":117800,"name":"Gun Barrel City","latitude":32.33459,"longitude":-96.15136},{"id":117805,"name":"Gunter","latitude":33.44789,"longitude":-96.74749},{"id":117813,"name":"Guthrie","latitude":33.62064,"longitude":-100.32289},{"id":117827,"name":"Hackberry","latitude":33.15234,"longitude":-96.91778},{"id":117847,"name":"Hale Center","latitude":34.06424,"longitude":-101.84379},{"id":117849,"name":"Hale County","latitude":34.07051,"longitude":-101.82688},{"id":117866,"name":"Hall County","latitude":34.53078,"longitude":-100.68113},{"id":117870,"name":"Hallettsville","latitude":29.44385,"longitude":-96.94109},{"id":117876,"name":"Hallsville","latitude":32.50432,"longitude":-94.57409},{"id":117878,"name":"Haltom City","latitude":32.79957,"longitude":-97.26918},{"id":117890,"name":"Hamilton","latitude":31.70377,"longitude":-98.12392},{"id":117899,"name":"Hamilton County","latitude":31.7048,"longitude":-98.11073},{"id":117910,"name":"Hamlin","latitude":32.88483,"longitude":-100.12649},{"id":117977,"name":"Hansford County","latitude":36.27745,"longitude":-101.35454},{"id":117996,"name":"Hardeman County","latitude":34.29029,"longitude":-99.74572},{"id":118002,"name":"Hardin County","latitude":30.33237,"longitude":-94.39022},{"id":118013,"name":"Harker Heights","latitude":31.08351,"longitude":-97.65974},{"id":118026,"name":"Harlingen","latitude":26.19063,"longitude":-97.6961},{"id":118032,"name":"Harper","latitude":30.29992,"longitude":-99.24421},{"id":118045,"name":"Harris County","latitude":29.85728,"longitude":-95.39234},{"id":118065,"name":"Harrison County","latitude":32.54813,"longitude":-94.37149},{"id":118081,"name":"Hart","latitude":34.38507,"longitude":-102.11574},{"id":118100,"name":"Hartley County","latitude":35.84002,"longitude":-102.60289},{"id":118124,"name":"Haskell","latitude":33.1576,"longitude":-99.7337},{"id":118126,"name":"Haskell County","latitude":33.17823,"longitude":-99.7303},{"id":118128,"name":"Haslet","latitude":32.97485,"longitude":-97.3478},{"id":118165,"name":"Hawkins","latitude":32.58847,"longitude":-95.20411},{"id":118192,"name":"Hays County","latitude":30.05815,"longitude":-98.03106},{"id":118221,"name":"Hearne","latitude":30.87852,"longitude":-96.59303},{"id":118222,"name":"Heath","latitude":32.83651,"longitude":-96.47499},{"id":118227,"name":"Hebbronville","latitude":27.30688,"longitude":-98.68032},{"id":118242,"name":"Hedwig Village","latitude":29.77745,"longitude":-95.51716},{"id":118244,"name":"Heidelberg","latitude":26.19702,"longitude":-97.88028},{"id":118261,"name":"Helotes","latitude":29.57801,"longitude":-98.68975},{"id":118267,"name":"Hemphill","latitude":31.34074,"longitude":-93.84685},{"id":118268,"name":"Hemphill County","latitude":35.83757,"longitude":-100.27047},{"id":118269,"name":"Hempstead","latitude":30.09744,"longitude":-96.07829},{"id":118273,"name":"Henderson","latitude":32.15322,"longitude":-94.79938},{"id":118283,"name":"Henderson County","latitude":32.21189,"longitude":-95.85356},{"id":118295,"name":"Henrietta","latitude":33.81732,"longitude":-98.19532},{"id":118315,"name":"Hereford","latitude":34.81521,"longitude":-102.39932},{"id":118348,"name":"Hewitt","latitude":31.46239,"longitude":-97.19584},{"id":118367,"name":"Hickory Creek","latitude":33.12234,"longitude":-97.04306},{"id":118372,"name":"Hico","latitude":31.98293,"longitude":-98.03365},{"id":118373,"name":"Hidalgo","latitude":26.10035,"longitude":-98.26307},{"id":118374,"name":"Hidalgo County","latitude":26.39672,"longitude":-98.18107},{"id":118382,"name":"Hideaway","latitude":32.49042,"longitude":-95.45746},{"id":118410,"name":"Highland Park","latitude":32.83346,"longitude":-96.79195},{"id":118416,"name":"Highland Village","latitude":33.09179,"longitude":-97.04668},{"id":118417,"name":"Highlands","latitude":29.81884,"longitude":-95.05604},{"id":118435,"name":"Hill Country Village","latitude":29.58245,"longitude":-98.49085},{"id":118436,"name":"Hill County","latitude":31.99068,"longitude":-97.13243},{"id":118449,"name":"Hillsboro","latitude":32.01099,"longitude":-97.13001},{"id":118469,"name":"Hilltop Lakes","latitude":31.07935,"longitude":-96.20385},{"id":118492,"name":"Hitchcock","latitude":29.34829,"longitude":-95.01604},{"id":118505,"name":"Hockley County","latitude":33.60764,"longitude":-102.3432},{"id":118534,"name":"Holiday Lakes","latitude":29.20969,"longitude":-95.51689},{"id":118537,"name":"Holland","latitude":30.87824,"longitude":-97.40167},{"id":118544,"name":"Holliday","latitude":33.81621,"longitude":-98.69506},{"id":118559,"name":"Holly Lake Ranch","latitude":32.71336,"longitude":-95.19756},{"id":118568,"name":"Hollywood Park","latitude":29.6005,"longitude":-98.48724},{"id":118603,"name":"Homestead Meadows North","latitude":31.84963,"longitude":-106.17285},{"id":118604,"name":"Homestead Meadows South","latitude":31.81097,"longitude":-106.16427},{"id":118615,"name":"Hondo","latitude":29.34746,"longitude":-99.14142},{"id":118620,"name":"Honey Grove","latitude":33.58344,"longitude":-95.90997},{"id":118625,"name":"Hood County","latitude":32.42993,"longitude":-97.83227},{"id":118630,"name":"Hooks","latitude":33.46623,"longitude":-94.28853},{"id":118654,"name":"Hopkins County","latitude":33.14956,"longitude":-95.56395},{"id":118664,"name":"Horizon City","latitude":31.69261,"longitude":-106.20748},{"id":118668,"name":"Hornsby Bend","latitude":30.24743,"longitude":-97.58333},{"id":118675,"name":"Horseshoe Bay","latitude":30.54429,"longitude":-98.37394},{"id":118699,"name":"Houston","latitude":29.76328,"longitude":-95.36327},{"id":118705,"name":"Houston County","latitude":31.31773,"longitude":-95.42268},{"id":118718,"name":"Howard County","latitude":32.30617,"longitude":-101.43551},{"id":118721,"name":"Howe","latitude":33.50872,"longitude":-96.61221},{"id":118730,"name":"Hubbard","latitude":31.84849,"longitude":-96.79721},{"id":118737,"name":"Hudson","latitude":31.32268,"longitude":-94.77826},{"id":118748,"name":"Hudson Bend","latitude":30.41714,"longitude":-97.92918},{"id":118752,"name":"Hudson Oaks","latitude":32.75707,"longitude":-97.7067},{"id":118754,"name":"Hudspeth County","latitude":31.45618,"longitude":-105.38646},{"id":118760,"name":"Hughes Springs","latitude":32.99846,"longitude":-94.63076},{"id":118774,"name":"Humble","latitude":29.99883,"longitude":-95.26216},{"id":118786,"name":"Hunt County","latitude":33.1236,"longitude":-96.08545},{"id":118791,"name":"Hunters Creek Village","latitude":29.77051,"longitude":-95.4955},{"id":118798,"name":"Huntington","latitude":31.27769,"longitude":-94.57659},{"id":118818,"name":"Huntsville","latitude":30.72353,"longitude":-95.55078},{"id":118829,"name":"Hurst","latitude":32.82346,"longitude":-97.17057},{"id":118834,"name":"Hutchins","latitude":32.6493,"longitude":-96.71305},{"id":118838,"name":"Hutchinson County","latitude":35.84003,"longitude":-101.3547},{"id":118840,"name":"Hutto","latitude":30.5427,"longitude":-97.54667},{"id":118873,"name":"Idalou","latitude":33.66647,"longitude":-101.68294},{"id":118907,"name":"Indian Hills","latitude":26.21285,"longitude":-97.91639},{"id":118932,"name":"Inez","latitude":28.90388,"longitude":-96.78804},{"id":118936,"name":"Ingleside","latitude":27.8778,"longitude":-97.21166},{"id":118940,"name":"Ingram","latitude":30.07743,"longitude":-99.24032},{"id":118977,"name":"Iowa Colony","latitude":29.48246,"longitude":-95.4155},{"id":118981,"name":"Iowa Park","latitude":33.95148,"longitude":-98.66867},{"id":118984,"name":"Iraan","latitude":30.91405,"longitude":-101.89791},{"id":118986,"name":"Irion County","latitude":31.30392,"longitude":-100.98242},{"id":119005,"name":"Irving","latitude":32.81402,"longitude":-96.94889},{"id":119038,"name":"Italy","latitude":32.18404,"longitude":-96.88472},{"id":119039,"name":"Itasca","latitude":32.15959,"longitude":-97.15001},{"id":119055,"name":"Jacinto City","latitude":29.76745,"longitude":-95.23382},{"id":119056,"name":"Jack County","latitude":33.23346,"longitude":-98.17246},{"id":119059,"name":"Jacksboro","latitude":33.21845,"longitude":-98.15866},{"id":119088,"name":"Jackson County","latitude":28.95424,"longitude":-96.57768},{"id":119104,"name":"Jacksonville","latitude":31.96378,"longitude":-95.2705},{"id":119113,"name":"Jamaica Beach","latitude":29.18968,"longitude":-94.97965},{"id":119134,"name":"Jarrell","latitude":30.82491,"longitude":-97.60445},{"id":119144,"name":"Jasper","latitude":30.9202,"longitude":-93.99658},{"id":119150,"name":"Jasper County","latitude":30.74396,"longitude":-94.02509},{"id":119156,"name":"Jayton","latitude":33.24815,"longitude":-100.57373},{"id":119161,"name":"Jeff Davis County","latitude":30.71548,"longitude":-104.14002},{"id":119166,"name":"Jefferson","latitude":32.75736,"longitude":-94.34519},{"id":119187,"name":"Jefferson County","latitude":29.85373,"longitude":-94.15344},{"id":119234,"name":"Jersey Village","latitude":29.88772,"longitude":-95.563},{"id":119244,"name":"Jewett","latitude":31.36157,"longitude":-96.14413},{"id":119246,"name":"Jim Hogg County","latitude":27.0434,"longitude":-98.69731},{"id":119248,"name":"Jim Wells County","latitude":27.7313,"longitude":-98.08994},{"id":119258,"name":"Johnson City","latitude":30.27687,"longitude":-98.41197},{"id":119268,"name":"Johnson County","latitude":32.37901,"longitude":-97.36633},{"id":119290,"name":"Jollyville","latitude":30.4427,"longitude":-97.77501},{"id":119295,"name":"Jones County","latitude":32.7399,"longitude":-99.87874},{"id":119298,"name":"Jones Creek","latitude":28.96858,"longitude":-95.45522},{"id":119307,"name":"Jonestown","latitude":30.49547,"longitude":-97.92335},{"id":119320,"name":"Josephine","latitude":33.06123,"longitude":-96.3072},{"id":119322,"name":"Joshua","latitude":32.46153,"longitude":-97.38807},{"id":119324,"name":"Jourdanton","latitude":28.91803,"longitude":-98.54641},{"id":119331,"name":"Junction","latitude":30.48936,"longitude":-99.77201},{"id":119346,"name":"Justin","latitude":33.08484,"longitude":-97.29613},{"id":119389,"name":"Karnes City","latitude":28.88498,"longitude":-97.90084},{"id":119390,"name":"Karnes County","latitude":28.90574,"longitude":-97.8594},{"id":119395,"name":"Katy","latitude":29.78579,"longitude":-95.8244},{"id":119397,"name":"Kaufman","latitude":32.58902,"longitude":-96.30887},{"id":119398,"name":"Kaufman County","latitude":32.5993,"longitude":-96.2878},{"id":119420,"name":"Keene","latitude":32.39681,"longitude":-97.3239},{"id":119428,"name":"Keller","latitude":32.93457,"longitude":-97.25168},{"id":119433,"name":"Kemah","latitude":29.54273,"longitude":-95.02048},{"id":119435,"name":"Kemp","latitude":32.44264,"longitude":-96.22998},{"id":119438,"name":"Kempner","latitude":31.08101,"longitude":-98.00252},{"id":119446,"name":"Kendall County","latitude":29.94469,"longitude":-98.71156},{"id":119453,"name":"Kenedy","latitude":28.81915,"longitude":-97.84861},{"id":119454,"name":"Kenedy County","latitude":26.92802,"longitude":-97.63646},{"id":119468,"name":"Kennedale","latitude":32.6468,"longitude":-97.22585},{"id":119494,"name":"Kent County","latitude":33.18142,"longitude":-100.77757},{"id":119510,"name":"Kerens","latitude":32.13321,"longitude":-96.22775},{"id":119513,"name":"Kermit","latitude":31.85763,"longitude":-103.09267},{"id":119517,"name":"Kerr County","latitude":30.06148,"longitude":-99.35016},{"id":119518,"name":"Kerrville","latitude":30.04743,"longitude":-99.14032},{"id":119556,"name":"Kilgore","latitude":32.38626,"longitude":-94.87577},{"id":119559,"name":"Killeen","latitude":31.11712,"longitude":-97.7278},{"id":119572,"name":"Kimble County","latitude":30.48678,"longitude":-99.7487},{"id":119581,"name":"King County","latitude":33.61648,"longitude":-100.25585},{"id":119616,"name":"Kingsland","latitude":30.65824,"longitude":-98.44058},{"id":119636,"name":"Kingsville","latitude":27.51587,"longitude":-97.85611},{"id":119638,"name":"Kingwood Area","latitude":30.03355,"longitude":-95.26104},{"id":119640,"name":"Kinney County","latitude":29.35021,"longitude":-100.41795},{"id":119649,"name":"Kirby","latitude":29.46329,"longitude":-98.38557},{"id":119650,"name":"Kirbyville","latitude":30.66048,"longitude":-93.89268},{"id":119672,"name":"Kleberg County","latitude":27.42671,"longitude":-97.66839},{"id":119684,"name":"Knox City","latitude":33.41815,"longitude":-99.81898},{"id":119688,"name":"Knox County","latitude":33.60613,"longitude":-99.74143},{"id":119713,"name":"Kountze","latitude":30.3716,"longitude":-94.31241},{"id":119719,"name":"Krugerville","latitude":33.28151,"longitude":-96.99056},{"id":119720,"name":"Krum","latitude":33.26151,"longitude":-97.23807},{"id":119729,"name":"Kyle","latitude":29.98911,"longitude":-97.87723},{"id":119735,"name":"La Blanca","latitude":26.29285,"longitude":-98.03778},{"id":119740,"name":"La Coste","latitude":29.31079,"longitude":-98.81003},{"id":119747,"name":"La Feria","latitude":26.15896,"longitude":-97.82389},{"id":119751,"name":"La Grange","latitude":29.9055,"longitude":-96.87665},{"id":119754,"name":"La Grulla","latitude":26.26951,"longitude":-98.64725},{"id":119758,"name":"La Homa","latitude":26.25007,"longitude":-98.36363},{"id":119761,"name":"La Joya","latitude":26.24702,"longitude":-98.48141},{"id":119764,"name":"La Marque","latitude":29.36857,"longitude":-94.97131},{"id":119770,"name":"La Paloma","latitude":26.04591,"longitude":-97.66749},{"id":119776,"name":"La Porte","latitude":29.66578,"longitude":-95.01937},{"id":119780,"name":"La Pryor","latitude":28.94108,"longitude":-99.84978},{"id":119787,"name":"La Salle County","latitude":28.34507,"longitude":-99.09966},{"id":119794,"name":"La Vernia","latitude":29.35635,"longitude":-98.11556},{"id":119795,"name":"La Villa","latitude":26.29868,"longitude":-97.92861},{"id":119815,"name":"Lackland Air Force Base","latitude":29.38663,"longitude":-98.61797},{"id":119821,"name":"Lacy-Lakeview","latitude":31.62933,"longitude":-97.10278},{"id":119847,"name":"Lago Vista","latitude":30.4602,"longitude":-97.98835},{"id":119853,"name":"Laguna Heights","latitude":26.08008,"longitude":-97.25386},{"id":119856,"name":"Laguna Park","latitude":31.85932,"longitude":-97.37974},{"id":119857,"name":"Laguna Vista","latitude":26.10091,"longitude":-97.29025},{"id":119872,"name":"Lake Brownwood","latitude":31.8357,"longitude":-99.00783},{"id":119902,"name":"Lake Dallas","latitude":33.11929,"longitude":-97.02556},{"id":119904,"name":"Lake Dunlap","latitude":29.67578,"longitude":-98.07223},{"id":119924,"name":"Lake Jackson","latitude":29.03386,"longitude":-95.43439},{"id":119927,"name":"Lake Kiowa","latitude":33.57705,"longitude":-97.01306},{"id":119998,"name":"Lake Worth","latitude":32.80485,"longitude":-97.44502},{"id":120010,"name":"Lakehills","latitude":29.60467,"longitude":-98.94309},{"id":120030,"name":"Lakeside","latitude":32.82235,"longitude":-97.49335},{"id":120044,"name":"Lakeway","latitude":30.36377,"longitude":-97.97959},{"id":120064,"name":"Lamar County","latitude":33.66726,"longitude":-95.5712},{"id":120066,"name":"Lamb County","latitude":34.06862,"longitude":-102.35171},{"id":120071,"name":"Lamesa","latitude":32.7376,"longitude":-101.95099},{"id":120075,"name":"Lampasas","latitude":31.06378,"longitude":-98.1817},{"id":120076,"name":"Lampasas County","latitude":31.19619,"longitude":-98.24145},{"id":120082,"name":"Lancaster","latitude":32.59208,"longitude":-96.75611},{"id":120130,"name":"Lantana","latitude":33.09073,"longitude":-97.12416},{"id":120142,"name":"Laredo","latitude":27.50641,"longitude":-99.50754},{"id":120157,"name":"Las Lomas","latitude":26.36479,"longitude":-98.7753},{"id":120160,"name":"Las Palmas II","latitude":26.20171,"longitude":-97.7376},{"id":120161,"name":"Las Quintas Fronterizas","latitude":28.69053,"longitude":-100.46869},{"id":120162,"name":"Las Quintas Fronterizas Colonia","latitude":28.69137,"longitude":-100.46924},{"id":120165,"name":"Lasara","latitude":26.46479,"longitude":-97.91111},{"id":120186,"name":"Laughlin Air Force Base","latitude":29.35663,"longitude":-100.78353},{"id":120203,"name":"Laureles","latitude":26.10924,"longitude":-97.49415},{"id":120214,"name":"Lavaca County","latitude":29.38435,"longitude":-96.93015},{"id":120219,"name":"Lavon","latitude":33.02762,"longitude":-96.43415},{"id":120274,"name":"League City","latitude":29.50745,"longitude":-95.09493},{"id":120277,"name":"Leakey","latitude":29.72884,"longitude":-99.76145},{"id":120279,"name":"Leander","latitude":30.57881,"longitude":-97.85307},{"id":120314,"name":"Lee County","latitude":30.31068,"longitude":-96.9657},{"id":120385,"name":"Leon County","latitude":31.29651,"longitude":-95.99569},{"id":120386,"name":"Leon Valley","latitude":29.49523,"longitude":-98.61863},{"id":120388,"name":"Leonard","latitude":33.37955,"longitude":-96.24748},{"id":120405,"name":"Levelland","latitude":33.58732,"longitude":-102.37796},{"id":120436,"name":"Lewisville","latitude":33.04623,"longitude":-96.99417},{"id":120446,"name":"Lexington","latitude":30.4191,"longitude":-97.01165},{"id":120465,"name":"Liberty","latitude":30.05799,"longitude":-94.79548},{"id":120469,"name":"Liberty City","latitude":32.44543,"longitude":-94.94855},{"id":120472,"name":"Liberty County","latitude":30.15161,"longitude":-94.81221},{"id":120474,"name":"Liberty Hill","latitude":30.66491,"longitude":-97.92252},{"id":120495,"name":"Limestone County","latitude":31.54546,"longitude":-96.58053},{"id":120559,"name":"Lindale","latitude":32.5157,"longitude":-95.4094},{"id":120562,"name":"Linden","latitude":33.01235,"longitude":-94.36547},{"id":120573,"name":"Lindsay","latitude":33.63594,"longitude":-97.22279},{"id":120596,"name":"Lipscomb County","latitude":36.27771,"longitude":-100.27312},{"id":120616,"name":"Little Elm","latitude":33.16262,"longitude":-96.93751},{"id":120625,"name":"Little River-Academy","latitude":30.98629,"longitude":-97.35861},{"id":120632,"name":"Littlefield","latitude":33.91731,"longitude":-102.3249},{"id":120639,"name":"Live Oak","latitude":29.56523,"longitude":-98.3364},{"id":120641,"name":"Live Oak County","latitude":28.35137,"longitude":-98.12479},{"id":120650,"name":"Livingston","latitude":30.71103,"longitude":-94.93299},{"id":120664,"name":"Llano","latitude":30.75935,"longitude":-98.67504},{"id":120665,"name":"Llano County","latitude":30.70574,"longitude":-98.6841},{"id":120666,"name":"Llano Grande","latitude":26.1298,"longitude":-97.96806},{"id":120677,"name":"Lockhart","latitude":29.88494,"longitude":-97.67},{"id":120678,"name":"Lockney","latitude":34.12452,"longitude":-101.44155},{"id":120730,"name":"Lone Star","latitude":32.94402,"longitude":-94.70715},{"id":120757,"name":"Longview","latitude":32.5007,"longitude":-94.74049},{"id":120768,"name":"Lopezville","latitude":26.23813,"longitude":-98.15973},{"id":120771,"name":"Lorena","latitude":31.38656,"longitude":-97.21556},{"id":120773,"name":"Lorenzo","latitude":33.67064,"longitude":-101.53516},{"id":120788,"name":"Los Fresnos","latitude":26.07174,"longitude":-97.47637},{"id":120790,"name":"Los Indios","latitude":26.04924,"longitude":-97.74499},{"id":120797,"name":"Lost Creek","latitude":30.29548,"longitude":-97.84445},{"id":120829,"name":"Loving County","latitude":31.84923,"longitude":-103.57996},{"id":120849,"name":"Lowry Crossing","latitude":33.15484,"longitude":-96.54721},{"id":120856,"name":"Lubbock","latitude":33.57786,"longitude":-101.85517},{"id":120857,"name":"Lubbock County","latitude":33.61021,"longitude":-101.82055},{"id":120860,"name":"Lucas","latitude":33.08429,"longitude":-96.57666},{"id":120872,"name":"Lufkin","latitude":31.33824,"longitude":-94.7291},{"id":120877,"name":"Luling","latitude":29.68051,"longitude":-97.6475},{"id":120881,"name":"Lumberton","latitude":30.26577,"longitude":-94.19963},{"id":120906,"name":"Lyford","latitude":26.41229,"longitude":-97.78972},{"id":120928,"name":"Lynn County","latitude":33.17682,"longitude":-101.81612},{"id":120946,"name":"Lytle","latitude":29.23329,"longitude":-98.79641},{"id":120948,"name":"Mabank","latitude":32.36653,"longitude":-96.10081},{"id":121012,"name":"Madison County","latitude":30.96554,"longitude":-95.92841},{"id":121027,"name":"Madisonville","latitude":30.94991,"longitude":-95.91162},{"id":121038,"name":"Magnolia","latitude":30.20938,"longitude":-95.75078},{"id":121058,"name":"Malakoff","latitude":32.1696,"longitude":-96.01247},{"id":121088,"name":"Manchaca","latitude":30.14077,"longitude":-97.83306},{"id":121138,"name":"Manor","latitude":30.34076,"longitude":-97.55695},{"id":121145,"name":"Mansfield","latitude":32.56319,"longitude":-97.14168},{"id":121161,"name":"Manvel","latitude":29.46274,"longitude":-95.35799},{"id":121187,"name":"Marble Falls","latitude":30.57841,"longitude":-98.27507},{"id":121204,"name":"Marfa","latitude":30.30973,"longitude":-104.02134},{"id":121239,"name":"Marion","latitude":29.57134,"longitude":-98.14029},{"id":121259,"name":"Marion County","latitude":32.79798,"longitude":-94.35722},{"id":121269,"name":"Markham","latitude":28.96026,"longitude":-96.06524},{"id":121283,"name":"Marlin","latitude":31.30629,"longitude":-96.89804},{"id":121305,"name":"Marshall","latitude":32.54487,"longitude":-94.36742},{"id":121332,"name":"Mart","latitude":31.54239,"longitude":-96.8336},{"id":121342,"name":"Martin County","latitude":32.30603,"longitude":-101.95122},{"id":121343,"name":"Martindale","latitude":29.8455,"longitude":-97.84084},{"id":121372,"name":"Mason","latitude":30.74879,"longitude":-99.23061},{"id":121378,"name":"Mason County","latitude":30.71772,"longitude":-99.22613},{"id":121396,"name":"Matador","latitude":34.01202,"longitude":-100.82208},{"id":121397,"name":"Matagorda County","latitude":28.78565,"longitude":-96.00398},{"id":121405,"name":"Mathis","latitude":28.09446,"longitude":-97.82805},{"id":121417,"name":"Maud","latitude":33.3329,"longitude":-94.3427},{"id":121424,"name":"Mauriceville","latitude":30.20354,"longitude":-93.86628},{"id":121428,"name":"Maverick County","latitude":28.74259,"longitude":-100.31451},{"id":121463,"name":"McAllen","latitude":26.20341,"longitude":-98.23001},{"id":121466,"name":"McCamey","latitude":31.13598,"longitude":-102.2243},{"id":121488,"name":"McCulloch County","latitude":31.19887,"longitude":-99.34748},{"id":121506,"name":"McGregor","latitude":31.44406,"longitude":-97.40918},{"id":121525,"name":"McKinney","latitude":33.19762,"longitude":-96.61527},{"id":121533,"name":"McLendon-Chisholm","latitude":32.84235,"longitude":-96.38054},{"id":121534,"name":"McLennan County","latitude":31.55238,"longitude":-97.20179},{"id":121542,"name":"McMullen County","latitude":28.35269,"longitude":-98.56784},{"id":121549,"name":"McQueeney","latitude":29.59217,"longitude":-98.03334},{"id":121569,"name":"Meadowlakes","latitude":30.56245,"longitude":-98.29867},{"id":121571,"name":"Meadows Place","latitude":29.65134,"longitude":-95.588},{"id":121603,"name":"Medina","latitude":29.79661,"longitude":-99.24643},{"id":121607,"name":"Medina County","latitude":29.3557,"longitude":-99.11013},{"id":121624,"name":"Melissa","latitude":33.28595,"longitude":-96.57277},{"id":121642,"name":"Memphis","latitude":34.72478,"longitude":-100.53401},{"id":121646,"name":"Menard","latitude":30.91767,"longitude":-99.78646},{"id":121647,"name":"Menard County","latitude":30.88978,"longitude":-99.82064},{"id":121668,"name":"Mentone","latitude":31.70513,"longitude":-103.59935},{"id":121673,"name":"Mercedes","latitude":26.1498,"longitude":-97.91361},{"id":121692,"name":"Meridian","latitude":31.92321,"longitude":-97.65669},{"id":121700,"name":"Merkel","latitude":32.47068,"longitude":-100.01287},{"id":121719,"name":"Mertzon","latitude":31.26183,"longitude":-100.81733},{"id":121726,"name":"Mesquite","latitude":32.7668,"longitude":-96.59916},{"id":121740,"name":"Mexia","latitude":31.67989,"longitude":-96.4822},{"id":121749,"name":"Miami","latitude":35.69143,"longitude":-100.63819},{"id":121800,"name":"Midland","latitude":31.99735,"longitude":-102.07791},{"id":121805,"name":"Midland County","latitude":31.86917,"longitude":-102.03162},{"id":121807,"name":"Midlothian","latitude":32.48236,"longitude":-96.99445},{"id":121822,"name":"Midway North","latitude":26.18776,"longitude":-98.01708},{"id":121823,"name":"Midway South","latitude":26.15694,"longitude":-98.02011},{"id":121831,"name":"Mila Doce","latitude":26.22618,"longitude":-97.95889},{"id":121833,"name":"Milam","latitude":31.4324,"longitude":-93.84574},{"id":121834,"name":"Milam County","latitude":30.78634,"longitude":-96.97685},{"id":121897,"name":"Mills County","latitude":31.49519,"longitude":-98.59546},{"id":121931,"name":"Mineola","latitude":32.66319,"longitude":-95.48829},{"id":121941,"name":"Mineral Wells","latitude":32.80846,"longitude":-98.11282},{"id":121980,"name":"Mission","latitude":26.21591,"longitude":-98.32529},{"id":121983,"name":"Mission Bend","latitude":29.69384,"longitude":-95.66495},{"id":121993,"name":"Missouri City","latitude":29.61857,"longitude":-95.53772},{"id":122003,"name":"Mitchell County","latitude":32.30621,"longitude":-100.92123},{"id":122033,"name":"Monahans","latitude":31.5943,"longitude":-102.89265},{"id":122093,"name":"Mont Belvieu","latitude":29.84772,"longitude":-94.89076},{"id":122095,"name":"Montague","latitude":33.66483,"longitude":-97.72059},{"id":122099,"name":"Montague County","latitude":33.67563,"longitude":-97.72465},{"id":122108,"name":"Monte Alto","latitude":26.37312,"longitude":-97.97167},{"id":122150,"name":"Montgomery County","latitude":30.30021,"longitude":-95.50301},{"id":122196,"name":"Moody","latitude":31.30823,"longitude":-97.3614},{"id":122203,"name":"Moore County","latitude":35.83769,"longitude":-101.89292},{"id":122249,"name":"Morgans Point Resort","latitude":31.14823,"longitude":-97.46334},{"id":122270,"name":"Morris County","latitude":33.11348,"longitude":-94.73265},{"id":122294,"name":"Morton","latitude":33.7251,"longitude":-102.75938},{"id":122311,"name":"Motley County","latitude":34.07409,"longitude":-100.77983},{"id":122377,"name":"Mount Pleasant","latitude":33.15679,"longitude":-94.96827},{"id":122399,"name":"Mount Vernon","latitude":33.18873,"longitude":-95.22133},{"id":122447,"name":"Muenster","latitude":33.65177,"longitude":-97.37641},{"id":122457,"name":"Muleshoe","latitude":34.22647,"longitude":-102.72383},{"id":122467,"name":"Munday","latitude":33.44926,"longitude":-99.62286},{"id":122475,"name":"Muniz","latitude":26.25646,"longitude":-98.08945},{"id":122483,"name":"Murillo Colonia","latitude":26.25646,"longitude":-98.11334},{"id":122486,"name":"Murphy","latitude":33.01512,"longitude":-96.61305},{"id":122532,"name":"Nacogdoches","latitude":31.60351,"longitude":-94.65549},{"id":122533,"name":"Nacogdoches County","latitude":31.61598,"longitude":-94.61587},{"id":122553,"name":"Naples","latitude":33.20318,"longitude":-94.68021},{"id":122567,"name":"Nash","latitude":33.44235,"longitude":-94.13075},{"id":122581,"name":"Nassau Bay","latitude":29.54468,"longitude":-95.09104},{"id":122586,"name":"Natalia","latitude":29.18968,"longitude":-98.86253},{"id":122601,"name":"Navarro County","latitude":32.04693,"longitude":-96.47249},{"id":122602,"name":"Navasota","latitude":30.38798,"longitude":-96.08773},{"id":122610,"name":"Nederland","latitude":29.97438,"longitude":-93.9924},{"id":122615,"name":"Needville","latitude":29.39941,"longitude":-95.83773},{"id":122649,"name":"Nevada","latitude":33.04234,"longitude":-96.37387},{"id":122668,"name":"New Boston","latitude":33.45984,"longitude":-94.41548},{"id":122670,"name":"New Braunfels","latitude":29.703,"longitude":-98.12445},{"id":122784,"name":"New Summerfield","latitude":31.98072,"longitude":-95.09383},{"id":122786,"name":"New Territory","latitude":29.59412,"longitude":-95.68078},{"id":122790,"name":"New Waverly","latitude":30.5377,"longitude":-95.48328},{"id":122801,"name":"Newark","latitude":33.00124,"longitude":-97.48447},{"id":122862,"name":"Newton","latitude":30.84853,"longitude":-93.7574},{"id":122872,"name":"Newton County","latitude":30.78631,"longitude":-93.74474},{"id":122913,"name":"Nixon","latitude":29.26746,"longitude":-97.76444},{"id":122923,"name":"Nocona","latitude":33.78677,"longitude":-97.72586},{"id":122931,"name":"Nolan County","latitude":32.30349,"longitude":-100.40605},{"id":122932,"name":"Nolanville","latitude":31.07879,"longitude":-97.60557},{"id":122959,"name":"North Alamo","latitude":26.2173,"longitude":-98.1289},{"id":123093,"name":"North Richland Hills","latitude":32.8343,"longitude":-97.2289},{"id":123143,"name":"Northcliff","latitude":29.62106,"longitude":-98.22473},{"id":123144,"name":"Northcrest","latitude":31.63655,"longitude":-97.09972},{"id":123157,"name":"Northlake","latitude":33.12734,"longitude":-97.26557},{"id":123215,"name":"Nueces County","latitude":27.73506,"longitude":-97.51632},{"id":123218,"name":"Nurillo","latitude":26.26702,"longitude":-98.1214},{"id":123231,"name":"Oak Cliff Place","latitude":29.92712,"longitude":-95.62672},{"id":123253,"name":"Oak Leaf","latitude":32.52042,"longitude":-96.85472},{"id":123259,"name":"Oak Point","latitude":33.19012,"longitude":-96.99167},{"id":123263,"name":"Oak Ridge North","latitude":30.16022,"longitude":-95.44438},{"id":123264,"name":"Oak Trail Shores","latitude":32.48875,"longitude":-97.8342},{"id":123345,"name":"Ochiltree County","latitude":36.27841,"longitude":-100.81565},{"id":123355,"name":"Odem","latitude":27.95057,"longitude":-97.58222},{"id":123360,"name":"Odessa","latitude":31.84568,"longitude":-102.36764},{"id":123426,"name":"Old River-Winfree","latitude":29.86828,"longitude":-94.8327},{"id":123433,"name":"Oldham County","latitude":35.40502,"longitude":-102.60287},{"id":123438,"name":"Olivarez","latitude":26.22841,"longitude":-97.99223},{"id":123452,"name":"Olmito","latitude":26.02174,"longitude":-97.53415},{"id":123453,"name":"Olmos Park","latitude":29.47884,"longitude":-98.48752},{"id":123457,"name":"Olney","latitude":33.37066,"longitude":-98.75284},{"id":123458,"name":"Olton","latitude":34.18341,"longitude":-102.13463},{"id":123467,"name":"Onalaska","latitude":30.80575,"longitude":-95.11633},{"id":123481,"name":"Onion Creek","latitude":30.1366,"longitude":-97.78417},{"id":123505,"name":"Orange","latitude":30.09299,"longitude":-93.73655},{"id":123517,"name":"Orange County","latitude":30.12131,"longitude":-93.8939},{"id":123523,"name":"Orange Grove","latitude":27.95668,"longitude":-97.93694},{"id":123544,"name":"Ore City","latitude":32.80014,"longitude":-94.72076},{"id":123653,"name":"Overton","latitude":32.2746,"longitude":-94.97855},{"id":123657,"name":"Ovilla","latitude":32.52653,"longitude":-96.88639},{"id":123695,"name":"Oyster Creek","latitude":29.00302,"longitude":-95.33188},{"id":123701,"name":"Ozona","latitude":30.71017,"longitude":-101.20067},{"id":123716,"name":"Paducah","latitude":34.0123,"longitude":-100.30206},{"id":123726,"name":"Paint Rock","latitude":31.50849,"longitude":-99.92008},{"id":123730,"name":"Palacios","latitude":28.70805,"longitude":-96.21747},{"id":123737,"name":"Palestine","latitude":31.76212,"longitude":-95.63079},{"id":123755,"name":"Palm Valley","latitude":26.20174,"longitude":-97.75416},{"id":123758,"name":"Palmer","latitude":32.43125,"longitude":-96.66777},{"id":123768,"name":"Palmhurst","latitude":26.25841,"longitude":-98.31807},{"id":123770,"name":"Palmview","latitude":26.23341,"longitude":-98.37085},{"id":123771,"name":"Palmview South","latitude":26.21563,"longitude":-98.37863},{"id":123784,"name":"Palo Pinto","latitude":32.76735,"longitude":-98.29866},{"id":123785,"name":"Palo Pinto County","latitude":32.75318,"longitude":-98.31302},{"id":123786,"name":"Paloma Creek","latitude":33.2253,"longitude":-96.93742},{"id":123787,"name":"Paloma Creek South","latitude":33.21136,"longitude":-96.93554},{"id":123794,"name":"Pampa","latitude":35.53616,"longitude":-100.95987},{"id":123801,"name":"Panhandle","latitude":35.3456,"longitude":-101.38044},{"id":123804,"name":"Panola County","latitude":32.16236,"longitude":-94.30565},{"id":123806,"name":"Panorama Village","latitude":30.38104,"longitude":-95.49355},{"id":123807,"name":"Pantego","latitude":32.7143,"longitude":-97.1564},{"id":123834,"name":"Paris","latitude":33.66094,"longitude":-95.55551},{"id":123860,"name":"Parker","latitude":33.0554,"longitude":-96.62194},{"id":123865,"name":"Parker County","latitude":32.77765,"longitude":-97.8051},{"id":123886,"name":"Parmer County","latitude":34.5301,"longitude":-102.78452},{"id":123896,"name":"Pasadena","latitude":29.69106,"longitude":-95.2091},{"id":123919,"name":"Patton Village","latitude":30.19299,"longitude":-95.16882},{"id":123970,"name":"Pearland","latitude":29.56357,"longitude":-95.28605},{"id":123972,"name":"Pearsall","latitude":28.89219,"longitude":-99.09503},{"id":123975,"name":"Pecan Acres","latitude":32.97013,"longitude":-97.47474},{"id":123976,"name":"Pecan Grove","latitude":29.62607,"longitude":-95.73162},{"id":123977,"name":"Pecan Plantation","latitude":32.36042,"longitude":-97.67558},{"id":123980,"name":"Pecos","latitude":31.42291,"longitude":-103.49323},{"id":123981,"name":"Pecos County","latitude":30.78106,"longitude":-102.72357},{"id":123995,"name":"Pelican Bay","latitude":32.92096,"longitude":-97.51836},{"id":124021,"name":"Penitas","latitude":26.23063,"longitude":-98.44474},{"id":124058,"name":"Perezville","latitude":26.22452,"longitude":-98.40057},{"id":124087,"name":"Perryton","latitude":36.40003,"longitude":-100.80265},{"id":124109,"name":"Petersburg","latitude":33.86952,"longitude":-101.59739},{"id":124117,"name":"Pflugerville","latitude":30.43937,"longitude":-97.62},{"id":124118,"name":"Pharr","latitude":26.1948,"longitude":-98.18362},{"id":124201,"name":"Pilot Point","latitude":33.3965,"longitude":-96.96056},{"id":124227,"name":"Pine Island","latitude":30.058,"longitude":-96.03746},{"id":124251,"name":"Pinehurst","latitude":30.17105,"longitude":-95.68245},{"id":124265,"name":"Pinewood Estates","latitude":30.16438,"longitude":-94.32158},{"id":124268,"name":"Piney Point Village","latitude":29.75995,"longitude":-95.51716},{"id":124293,"name":"Pittsburg","latitude":32.9954,"longitude":-94.96577},{"id":124324,"name":"Plains","latitude":33.18871,"longitude":-102.82799},{"id":124331,"name":"Plainview","latitude":34.18479,"longitude":-101.70684},{"id":124343,"name":"Plano","latitude":33.01984,"longitude":-96.69889},{"id":124363,"name":"Pleak","latitude":29.48913,"longitude":-95.80773},{"id":124383,"name":"Pleasanton","latitude":28.96719,"longitude":-98.47863},{"id":124394,"name":"Plum Grove","latitude":32.1957,"longitude":-96.98945},{"id":124446,"name":"Polk County","latitude":30.79272,"longitude":-94.83002},{"id":124467,"name":"Ponder","latitude":33.1829,"longitude":-97.28724},{"id":124495,"name":"Port Aransas","latitude":27.83392,"longitude":-97.0611},{"id":124496,"name":"Port Arthur","latitude":29.88519,"longitude":-93.94233},{"id":124512,"name":"Port Isabel","latitude":26.07341,"longitude":-97.20858},{"id":124517,"name":"Port Lavaca","latitude":28.615,"longitude":-96.62609},{"id":124521,"name":"Port Neches","latitude":29.99132,"longitude":-93.95851},{"id":124523,"name":"Port O'Connor","latitude":28.44834,"longitude":-96.40581},{"id":124554,"name":"Porter Heights","latitude":30.15188,"longitude":-95.32188},{"id":124557,"name":"Portland","latitude":27.87725,"longitude":-97.32388},{"id":124576,"name":"Post","latitude":33.19122,"longitude":-101.379},{"id":124580,"name":"Poteet","latitude":29.04052,"longitude":-98.56807},{"id":124581,"name":"Poth","latitude":29.06969,"longitude":-98.08195},{"id":124587,"name":"Potosi","latitude":32.3293,"longitude":-99.65647},{"id":124594,"name":"Potter County","latitude":35.40127,"longitude":-101.894},{"id":124597,"name":"Pottsboro","latitude":33.75927,"longitude":-96.66944},{"id":124609,"name":"Powderly","latitude":33.81122,"longitude":-95.5244},{"id":124631,"name":"Prairie View","latitude":30.09327,"longitude":-95.98773},{"id":124639,"name":"Premont","latitude":27.36059,"longitude":-98.12362},{"id":124647,"name":"Presidio","latitude":29.56074,"longitude":-104.37215},{"id":124648,"name":"Presidio County","latitude":29.9998,"longitude":-104.24052},{"id":124654,"name":"Preston","latitude":33.88232,"longitude":-96.63305},{"id":124670,"name":"Primera","latitude":26.22591,"longitude":-97.75805},{"id":124684,"name":"Princeton","latitude":33.18012,"longitude":-96.49804},{"id":124701,"name":"Progreso","latitude":26.0923,"longitude":-97.95722},{"id":124711,"name":"Prosper","latitude":33.23623,"longitude":-96.80111},{"id":124718,"name":"Providence","latitude":33.2334,"longitude":-96.96158},{"id":124775,"name":"Quail Creek","latitude":28.7764,"longitude":-97.08232},{"id":124779,"name":"Quanah","latitude":34.29785,"longitude":-99.74037},{"id":124787,"name":"Queen City","latitude":33.14874,"longitude":-94.15019},{"id":124802,"name":"Quinlan","latitude":32.9104,"longitude":-96.13553},{"id":124807,"name":"Quitman","latitude":32.79596,"longitude":-95.45106},{"id":124828,"name":"Rains County","latitude":32.87034,"longitude":-95.79338},{"id":124834,"name":"Ralls","latitude":33.67425,"longitude":-101.38766},{"id":124847,"name":"Rancho Alegre","latitude":27.74169,"longitude":-98.09473},{"id":124859,"name":"Rancho Viejo","latitude":26.03952,"longitude":-97.55638},{"id":124862,"name":"Randall County","latitude":34.96585,"longitude":-101.89695},{"id":124882,"name":"Ranger","latitude":32.46985,"longitude":-98.67895},{"id":124884,"name":"Rankin","latitude":31.22265,"longitude":-101.93791},{"id":124887,"name":"Ransom Canyon","latitude":33.53342,"longitude":-101.67961},{"id":124921,"name":"Raymondville","latitude":26.48146,"longitude":-97.78305},{"id":124932,"name":"Reagan County","latitude":31.36619,"longitude":-101.52301},{"id":124933,"name":"Real County","latitude":29.83174,"longitude":-99.82217},{"id":124952,"name":"Red Lick","latitude":33.46485,"longitude":-94.17103},{"id":124956,"name":"Red Oak","latitude":32.51764,"longitude":-96.80444},{"id":124959,"name":"Red River County","latitude":33.62068,"longitude":-95.05036},{"id":124975,"name":"Redland","latitude":31.40435,"longitude":-94.72132},{"id":124982,"name":"Redwater","latitude":33.35818,"longitude":-94.25436},{"id":124984,"name":"Redwood","latitude":29.81022,"longitude":-97.91139},{"id":124998,"name":"Reeves County","latitude":31.32318,"longitude":-103.69317},{"id":125000,"name":"Refugio","latitude":28.30528,"longitude":-97.27527},{"id":125001,"name":"Refugio County","latitude":28.32158,"longitude":-97.15952},{"id":125017,"name":"Rendon","latitude":32.57625,"longitude":-97.2414},{"id":125019,"name":"Reno","latitude":33.66316,"longitude":-95.46245},{"id":125048,"name":"Rhome","latitude":33.05346,"longitude":-97.47197},{"id":125051,"name":"Ricardo","latitude":27.42143,"longitude":-97.85111},{"id":125058,"name":"Richardson","latitude":32.94818,"longitude":-96.72972},{"id":125079,"name":"Richland Hills","latitude":32.81596,"longitude":-97.22807},{"id":125087,"name":"Richmond","latitude":29.58218,"longitude":-95.76078},{"id":125111,"name":"Richwood","latitude":29.05608,"longitude":-95.40994},{"id":125135,"name":"Riesel","latitude":31.47489,"longitude":-96.92333},{"id":125149,"name":"Rio Bravo","latitude":27.36419,"longitude":-99.48004},{"id":125154,"name":"Rio Grande City","latitude":26.37979,"longitude":-98.8203},{"id":125156,"name":"Rio Hondo","latitude":26.23535,"longitude":-97.58193},{"id":125183,"name":"River Oaks","latitude":32.77707,"longitude":-97.39446},{"id":125227,"name":"Roanoke","latitude":33.00401,"longitude":-97.22585},{"id":125240,"name":"Robert Lee","latitude":31.89237,"longitude":-100.48482},{"id":125243,"name":"Roberts County","latitude":35.83849,"longitude":-100.81344},{"id":125247,"name":"Robertson County","latitude":31.02704,"longitude":-96.51279},{"id":125254,"name":"Robinson","latitude":31.46767,"longitude":-97.11472},{"id":125256,"name":"Robstown","latitude":27.7903,"longitude":-97.66888},{"id":125257,"name":"Roby","latitude":32.74483,"longitude":-100.37761},{"id":125295,"name":"Rockdale","latitude":30.65548,"longitude":-97.00137},{"id":125316,"name":"Rockport","latitude":28.02077,"longitude":-97.05601},{"id":125319,"name":"Rocksprings","latitude":30.01576,"longitude":-100.20536},{"id":125326,"name":"Rockwall","latitude":32.93123,"longitude":-96.45971},{"id":125327,"name":"Rockwall County","latitude":32.89773,"longitude":-96.40777},{"id":125349,"name":"Rogers","latitude":30.93157,"longitude":-97.22666},{"id":125369,"name":"Rollingwood","latitude":30.27687,"longitude":-97.79112},{"id":125372,"name":"Roma","latitude":26.40526,"longitude":-99.01581},{"id":125373,"name":"Roma-Los Saenz","latitude":26.40506,"longitude":-99.01586},{"id":125374,"name":"Roman Forest","latitude":30.1791,"longitude":-95.16243},{"id":125400,"name":"Roscoe","latitude":32.44595,"longitude":-100.53872},{"id":125411,"name":"Rosebud","latitude":31.07296,"longitude":-96.9786},{"id":125433,"name":"Rosenberg","latitude":29.55718,"longitude":-95.80856},{"id":125443,"name":"Rosharon","latitude":29.35218,"longitude":-95.46022},{"id":125445,"name":"Rosita North","latitude":28.65644,"longitude":-100.42218},{"id":125446,"name":"Rosita South","latitude":28.62375,"longitude":-100.42837},{"id":125464,"name":"Rotan","latitude":32.85205,"longitude":-100.46566},{"id":125473,"name":"Round Rock","latitude":30.50826,"longitude":-97.6789},{"id":125481,"name":"Rowlett","latitude":32.9029,"longitude":-96.56388},{"id":125499,"name":"Royse City","latitude":32.97512,"longitude":-96.33248},{"id":125510,"name":"Runaway Bay","latitude":33.16789,"longitude":-97.87837},{"id":125511,"name":"Runge","latitude":28.88331,"longitude":-97.71305},{"id":125512,"name":"Runnels County","latitude":31.8311,"longitude":-99.97623},{"id":125528,"name":"Rusk","latitude":31.79601,"longitude":-95.15022},{"id":125529,"name":"Rusk County","latitude":32.10772,"longitude":-94.76188},{"id":125568,"name":"Sabinal","latitude":29.31746,"longitude":-99.46644},{"id":125569,"name":"Sabine County","latitude":31.3432,"longitude":-93.8518},{"id":125574,"name":"Sachse","latitude":32.97623,"longitude":-96.59527},{"id":125587,"name":"Saginaw","latitude":32.86013,"longitude":-97.36391},{"id":125645,"name":"Saint Hedwig","latitude":29.4144,"longitude":-98.20001},{"id":125659,"name":"Saint Jo","latitude":33.69483,"longitude":-97.52252},{"id":125702,"name":"Saint Paul","latitude":33.04123,"longitude":-96.55027},{"id":125722,"name":"Salado","latitude":30.94713,"longitude":-97.53862},{"id":125777,"name":"Sam Rayburn","latitude":31.06408,"longitude":-94.03575},{"id":125784,"name":"San Angelo","latitude":31.46377,"longitude":-100.43704},{"id":125787,"name":"San Antonio","latitude":29.42412,"longitude":-98.49363},{"id":125789,"name":"San Augustine","latitude":31.5299,"longitude":-94.10603},{"id":125790,"name":"San Augustine County","latitude":31.39422,"longitude":-94.16819},{"id":125791,"name":"San Benito","latitude":26.13258,"longitude":-97.6311},{"id":125796,"name":"San Carlos","latitude":26.29563,"longitude":-98.07195},{"id":125801,"name":"San Diego","latitude":27.76391,"longitude":-98.2389},{"id":125806,"name":"San Elizario","latitude":31.58511,"longitude":-106.27276},{"id":125812,"name":"San Jacinto County","latitude":30.57953,"longitude":-95.1669},{"id":125817,"name":"San Juan","latitude":26.18924,"longitude":-98.15529},{"id":125825,"name":"San Leon","latitude":29.48329,"longitude":-94.92215},{"id":125832,"name":"San Marcos","latitude":29.88327,"longitude":-97.94139},{"id":125844,"name":"San Patricio County","latitude":28.00878,"longitude":-97.51827},{"id":125848,"name":"San Saba","latitude":31.19572,"longitude":-98.7181},{"id":125849,"name":"San Saba County","latitude":31.1552,"longitude":-98.81758},{"id":125864,"name":"Sanderson","latitude":30.14241,"longitude":-102.39403},{"id":125891,"name":"Sanger","latitude":33.36317,"longitude":-97.1739},{"id":125898,"name":"Sansom Park","latitude":32.80596,"longitude":-97.40307},{"id":125900,"name":"Santa Anna","latitude":31.74209,"longitude":-99.32173},{"id":125913,"name":"Santa Fe","latitude":29.37801,"longitude":-95.10576},{"id":125921,"name":"Santa Rosa","latitude":26.25674,"longitude":-97.825},{"id":125951,"name":"Sarita","latitude":27.22171,"longitude":-97.78916},{"id":125977,"name":"Savannah","latitude":33.22603,"longitude":-96.90786},{"id":126000,"name":"Scenic Oaks","latitude":29.71078,"longitude":-98.67586},{"id":126006,"name":"Schertz","latitude":29.55217,"longitude":-98.26973},{"id":126008,"name":"Schleicher County","latitude":30.89745,"longitude":-100.53855},{"id":126020,"name":"Schulenburg","latitude":29.6819,"longitude":-96.90304},{"id":126029,"name":"Scissors","latitude":26.1398,"longitude":-98.05389},{"id":126069,"name":"Scurry County","latitude":32.74632,"longitude":-100.91641},{"id":126079,"name":"Seabrook","latitude":29.56412,"longitude":-95.02548},{"id":126084,"name":"Seadrift","latitude":28.41528,"longitude":-96.71359},{"id":126088,"name":"Seagoville","latitude":32.63958,"longitude":-96.53832},{"id":126089,"name":"Seagraves","latitude":32.94427,"longitude":-102.56491},{"id":126091,"name":"Sealy","latitude":29.78079,"longitude":-96.15718},{"id":126106,"name":"Sebastian","latitude":26.34285,"longitude":-97.79027},{"id":126128,"name":"Seguin","latitude":29.56884,"longitude":-97.96473},{"id":126140,"name":"Selma","latitude":29.58439,"longitude":-98.30585},{"id":126146,"name":"Seminole","latitude":32.71899,"longitude":-102.64491},{"id":126166,"name":"Serenada","latitude":30.69936,"longitude":-97.69195},{"id":126170,"name":"Seth Ward","latitude":34.21174,"longitude":-101.69017},{"id":126175,"name":"Seven Points","latitude":32.32042,"longitude":-96.21303},{"id":126195,"name":"Seymour","latitude":33.59426,"longitude":-99.26035},{"id":126199,"name":"Shackelford County","latitude":32.73597,"longitude":-99.35407},{"id":126205,"name":"Shady Hollow","latitude":30.16493,"longitude":-97.86223},{"id":126206,"name":"Shady Shores","latitude":33.16512,"longitude":-97.02945},{"id":126213,"name":"Shallowater","latitude":33.68897,"longitude":-101.99823},{"id":126216,"name":"Shamrock","latitude":35.21422,"longitude":-100.24901},{"id":126242,"name":"Shavano Park","latitude":29.58495,"longitude":-98.55252},{"id":126278,"name":"Shelby County","latitude":31.79241,"longitude":-94.14502},{"id":126285,"name":"Sheldon","latitude":29.868,"longitude":-95.12826},{"id":126301,"name":"Shenandoah","latitude":30.18022,"longitude":-95.45577},{"id":126309,"name":"Shepherd","latitude":30.49798,"longitude":-94.9966},{"id":126330,"name":"Sherman","latitude":33.63566,"longitude":-96.60888},{"id":126334,"name":"Sherman County","latitude":36.27771,"longitude":-101.89348},{"id":126344,"name":"Sherwood Shores","latitude":33.85232,"longitude":-96.81778},{"id":126350,"name":"Shiner","latitude":29.42913,"longitude":-97.17054},{"id":126367,"name":"Shoreacres","latitude":29.62023,"longitude":-95.00993},{"id":126400,"name":"Sienna Plantation","latitude":29.48607,"longitude":-95.508},{"id":126401,"name":"Sierra Blanca","latitude":31.17457,"longitude":-105.35718},{"id":126408,"name":"Siesta Acres","latitude":28.75799,"longitude":-100.49019},{"id":126410,"name":"Siesta Shores","latitude":26.8581,"longitude":-99.25365},{"id":126418,"name":"Silsbee","latitude":30.3491,"longitude":-94.17796},{"id":126443,"name":"Silverton","latitude":34.47423,"longitude":-101.30461},{"id":126456,"name":"Sinton","latitude":28.03668,"longitude":-97.50916},{"id":126493,"name":"Slaton","latitude":33.43731,"longitude":-101.64349},{"id":126515,"name":"Smith County","latitude":32.37504,"longitude":-95.26918},{"id":126529,"name":"Smithville","latitude":30.00855,"longitude":-97.15943},{"id":126550,"name":"Snyder","latitude":32.71789,"longitude":-100.91762},{"id":126558,"name":"Socorro","latitude":31.65456,"longitude":-106.30331},{"id":126560,"name":"Socorro Mission Number 1 Colonia","latitude":31.63622,"longitude":-106.29054},{"id":126581,"name":"Somerset","latitude":29.22635,"longitude":-98.6578},{"id":126592,"name":"Somervell County","latitude":32.22229,"longitude":-97.77434},{"id":126594,"name":"Somerville","latitude":30.34604,"longitude":-96.5283},{"id":126601,"name":"Sonora","latitude":30.56685,"longitude":-100.64343},{"id":126610,"name":"Sour Lake","latitude":30.14021,"longitude":-94.41102},{"id":126611,"name":"South Alamo","latitude":26.15702,"longitude":-98.10862},{"id":126676,"name":"South Houston","latitude":29.66301,"longitude":-95.23549},{"id":126700,"name":"South Padre Island","latitude":26.10369,"longitude":-97.16469},{"id":126712,"name":"South Point","latitude":25.86869,"longitude":-97.38359},{"id":126777,"name":"Southlake","latitude":32.94124,"longitude":-97.13418},{"id":126778,"name":"Southmayd","latitude":33.63038,"longitude":-96.76916},{"id":126788,"name":"Southside Place","latitude":29.70606,"longitude":-95.43688},{"id":126804,"name":"Sparks","latitude":31.67261,"longitude":-106.2397},{"id":126817,"name":"Spearman","latitude":36.19837,"longitude":-101.19238},{"id":126841,"name":"Splendora","latitude":30.23299,"longitude":-95.16104},{"id":126849,"name":"Spring","latitude":30.07994,"longitude":-95.41716},{"id":126874,"name":"Spring Valley","latitude":29.78967,"longitude":-95.50355},{"id":126911,"name":"Springtown","latitude":32.96596,"longitude":-97.68364},{"id":126921,"name":"Spur","latitude":33.47648,"longitude":-100.85569},{"id":126932,"name":"Stafford","latitude":29.61607,"longitude":-95.55772},{"id":126943,"name":"Stamford","latitude":32.94539,"longitude":-99.80287},{"id":126971,"name":"Stanton","latitude":32.12929,"longitude":-101.78846},{"id":126990,"name":"Starr County","latitude":26.56215,"longitude":-98.7384},{"id":127023,"name":"Stephens County","latitude":32.73586,"longitude":-98.83617},{"id":127025,"name":"Stephenville","latitude":32.2207,"longitude":-98.20226},{"id":127032,"name":"Sterling City","latitude":31.83625,"longitude":-100.98483},{"id":127033,"name":"Sterling County","latitude":31.82788,"longitude":-101.05001},{"id":127065,"name":"Stinnett","latitude":35.82698,"longitude":-101.44294},{"id":127070,"name":"Stockdale","latitude":29.23691,"longitude":-97.96},{"id":127093,"name":"Stonewall County","latitude":33.17912,"longitude":-100.25331},{"id":127115,"name":"Stowell","latitude":29.78994,"longitude":-94.38324},{"id":127128,"name":"Stratford","latitude":36.33614,"longitude":-102.07212},{"id":127173,"name":"Sugar Land","latitude":29.61968,"longitude":-95.63495},{"id":127185,"name":"Sullivan City","latitude":26.27757,"longitude":-98.56363},{"id":127197,"name":"Sulphur Springs","latitude":33.13845,"longitude":-95.60107},{"id":127250,"name":"Sundown","latitude":33.45621,"longitude":-102.48936},{"id":127264,"name":"Sunnyvale","latitude":32.79652,"longitude":-96.56082},{"id":127266,"name":"Sunray","latitude":36.0167,"longitude":-101.82462},{"id":127315,"name":"Sutton County","latitude":30.49829,"longitude":-100.53819},{"id":127335,"name":"Sweeny","latitude":29.03886,"longitude":-95.69856},{"id":127342,"name":"Sweetwater","latitude":32.47095,"longitude":-100.40594},{"id":127347,"name":"Swisher County","latitude":34.53039,"longitude":-101.73503},{"id":127372,"name":"Taft","latitude":27.97891,"longitude":-97.3986},{"id":127376,"name":"Taft Southwest (historical)","latitude":27.97391,"longitude":-97.40305},{"id":127379,"name":"Tahoka","latitude":33.16676,"longitude":-101.79377},{"id":127399,"name":"Talty","latitude":32.68319,"longitude":-96.38554},{"id":127435,"name":"Tarrant County","latitude":32.77156,"longitude":-97.29124},{"id":127440,"name":"Tatum","latitude":32.31599,"longitude":-94.51659},{"id":127446,"name":"Taylor","latitude":30.57076,"longitude":-97.40944},{"id":127454,"name":"Taylor County","latitude":32.30147,"longitude":-99.89012},{"id":127459,"name":"Taylor Lake Village","latitude":29.57523,"longitude":-95.05021},{"id":127474,"name":"Teague","latitude":31.62711,"longitude":-96.28386},{"id":127498,"name":"Temple","latitude":31.09823,"longitude":-97.34278},{"id":127508,"name":"Tenaha","latitude":31.94378,"longitude":-94.24409},{"id":127526,"name":"Terrell","latitude":32.73596,"longitude":-96.27526},{"id":127528,"name":"Terrell County","latitude":30.22496,"longitude":-102.07649},{"id":127529,"name":"Terrell Hills","latitude":29.47495,"longitude":-98.45085},{"id":127532,"name":"Terry County","latitude":33.17381,"longitude":-102.3352},{"id":127545,"name":"Texarkana","latitude":33.42513,"longitude":-94.04769},{"id":127546,"name":"Texas City","latitude":29.38385,"longitude":-94.9027},{"id":127555,"name":"The Colony","latitude":33.08901,"longitude":-96.88639},{"id":127561,"name":"The Hills","latitude":30.34798,"longitude":-97.98501},{"id":127566,"name":"The Woodlands","latitude":30.15799,"longitude":-95.48938},{"id":127600,"name":"Thorndale","latitude":30.61381,"longitude":-97.20555},{"id":127617,"name":"Three Rivers","latitude":28.46027,"longitude":-98.18251},{"id":127623,"name":"Throckmorton","latitude":33.17872,"longitude":-99.17758},{"id":127624,"name":"Throckmorton County","latitude":33.17749,"longitude":-99.21237},{"id":127646,"name":"Tiki Island","latitude":29.29709,"longitude":-94.91709},{"id":127647,"name":"Tilden","latitude":28.46194,"longitude":-98.54918},{"id":127661,"name":"Timberwood Park","latitude":29.70578,"longitude":-98.47835},{"id":127664,"name":"Timpson","latitude":31.90378,"longitude":-94.3952},{"id":127684,"name":"Titus County","latitude":33.2166,"longitude":-94.96567},{"id":127706,"name":"Tom Bean","latitude":33.52011,"longitude":-96.48387},{"id":127707,"name":"Tom Green County","latitude":31.4044,"longitude":-100.46207},{"id":127710,"name":"Tomball","latitude":30.09716,"longitude":-95.61605},{"id":127727,"name":"Tool","latitude":32.26792,"longitude":-96.17025},{"id":127740,"name":"Tornillo","latitude":31.4454,"longitude":-106.08831},{"id":127787,"name":"Travis County","latitude":30.33469,"longitude":-97.78195},{"id":127788,"name":"Travis Ranch","latitude":32.80356,"longitude":-96.47347},{"id":127827,"name":"Trinity","latitude":30.94519,"longitude":-95.3755},{"id":127828,"name":"Trinity County","latitude":31.08882,"longitude":-95.13551},{"id":127834,"name":"Trophy Club","latitude":32.9979,"longitude":-97.18362},{"id":127835,"name":"Troup","latitude":32.1446,"longitude":-95.1205},{"id":127846,"name":"Troy","latitude":31.20684,"longitude":-97.30278},{"id":127885,"name":"Tulia","latitude":34.53589,"longitude":-101.75852},{"id":127938,"name":"Tye","latitude":32.45762,"longitude":-99.87148},{"id":127940,"name":"Tyler","latitude":32.35126,"longitude":-95.30106},{"id":127942,"name":"Tyler County","latitude":30.77123,"longitude":-94.37659},{"id":127954,"name":"Uhland","latitude":29.95772,"longitude":-97.78611},{"id":128022,"name":"Universal City","latitude":29.54801,"longitude":-98.29112},{"id":128033,"name":"University Park","latitude":32.85013,"longitude":-96.80028},{"id":128052,"name":"Upshur County","latitude":32.73628,"longitude":-94.94148},{"id":128057,"name":"Upton County","latitude":31.36873,"longitude":-102.04304},{"id":128068,"name":"Uvalde","latitude":29.20968,"longitude":-99.78617},{"id":128069,"name":"Uvalde County","latitude":29.35734,"longitude":-99.76221},{"id":128070,"name":"Uvalde Estates","latitude":29.16524,"longitude":-99.83228},{"id":128079,"name":"Val Verde County","latitude":29.89296,"longitude":-101.15172},{"id":128080,"name":"Val Verde Park","latitude":29.37495,"longitude":-100.83176},{"id":128113,"name":"Valley Mills","latitude":31.65933,"longitude":-97.47224},{"id":128124,"name":"Van","latitude":32.52486,"longitude":-95.63718},{"id":128125,"name":"Van Alstyne","latitude":33.4215,"longitude":-96.57721},{"id":128133,"name":"Van Horn","latitude":31.04029,"longitude":-104.83073},{"id":128138,"name":"Van Vleck","latitude":29.01775,"longitude":-95.8894},{"id":128139,"name":"Van Zandt County","latitude":32.56372,"longitude":-95.83651},{"id":128162,"name":"Vega","latitude":35.24283,"longitude":-102.42826},{"id":128177,"name":"Venus","latitude":32.43347,"longitude":-97.10251},{"id":128189,"name":"Vernon","latitude":34.15536,"longitude":-99.26628},{"id":128220,"name":"Victoria","latitude":28.80527,"longitude":-97.0036},{"id":128223,"name":"Victoria County","latitude":28.79635,"longitude":-96.97153},{"id":128229,"name":"Vidor","latitude":30.1316,"longitude":-94.01545},{"id":128282,"name":"Vinton","latitude":31.95121,"longitude":-106.60249},{"id":128304,"name":"Von Ormy","latitude":29.28913,"longitude":-98.64446},{"id":128316,"name":"Waco","latitude":31.54933,"longitude":-97.14667},{"id":128358,"name":"Wake Village","latitude":33.42679,"longitude":-94.1063},{"id":128388,"name":"Walker County","latitude":30.73905,"longitude":-95.57228},{"id":128403,"name":"Waller","latitude":30.05661,"longitude":-95.9269},{"id":128405,"name":"Waller County","latitude":30.01081,"longitude":-95.98765},{"id":128409,"name":"Wallis","latitude":29.63135,"longitude":-96.06524},{"id":128458,"name":"Ward County","latitude":31.50947,"longitude":-103.10243},{"id":128566,"name":"Washington County","latitude":30.21453,"longitude":-96.40344},{"id":128594,"name":"Waskom","latitude":32.47876,"longitude":-94.05963},{"id":128595,"name":"Watauga","latitude":32.85791,"longitude":-97.25474},{"id":128674,"name":"Waxahachie","latitude":32.38653,"longitude":-96.84833},{"id":128718,"name":"Weatherford","latitude":32.7593,"longitude":-97.79725},{"id":128726,"name":"Webb County","latitude":27.76106,"longitude":-99.33157},{"id":128730,"name":"Webster","latitude":29.53773,"longitude":-95.11826},{"id":128758,"name":"Weimar","latitude":29.70301,"longitude":-96.78053},{"id":128780,"name":"Wellington","latitude":34.85617,"longitude":-100.21373},{"id":128785,"name":"Wells Branch","latitude":30.44604,"longitude":-97.67945},{"id":128808,"name":"Weslaco","latitude":26.15952,"longitude":-97.99084},{"id":128815,"name":"West","latitude":31.80238,"longitude":-97.09167},{"id":128849,"name":"West Columbia","latitude":29.14386,"longitude":-95.64522},{"id":128909,"name":"West Lake Hills","latitude":30.29798,"longitude":-97.80195},{"id":128921,"name":"West Livingston","latitude":30.69825,"longitude":-95.00188},{"id":128944,"name":"West Odessa","latitude":31.84235,"longitude":-102.49876},{"id":128945,"name":"West Orange","latitude":30.08215,"longitude":-93.75822},{"id":128980,"name":"West Sharyland","latitude":26.27257,"longitude":-98.32863},{"id":128988,"name":"West Tawakoni","latitude":32.89373,"longitude":-96.02941},{"id":128995,"name":"West University Place","latitude":29.71801,"longitude":-95.43383},{"id":129024,"name":"Western Lake","latitude":32.62338,"longitude":-97.81155},{"id":129039,"name":"Westlake","latitude":32.99124,"longitude":-97.19501},{"id":129065,"name":"Weston Lakes","latitude":29.68324,"longitude":-95.93571},{"id":129080,"name":"Westway","latitude":31.95871,"longitude":-106.57805},{"id":129089,"name":"Westworth","latitude":32.75735,"longitude":-97.41085},{"id":129102,"name":"Wharton","latitude":29.31164,"longitude":-96.10274},{"id":129104,"name":"Wharton County","latitude":29.27786,"longitude":-96.2221},{"id":129115,"name":"Wheeler","latitude":35.44533,"longitude":-100.27096},{"id":129118,"name":"Wheeler County","latitude":35.40128,"longitude":-100.26965},{"id":129149,"name":"White Oak","latitude":32.52792,"longitude":-94.86133},{"id":129161,"name":"White Settlement","latitude":32.75957,"longitude":-97.45835},{"id":129174,"name":"Whitehouse","latitude":32.22682,"longitude":-95.2255},{"id":129182,"name":"Whitesboro","latitude":33.65622,"longitude":-96.90695},{"id":129192,"name":"Whitewright","latitude":33.51289,"longitude":-96.39248},{"id":129208,"name":"Whitney","latitude":31.95182,"longitude":-97.3214},{"id":129216,"name":"Wichita County","latitude":33.98798,"longitude":-98.70361},{"id":129218,"name":"Wichita Falls","latitude":33.91371,"longitude":-98.49339},{"id":129224,"name":"Wilbarger County","latitude":34.08072,"longitude":-99.24108},{"id":129230,"name":"Wild Peach Village","latitude":29.08358,"longitude":-95.63384},{"id":129240,"name":"Wildwood","latitude":30.52409,"longitude":-94.44158},{"id":129255,"name":"Willacy County","latitude":26.47701,"longitude":-97.59182},{"id":129278,"name":"Williamson County","latitude":30.64804,"longitude":-97.60076},{"id":129295,"name":"Willis","latitude":30.42493,"longitude":-95.47994},{"id":129308,"name":"Willow Park","latitude":32.76263,"longitude":-97.65058},{"id":129317,"name":"Wills Point","latitude":32.7093,"longitude":-96.0083},{"id":129318,"name":"Wilmer","latitude":32.58902,"longitude":-96.68527},{"id":129337,"name":"Wilson County","latitude":29.17401,"longitude":-98.08657},{"id":129349,"name":"Wimberley","latitude":29.99744,"longitude":-98.09862},{"id":129367,"name":"Windcrest","latitude":29.51551,"longitude":-98.38029},{"id":129368,"name":"Windemere","latitude":30.45909,"longitude":-97.64917},{"id":129401,"name":"Wink","latitude":31.75124,"longitude":-103.15989},{"id":129402,"name":"Winkler County","latitude":31.85005,"longitude":-103.04817},{"id":129417,"name":"Winnie","latitude":29.82022,"longitude":-94.38408},{"id":129420,"name":"Winnsboro","latitude":32.95734,"longitude":-95.29022},{"id":129444,"name":"Winters","latitude":31.95653,"longitude":-99.96231},{"id":129460,"name":"Wise County","latitude":33.2159,"longitude":-97.65445},{"id":129476,"name":"Wolfe City","latitude":33.37067,"longitude":-96.06886},{"id":129479,"name":"Wolfforth","latitude":33.50592,"longitude":-102.00906},{"id":129484,"name":"Wood County","latitude":32.78641,"longitude":-95.38206},{"id":129498,"name":"Woodbranch","latitude":30.18105,"longitude":-95.18882},{"id":129515,"name":"Woodcreek","latitude":30.02827,"longitude":-98.11112},{"id":129553,"name":"Woodsboro","latitude":28.23834,"longitude":-97.31999},{"id":129572,"name":"Woodville","latitude":30.7752,"longitude":-94.41548},{"id":129578,"name":"Woodway","latitude":31.506,"longitude":-97.20501},{"id":129595,"name":"Wortham","latitude":31.78794,"longitude":-96.46248},{"id":129625,"name":"Wyldwood","latitude":30.12938,"longitude":-97.47277},{"id":129626,"name":"Wylie","latitude":33.01512,"longitude":-96.53888},{"id":129683,"name":"Yoakum","latitude":29.28775,"longitude":-97.15193},{"id":129684,"name":"Yoakum County","latitude":33.17297,"longitude":-102.8278},{"id":129706,"name":"Yorktown","latitude":28.98109,"longitude":-97.50277},{"id":129714,"name":"Young County","latitude":33.1767,"longitude":-98.68777},{"id":129739,"name":"Zapata","latitude":26.90726,"longitude":-99.27143},{"id":129740,"name":"Zapata County","latitude":27.00078,"longitude":-99.16861},{"id":129741,"name":"Zavala County","latitude":28.86621,"longitude":-99.7606}]