[{"id":39245,"name":"Abreschviller","latitude":48.63698,"longitude":7.09607},{"id":39249,"name":"Achenheim","latitude":48.5807,"longitude":7.62803},{"id":39269,"name":"Aiglemont","latitude":49.78031,"longitude":4.76483},{"id":39293,"name":"Aix-en-Othe","latitude":48.22391,"longitude":3.73425},{"id":39312,"name":"Algolsheim","latitude":48.00629,"longitude":7.55945},{"id":39313,"name":"Algrange","latitude":49.36276,"longitude":6.05094},{"id":39336,"name":"Alsting","latitude":49.18175,"longitude":6.99255},{"id":39338,"name":"Altkirch","latitude":47.62417,"longitude":7.23954},{"id":39339,"name":"Altorf","latitude":48.52166,"longitude":7.52787},{"id":39346,"name":"Amanvillers","latitude":49.16784,"longitude":6.04367},{"id":39366,"name":"Ammerschwihr","latitude":48.12548,"longitude":7.28282},{"id":39367,"name":"Amnéville","latitude":49.25671,"longitude":6.13414},{"id":39372,"name":"Ancerville","latitude":48.63574,"longitude":5.02091},{"id":39374,"name":"Ancy-sur-Moselle","latitude":49.05689,"longitude":6.05775},{"id":39384,"name":"Andlau","latitude":48.38607,"longitude":7.41697},{"id":39385,"name":"Andolsheim","latitude":48.06179,"longitude":7.41637},{"id":39400,"name":"Angevillers","latitude":49.38815,"longitude":6.0443},{"id":39426,"name":"Anould","latitude":48.18526,"longitude":6.94597},{"id":39461,"name":"Arches","latitude":48.11856,"longitude":6.52806},{"id":39462,"name":"Archettes","latitude":48.1232,"longitude":6.53723},{"id":39464,"name":"Arcis-sur-Aube","latitude":48.53387,"longitude":4.14085},{"id":39466,"name":"Ardennes","latitude":49.63202,"longitude":4.65369},{"id":39473,"name":"Argancy","latitude":49.19543,"longitude":6.20157},{"id":39515,"name":"Ars-sur-Moselle","latitude":49.07791,"longitude":6.0742},{"id":39517,"name":"Art-sur-Meurthe","latitude":48.6575,"longitude":6.26708},{"id":39545,"name":"Aspach","latitude":47.64234,"longitude":7.23353},{"id":39546,"name":"Aspach-le-Bas","latitude":47.76135,"longitude":7.15104},{"id":39547,"name":"Aspach-le-Haut","latitude":47.77653,"longitude":7.13145},{"id":39564,"name":"Attigny","latitude":49.47846,"longitude":4.57803},{"id":39587,"name":"Auboué","latitude":49.21198,"longitude":5.97663},{"id":39600,"name":"Audun-le-Roman","latitude":49.36977,"longitude":5.89545},{"id":39601,"name":"Audun-le-Tiche","latitude":49.47217,"longitude":5.9555},{"id":39605,"name":"Augny","latitude":49.0611,"longitude":6.1182},{"id":39616,"name":"Aumetz","latitude":49.41787,"longitude":5.94418},{"id":39674,"name":"Avize","latitude":48.97352,"longitude":4.01438},{"id":39683,"name":"Ay","latitude":49.05457,"longitude":4.00343},{"id":39684,"name":"Ay-sur-Moselle","latitude":49.24326,"longitude":6.20627},{"id":39686,"name":"Aydoilles","latitude":48.21026,"longitude":6.57389},{"id":39699,"name":"Baccarat","latitude":48.44984,"longitude":6.73946},{"id":39704,"name":"Badonviller","latitude":48.50116,"longitude":6.89218},{"id":39735,"name":"Bains-les-Bains","latitude":48.00113,"longitude":6.26492},{"id":39737,"name":"Bainville-sur-Madon","latitude":48.58725,"longitude":6.0958},{"id":39743,"name":"Balan","latitude":49.68881,"longitude":4.96478},{"id":39749,"name":"Baldersheim","latitude":47.80136,"longitude":7.38078},{"id":39758,"name":"Ban-de-Laveline","latitude":48.24498,"longitude":7.06593},{"id":39761,"name":"Bantzenheim","latitude":47.82452,"longitude":7.51445},{"id":39765,"name":"Bar-le-Duc","latitude":48.77275,"longitude":5.16108},{"id":39766,"name":"Bar-sur-Aube","latitude":48.23315,"longitude":4.7064},{"id":39767,"name":"Bar-sur-Seine","latitude":48.11295,"longitude":4.37656},{"id":39790,"name":"Barr","latitude":48.40755,"longitude":7.44873},{"id":39794,"name":"Bartenheim","latitude":47.63364,"longitude":7.47951},{"id":39795,"name":"Bas-Rhin","latitude":48.65693,"longitude":7.56346},{"id":39799,"name":"Basse-Ham","latitude":49.38626,"longitude":6.2418},{"id":39805,"name":"Batilly","latitude":49.17372,"longitude":5.96869},{"id":39806,"name":"Battenheim","latitude":47.81999,"longitude":7.3817},{"id":39821,"name":"Bayard-sur-Marne","latitude":48.5541,"longitude":5.0768},{"id":39823,"name":"Bayon","latitude":48.47425,"longitude":6.31631},{"id":39826,"name":"Bazancourt","latitude":49.36562,"longitude":4.17051},{"id":39828,"name":"Bazeilles","latitude":49.6765,"longitude":4.97752},{"id":39899,"name":"Behren-lès-Forbach","latitude":49.16949,"longitude":6.93933},{"id":39923,"name":"Belleville","latitude":48.81817,"longitude":6.10294},{"id":39925,"name":"Belleville-sur-Meuse","latitude":49.17863,"longitude":5.3719},{"id":39939,"name":"Benfeld","latitude":48.37062,"longitude":7.5937},{"id":40424,"name":"Béning-lès-Saint-Avold","latitude":49.13504,"longitude":6.83902},{"id":39941,"name":"Bennwihr","latitude":48.14456,"longitude":7.32445},{"id":39946,"name":"Bergheim","latitude":48.2054,"longitude":7.36299},{"id":39947,"name":"Bergholtz","latitude":47.9167,"longitude":7.24651},{"id":39950,"name":"Bernardswiller","latitude":48.45035,"longitude":7.46238},{"id":39963,"name":"Berrwiller","latitude":47.84984,"longitude":7.21922},{"id":39965,"name":"Berstett","latitude":48.679,"longitude":7.65721},{"id":39969,"name":"Bertrange","latitude":49.31368,"longitude":6.19208},{"id":40431,"name":"Bétheny","latitude":49.28498,"longitude":4.05495},{"id":39985,"name":"Betschdorf","latitude":48.89825,"longitude":7.90196},{"id":39986,"name":"Bettancourt-la-Ferrée","latitude":48.64898,"longitude":4.96971},{"id":40001,"name":"Bezannes","latitude":49.22339,"longitude":3.98892},{"id":40011,"name":"Bienville","latitude":48.57582,"longitude":5.04579},{"id":40013,"name":"Biesheim","latitude":48.04118,"longitude":7.54474},{"id":40014,"name":"Biesles","latitude":48.08597,"longitude":5.29409},{"id":40027,"name":"Bining","latitude":49.03729,"longitude":7.25273},{"id":40031,"name":"Bischheim","latitude":48.61612,"longitude":7.75343},{"id":40032,"name":"Bischoffsheim","latitude":48.48703,"longitude":7.48967},{"id":40033,"name":"Bischwiller","latitude":48.76826,"longitude":7.85406},{"id":40034,"name":"Bitche","latitude":49.05232,"longitude":7.42992},{"id":40035,"name":"Bitschwiller-lès-Thann","latitude":47.82969,"longitude":7.07911},{"id":40043,"name":"Blaesheim","latitude":48.50648,"longitude":7.60923},{"id":40045,"name":"Blagny","latitude":49.62167,"longitude":5.19194},{"id":40073,"name":"Blénod-lès-Pont-à-Mousson","latitude":48.88487,"longitude":6.04844},{"id":40074,"name":"Blénod-lès-Toul","latitude":48.59882,"longitude":5.83685},{"id":40066,"name":"Bliesbruck","latitude":49.11543,"longitude":7.18112},{"id":40068,"name":"Blodelsheim","latitude":47.88538,"longitude":7.53635},{"id":40071,"name":"Blotzheim","latitude":47.6026,"longitude":7.49654},{"id":40439,"name":"Bœrsch","latitude":48.47656,"longitude":7.43998},{"id":40104,"name":"Bollwiller","latitude":47.85832,"longitude":7.26179},{"id":40106,"name":"Bologne","latitude":48.20005,"longitude":5.14209},{"id":40133,"name":"Boofzheim","latitude":48.33186,"longitude":7.68071},{"id":40158,"name":"Bouilly","latitude":48.19674,"longitude":4.00011},{"id":40162,"name":"Boulange","latitude":49.38229,"longitude":5.95},{"id":40163,"name":"Boulay-Moselle","latitude":49.18333,"longitude":6.5},{"id":40169,"name":"Bouligny","latitude":49.29189,"longitude":5.74248},{"id":40176,"name":"Boult-sur-Suippe","latitude":49.37149,"longitude":4.14632},{"id":40180,"name":"Bourbonne-les-Bains","latitude":47.95305,"longitude":5.74801},{"id":40203,"name":"Bourgogne","latitude":49.34962,"longitude":4.07111},{"id":40218,"name":"Bousse","latitude":49.27786,"longitude":6.19672},{"id":40231,"name":"Bouxières-aux-Chênes","latitude":48.77215,"longitude":6.26152},{"id":40232,"name":"Bouxières-aux-Dames","latitude":48.75441,"longitude":6.16294},{"id":40233,"name":"Bouxwiller","latitude":48.82495,"longitude":7.48117},{"id":40236,"name":"Bouzonville","latitude":49.29188,"longitude":6.53386},{"id":40298,"name":"Breuschwickersheim","latitude":48.58007,"longitude":7.60159},{"id":40362,"name":"Bréviandes","latitude":48.25693,"longitude":4.09531},{"id":40308,"name":"Brienne-le-Château","latitude":48.39319,"longitude":4.52637},{"id":40311,"name":"Briey","latitude":49.2492,"longitude":5.93975},{"id":40345,"name":"Brumath","latitude":48.73398,"longitude":7.71095},{"id":40347,"name":"Brunstatt","latitude":47.72131,"longitude":7.32009},{"id":40348,"name":"Bruyères","latitude":48.20709,"longitude":6.71845},{"id":40371,"name":"Buchères","latitude":48.23508,"longitude":4.1131},{"id":40377,"name":"Buhl","latitude":47.92806,"longitude":7.18719},{"id":40380,"name":"Bulgnéville","latitude":48.20694,"longitude":5.8343},{"id":40389,"name":"Burnhaupt-le-Bas","latitude":47.71764,"longitude":7.16148},{"id":40390,"name":"Burnhaupt-le-Haut","latitude":47.73162,"longitude":7.14437},{"id":40396,"name":"Bussang","latitude":47.88449,"longitude":6.85272},{"id":40545,"name":"Carignan","latitude":49.63159,"longitude":5.16796},{"id":40548,"name":"Carling","latitude":49.16635,"longitude":6.71563},{"id":40565,"name":"Carspach","latitude":47.61608,"longitude":7.21018},{"id":40599,"name":"Cattenom","latitude":49.40627,"longitude":6.24297},{"id":40650,"name":"Cernay","latitude":47.8097,"longitude":7.17699},{"id":40652,"name":"Cernay-lès-Reims","latitude":49.26375,"longitude":4.10216},{"id":40687,"name":"Chalampé","latitude":47.82019,"longitude":7.54113},{"id":40690,"name":"Chaligny","latitude":48.62422,"longitude":6.08262},{"id":40691,"name":"Chalindrey","latitude":47.80308,"longitude":5.42797},{"id":40933,"name":"Châlons-en-Champagne","latitude":48.95393,"longitude":4.36724},{"id":40704,"name":"Chamarandes-Choignes","latitude":48.08333,"longitude":5.15},{"id":40734,"name":"Champenoux","latitude":48.74257,"longitude":6.3483},{"id":40740,"name":"Champigneulles","latitude":48.73404,"longitude":6.16181},{"id":40759,"name":"Chancenay","latitude":48.67001,"longitude":4.98715},{"id":40768,"name":"Chanteheux","latitude":48.59722,"longitude":6.52783},{"id":40777,"name":"Chantraine","latitude":48.17157,"longitude":6.43538},{"id":40780,"name":"Chaource","latitude":48.05915,"longitude":4.13738},{"id":40802,"name":"Charleville-Mézières","latitude":49.7685,"longitude":4.72487},{"id":40806,"name":"Charmes","latitude":48.3722,"longitude":6.29117},{"id":40942,"name":"Château-Porcien","latitude":49.5274,"longitude":4.24533},{"id":40945,"name":"Château-Salins","latitude":48.81885,"longitude":6.51455},{"id":40979,"name":"Châteauvillain","latitude":48.03655,"longitude":4.91823},{"id":40982,"name":"Châtel-Saint-Germain","latitude":49.12255,"longitude":6.08006},{"id":40983,"name":"Châtel-sur-Moselle","latitude":48.3143,"longitude":6.39403},{"id":40988,"name":"Châtenois","latitude":48.27201,"longitude":7.40109},{"id":41003,"name":"Châtillon-sur-Marne","latitude":49.10048,"longitude":3.76023},{"id":40843,"name":"Chaumont","latitude":48.11121,"longitude":5.14134},{"id":40860,"name":"Chavelot","latitude":48.23459,"longitude":6.43809},{"id":40862,"name":"Chavigny","latitude":48.62899,"longitude":6.12317},{"id":40873,"name":"Cheniménil","latitude":48.1388,"longitude":6.60346},{"id":40897,"name":"Chevillon","latitude":48.52869,"longitude":5.13086},{"id":41026,"name":"Cirey-sur-Vezouze","latitude":48.58093,"longitude":6.94573},{"id":41050,"name":"Clermont-en-Argonne","latitude":49.10711,"longitude":5.07002},{"id":41060,"name":"Clouange","latitude":49.2624,"longitude":6.09723},{"id":41077,"name":"Cocheren","latitude":49.14384,"longitude":6.85649},{"id":41096,"name":"Colmar","latitude":48.08078,"longitude":7.35584},{"id":41101,"name":"Colombey-les-Belles","latitude":48.5292,"longitude":5.89451},{"id":41121,"name":"Commercy","latitude":48.76128,"longitude":5.59067},{"id":41123,"name":"Compertrix","latitude":48.94179,"longitude":4.34631},{"id":41143,"name":"Conflans-en-Jarnisy","latitude":49.16725,"longitude":5.85515},{"id":41149,"name":"Connantre","latitude":48.72657,"longitude":3.92403},{"id":41157,"name":"Contrexéville","latitude":48.18424,"longitude":5.89572},{"id":41171,"name":"Corcieux","latitude":48.17236,"longitude":6.88148},{"id":41184,"name":"Cormicy","latitude":49.37071,"longitude":3.89595},{"id":41185,"name":"Cormontreuil","latitude":49.21667,"longitude":4.05},{"id":41195,"name":"Cornimont","latitude":47.95998,"longitude":6.83038},{"id":41196,"name":"Corny-sur-Moselle","latitude":49.03557,"longitude":6.06084},{"id":41209,"name":"Cosnes","latitude":49.51964,"longitude":5.7121},{"id":41242,"name":"Courcelles-Chaussy","latitude":49.1094,"longitude":6.40153},{"id":41250,"name":"Courcy","latitude":49.32361,"longitude":4.00257},{"id":41270,"name":"Courtisols","latitude":48.9867,"longitude":4.517},{"id":41345,"name":"Créhange","latitude":49.05897,"longitude":6.58178},{"id":41305,"name":"Creney-près-Troyes","latitude":48.33333,"longitude":4.13333},{"id":41312,"name":"Creutzwald","latitude":49.20531,"longitude":6.69668},{"id":41338,"name":"Crusnes","latitude":49.43406,"longitude":5.91557},{"id":41382,"name":"Custines","latitude":48.79127,"longitude":6.14461},{"id":41401,"name":"Dabo","latitude":48.65373,"longitude":7.23611},{"id":41402,"name":"Dachstein","latitude":48.56127,"longitude":7.53233},{"id":41409,"name":"Dambach-la-Ville","latitude":48.32379,"longitude":7.42547},{"id":41410,"name":"Damelevières","latitude":48.5593,"longitude":6.38453},{"id":41411,"name":"Damery","latitude":49.07238,"longitude":3.88036},{"id":41428,"name":"Dannemarie","latitude":47.63034,"longitude":7.11903},{"id":41434,"name":"Darney","latitude":48.0866,"longitude":6.04917},{"id":41435,"name":"Darnieulles","latitude":48.1995,"longitude":6.34929},{"id":41439,"name":"Dauendorf","latitude":48.82987,"longitude":7.65532},{"id":41613,"name":"Département de l'Aube","latitude":48.25,"longitude":4.08333},{"id":41456,"name":"Dessenheim","latitude":47.97767,"longitude":7.48891},{"id":41458,"name":"Dettwiller","latitude":48.75415,"longitude":7.46633},{"id":41461,"name":"Deville","latitude":49.87893,"longitude":4.7061},{"id":41462,"name":"Deyvillers","latitude":48.20013,"longitude":6.51533},{"id":41465,"name":"Didenheim","latitude":47.71866,"longitude":7.30157},{"id":41467,"name":"Diebling","latitude":49.10966,"longitude":6.93974},{"id":41468,"name":"Diemeringen","latitude":48.94013,"longitude":7.18839},{"id":41470,"name":"Diesen","latitude":49.17818,"longitude":6.67798},{"id":41471,"name":"Dietwiller","latitude":47.69278,"longitude":7.403},{"id":41472,"name":"Dieue-sur-Meuse","latitude":49.072,"longitude":5.42248},{"id":41474,"name":"Dieulouard","latitude":48.84137,"longitude":6.06782},{"id":41475,"name":"Dieuze","latitude":48.81263,"longitude":6.7178},{"id":41484,"name":"Dingsheim","latitude":48.63053,"longitude":7.66932},{"id":41487,"name":"Dinsheim-sur-Bruche","latitude":48.54258,"longitude":7.42727},{"id":41493,"name":"Distroff","latitude":49.33295,"longitude":6.26662},{"id":41498,"name":"Dizy","latitude":49.06667,"longitude":3.96667},{"id":41500,"name":"Docelles","latitude":48.14475,"longitude":6.61289},{"id":41501,"name":"Dogneville","latitude":48.22251,"longitude":6.45944},{"id":41508,"name":"Dom-le-Mesnil","latitude":49.69012,"longitude":4.80363},{"id":41514,"name":"Dombasle-sur-Meurthe","latitude":48.61861,"longitude":6.35538},{"id":41517,"name":"Domgermain","latitude":48.64276,"longitude":5.82957},{"id":41518,"name":"Dommartin-lès-Remiremont","latitude":47.99902,"longitude":6.64048},{"id":41519,"name":"Dommartin-lès-Toul","latitude":48.66949,"longitude":5.91005},{"id":41529,"name":"Donchery","latitude":49.69584,"longitude":4.87417},{"id":41530,"name":"Doncourt-lès-Conflans","latitude":49.1425,"longitude":5.93368},{"id":41540,"name":"Dorlisheim","latitude":48.52485,"longitude":7.48624},{"id":41541,"name":"Dormans","latitude":49.07392,"longitude":3.63819},{"id":41544,"name":"Dossenheim-sur-Zinsel","latitude":48.8059,"longitude":7.40273},{"id":41552,"name":"Doulaincourt-Saucourt","latitude":48.31667,"longitude":5.2},{"id":41561,"name":"Douzy","latitude":49.6708,"longitude":5.04156},{"id":41579,"name":"Drulingen","latitude":48.86804,"longitude":7.18956},{"id":41581,"name":"Drusenheim","latitude":48.76207,"longitude":7.95326},{"id":41587,"name":"Dugny-sur-Meuse","latitude":49.10953,"longitude":5.3855},{"id":41593,"name":"Duppigheim","latitude":48.52866,"longitude":7.59421},{"id":41595,"name":"Durrenbach","latitude":48.89681,"longitude":7.76769},{"id":41599,"name":"Duttlenheim","latitude":48.52553,"longitude":7.56572},{"id":41654,"name":"Ebersheim","latitude":48.30438,"longitude":7.49903},{"id":41655,"name":"Eckbolsheim","latitude":48.58075,"longitude":7.68768},{"id":41656,"name":"Eckwersheim","latitude":48.68167,"longitude":7.69687},{"id":48052,"name":"Écrouves","latitude":48.67986,"longitude":5.84267},{"id":41660,"name":"Eguisheim","latitude":48.0428,"longitude":7.30617},{"id":41661,"name":"Einville-au-Jard","latitude":48.65569,"longitude":6.48447},{"id":48065,"name":"Éloyes","latitude":48.09793,"longitude":6.60653},{"id":41668,"name":"Enchenberg","latitude":49.01354,"longitude":7.33868},{"id":41671,"name":"Ennery","latitude":49.22619,"longitude":6.21778},{"id":41676,"name":"Ensisheim","latitude":47.86584,"longitude":7.35052},{"id":41680,"name":"Entrange","latitude":49.413,"longitude":6.10501},{"id":41683,"name":"Entzheim","latitude":48.53424,"longitude":7.63772},{"id":48073,"name":"Épernay","latitude":49.04,"longitude":3.95922},{"id":41686,"name":"Epfig","latitude":48.35933,"longitude":7.46427},{"id":48078,"name":"Épinal","latitude":48.18324,"longitude":6.45304},{"id":41697,"name":"Ernolsheim-Bruche","latitude":48.56531,"longitude":7.56503},{"id":41702,"name":"Erstein","latitude":48.42373,"longitude":7.66262},{"id":41703,"name":"Ervy-le-Châtel","latitude":48.04116,"longitude":3.90988},{"id":41709,"name":"Eschau","latitude":48.48897,"longitude":7.71644},{"id":41710,"name":"Eschbach","latitude":48.87465,"longitude":7.73609},{"id":41711,"name":"Eschentzwiller","latitude":47.7127,"longitude":7.39773},{"id":41726,"name":"Essey-lès-Nancy","latitude":48.705,"longitude":6.22691},{"id":41731,"name":"Esternay","latitude":48.73232,"longitude":3.56159},{"id":41734,"name":"Estissac","latitude":48.2692,"longitude":3.80515},{"id":48092,"name":"Étain","latitude":49.21259,"longitude":5.64022},{"id":48104,"name":"Étival-Clairefontaine","latitude":48.36519,"longitude":6.86118},{"id":41741,"name":"Etzling","latitude":49.17943,"longitude":6.95864},{"id":41743,"name":"Eulmont","latitude":48.75026,"longitude":6.22731},{"id":41745,"name":"Eurville-Bienville","latitude":48.58333,"longitude":5.03333},{"id":41746,"name":"Euville","latitude":48.7503,"longitude":5.62603},{"id":41763,"name":"Fagnières","latitude":48.96385,"longitude":4.31692},{"id":41764,"name":"Fains-Véel","latitude":48.78333,"longitude":5.13333},{"id":41766,"name":"Falck","latitude":49.22695,"longitude":6.63373},{"id":41770,"name":"Fameck","latitude":49.29895,"longitude":6.10915},{"id":41777,"name":"Farébersviller","latitude":49.11898,"longitude":6.86914},{"id":41776,"name":"Farschviller","latitude":49.09406,"longitude":6.89517},{"id":41778,"name":"Faulquemont","latitude":49.0491,"longitude":6.59732},{"id":41779,"name":"Faulx","latitude":48.79266,"longitude":6.19554},{"id":41790,"name":"Fayl-Billot","latitude":47.78199,"longitude":5.59917},{"id":41791,"name":"Fegersheim","latitude":48.49016,"longitude":7.68107},{"id":41795,"name":"Fellering","latitude":47.89659,"longitude":6.98552},{"id":41997,"name":"Fère-Champenoise","latitude":48.75431,"longitude":3.99069},{"id":41804,"name":"Ferrette","latitude":47.49436,"longitude":7.31372},{"id":41808,"name":"Fessenheim","latitude":47.91565,"longitude":7.53499},{"id":41825,"name":"Fismes","latitude":49.30773,"longitude":3.68607},{"id":41831,"name":"Flavigny-sur-Moselle","latitude":48.56567,"longitude":6.18878},{"id":41834,"name":"Flaxlanden","latitude":47.69547,"longitude":7.31484},{"id":41846,"name":"Fleury","latitude":49.04181,"longitude":6.19329},{"id":41865,"name":"Fléville-devant-Nancy","latitude":48.62495,"longitude":6.20325},{"id":41856,"name":"Flize","latitude":49.69875,"longitude":4.77171},{"id":41858,"name":"Floing","latitude":49.72216,"longitude":4.92947},{"id":41861,"name":"Florange","latitude":49.32373,"longitude":6.1212},{"id":41869,"name":"Folkling","latitude":49.14756,"longitude":6.89482},{"id":41871,"name":"Folschviller","latitude":49.07732,"longitude":6.68358},{"id":41906,"name":"Fontoy","latitude":49.35597,"longitude":5.9925},{"id":41908,"name":"Forbach","latitude":49.18848,"longitude":6.89255},{"id":41918,"name":"Fortschwihr","latitude":48.08825,"longitude":7.4505},{"id":41924,"name":"Foug","latitude":48.68385,"longitude":5.78735},{"id":41945,"name":"Fraize","latitude":48.1866,"longitude":6.99787},{"id":41986,"name":"Fréland","latitude":48.17215,"longitude":7.19167},{"id":41961,"name":"Fresse-sur-Moselle","latitude":47.87589,"longitude":6.78589},{"id":41964,"name":"Freyming-Merlebach","latitude":49.15,"longitude":6.78333},{"id":41965,"name":"Frignicourt","latitude":48.69966,"longitude":4.59153},{"id":41970,"name":"Fromelennes","latitude":50.12333,"longitude":4.85952},{"id":41971,"name":"Froncles","latitude":48.29756,"longitude":5.14586},{"id":41980,"name":"Frouard","latitude":48.75994,"longitude":6.13036},{"id":41991,"name":"Fumay","latitude":49.99132,"longitude":4.70771},{"id":41993,"name":"Furdenheim","latitude":48.61129,"longitude":7.561},{"id":42026,"name":"Gambsheim","latitude":48.69209,"longitude":7.88286},{"id":42028,"name":"Gandrange","latitude":49.27133,"longitude":6.12536},{"id":42058,"name":"Geispolsheim","latitude":48.51603,"longitude":7.64825},{"id":42299,"name":"Gérardmer","latitude":48.07346,"longitude":6.87787},{"id":42072,"name":"Gerbéviller","latitude":48.49618,"longitude":6.51075},{"id":42076,"name":"Gerstheim","latitude":48.38215,"longitude":7.70395},{"id":42078,"name":"Gespunsart","latitude":49.82143,"longitude":4.82926},{"id":42081,"name":"Geudertheim","latitude":48.72415,"longitude":7.75188},{"id":42100,"name":"Giraumont","latitude":49.17076,"longitude":5.91448},{"id":42107,"name":"Givet","latitude":50.13796,"longitude":4.82545},{"id":42302,"name":"Gœrsdorf","latitude":48.95,"longitude":7.76667},{"id":42117,"name":"Goetzenbruck","latitude":48.97778,"longitude":7.3796},{"id":42119,"name":"Golbey","latitude":48.19764,"longitude":6.43966},{"id":42126,"name":"Gondrecourt-le-Château","latitude":48.51366,"longitude":5.51058},{"id":42127,"name":"Gondreville","latitude":48.69373,"longitude":5.96467},{"id":42135,"name":"Gorcy","latitude":49.53487,"longitude":5.68487},{"id":42139,"name":"Gorze","latitude":49.05236,"longitude":6.00072},{"id":42183,"name":"Granges-sur-Vologne","latitude":48.14517,"longitude":6.79095},{"id":42199,"name":"Grendelbruch","latitude":48.49272,"longitude":7.32239},{"id":42201,"name":"Gresswiller","latitude":48.53542,"longitude":7.43251},{"id":42205,"name":"Gries","latitude":48.7537,"longitude":7.81403},{"id":42206,"name":"Griesheim-près-Molsheim","latitude":48.50296,"longitude":7.53027},{"id":42207,"name":"Griesheim-sur-Souffel","latitude":48.63591,"longitude":7.66923},{"id":42223,"name":"Gros-Réderching","latitude":49.06835,"longitude":7.21914},{"id":42224,"name":"Grosbliederstroff","latitude":49.15808,"longitude":7.02413},{"id":42239,"name":"Guebwiller","latitude":47.91667,"longitude":7.2},{"id":42279,"name":"Guémar","latitude":48.18869,"longitude":7.39706},{"id":42282,"name":"Guénange","latitude":49.29945,"longitude":6.20535},{"id":42249,"name":"Gueux","latitude":49.25048,"longitude":3.91024},{"id":42250,"name":"Guewenheim","latitude":47.75283,"longitude":7.09253},{"id":42273,"name":"Gumbrechtshoffen","latitude":48.9058,"longitude":7.62915},{"id":42274,"name":"Gundershoffen","latitude":48.90648,"longitude":7.66096},{"id":42305,"name":"Habsheim","latitude":47.72975,"longitude":7.41801},{"id":42306,"name":"Hadol","latitude":48.08983,"longitude":6.47662},{"id":42307,"name":"Hagenthal-le-Bas","latitude":47.52497,"longitude":7.47783},{"id":42309,"name":"Hagondange","latitude":49.24879,"longitude":6.16374},{"id":42310,"name":"Haguenau","latitude":48.81557,"longitude":7.79051},{"id":42318,"name":"Ham-sous-Varsberg","latitude":49.18014,"longitude":6.64702},{"id":42319,"name":"Hambach","latitude":49.05942,"longitude":7.0353},{"id":42323,"name":"Hangenbieten","latitude":48.55985,"longitude":7.61464},{"id":42329,"name":"Hargarten-aux-Mines","latitude":49.22436,"longitude":6.61459},{"id":42335,"name":"Hatten","latitude":48.90123,"longitude":7.97968},{"id":42337,"name":"Haucourt","latitude":49.48982,"longitude":5.80361},{"id":42340,"name":"Haut-Rhin","latitude":47.87603,"longitude":7.2719},{"id":42344,"name":"Haute-Marne","latitude":48.12019,"longitude":5.24038},{"id":42360,"name":"Hayange","latitude":49.32881,"longitude":6.06278},{"id":42361,"name":"Haybes","latitude":50.00458,"longitude":4.70496},{"id":42450,"name":"Hégenheim","latitude":47.56299,"longitude":7.52401},{"id":42363,"name":"Heillecourt","latitude":48.65049,"longitude":6.19512},{"id":42364,"name":"Heimsbrunn","latitude":47.72669,"longitude":7.22699},{"id":42374,"name":"Herbitzheim","latitude":49.01541,"longitude":7.08188},{"id":42381,"name":"Hermonville","latitude":49.33655,"longitude":3.91011},{"id":42382,"name":"Herrlisheim","latitude":48.73049,"longitude":7.90535},{"id":42383,"name":"Herrlisheim-près-Colmar","latitude":48.01835,"longitude":7.32668},{"id":42385,"name":"Herserange","latitude":49.52047,"longitude":5.78994},{"id":42465,"name":"Hésingue","latitude":47.57818,"longitude":7.51911},{"id":42389,"name":"Hettange-Grande","latitude":49.4065,"longitude":6.15233},{"id":42396,"name":"Hilsenheim","latitude":48.28761,"longitude":7.56348},{"id":42397,"name":"Hindisheim","latitude":48.46837,"longitude":7.63859},{"id":42401,"name":"Hirsingue","latitude":47.58768,"longitude":7.25299},{"id":42403,"name":"Hirtzbach","latitude":47.59839,"longitude":7.22222},{"id":42404,"name":"Hirtzfelden","latitude":47.91131,"longitude":7.4461},{"id":42406,"name":"Hochfelden","latitude":48.75738,"longitude":7.56769},{"id":42407,"name":"Hochstatt","latitude":47.70389,"longitude":7.2765},{"id":42467,"name":"Hœnheim","latitude":48.62224,"longitude":7.75549},{"id":42468,"name":"Hœrdt","latitude":48.7,"longitude":7.78333},{"id":42409,"name":"Holtzheim","latitude":48.5582,"longitude":7.64434},{"id":42410,"name":"Holtzwihr","latitude":48.11288,"longitude":7.4208},{"id":42411,"name":"Holving","latitude":49.01162,"longitude":6.96556},{"id":42414,"name":"Hombourg-Haut","latitude":49.12819,"longitude":6.77066},{"id":42415,"name":"Homécourt","latitude":49.22071,"longitude":5.99242},{"id":42418,"name":"Horbourg-Wihr","latitude":48.08106,"longitude":7.3938},{"id":42425,"name":"Houdemont","latitude":48.64407,"longitude":6.17579},{"id":42433,"name":"Houssen","latitude":48.12579,"longitude":7.37735},{"id":42441,"name":"Hundling","latitude":49.1086,"longitude":6.97989},{"id":42442,"name":"Huningue","latitude":47.60477,"longitude":7.57782},{"id":42445,"name":"Husseren-Wesserling","latitude":47.88351,"longitude":6.98994},{"id":42446,"name":"Hussigny-Godbrange","latitude":49.49437,"longitude":5.86677},{"id":42447,"name":"Huttenheim","latitude":48.35864,"longitude":7.57833},{"id":42473,"name":"Igney","latitude":48.27358,"longitude":6.39664},{"id":42477,"name":"Illange","latitude":49.32617,"longitude":6.17953},{"id":42480,"name":"Illfurth","latitude":47.6741,"longitude":7.26607},{"id":42482,"name":"Illkirch-Graffenstaden","latitude":48.52894,"longitude":7.71523},{"id":42483,"name":"Illzach","latitude":47.7742,"longitude":7.35175},{"id":42487,"name":"Ingersheim","latitude":48.09803,"longitude":7.30308},{"id":42491,"name":"Ingwiller","latitude":48.87284,"longitude":7.4798},{"id":42492,"name":"Innenheim","latitude":48.49659,"longitude":7.57439},{"id":42494,"name":"Irmstett","latitude":48.58801,"longitude":7.47837},{"id":42504,"name":"Issenheim","latitude":47.90357,"longitude":7.25235},{"id":42513,"name":"Ittenheim","latitude":48.60508,"longitude":7.59372},{"id":42534,"name":"Jarny","latitude":49.15873,"longitude":5.8764},{"id":42536,"name":"Jarville-la-Malgrange","latitude":48.66697,"longitude":6.20269},{"id":42546,"name":"Jeanménil","latitude":48.3356,"longitude":6.68769},{"id":42547,"name":"Jebsheim","latitude":48.12375,"longitude":7.47578},{"id":42603,"name":"Jœuf","latitude":49.23333,"longitude":6.01667},{"id":42553,"name":"Joinville","latitude":48.44363,"longitude":5.14144},{"id":42557,"name":"Jonchery-sur-Vesle","latitude":49.28952,"longitude":3.81345},{"id":42567,"name":"Joudreville","latitude":49.29145,"longitude":5.77903},{"id":42573,"name":"Jouy-aux-Arches","latitude":49.06148,"longitude":6.07925},{"id":42604,"name":"Kaltenhouse","latitude":48.7911,"longitude":7.83217},{"id":42605,"name":"Kaysersberg","latitude":48.13803,"longitude":7.26385},{"id":42623,"name":"Kédange-sur-Canner","latitude":49.30887,"longitude":6.33805},{"id":42606,"name":"Kembs","latitude":47.68948,"longitude":7.50323},{"id":42607,"name":"Kerbach","latitude":49.16682,"longitude":6.96549},{"id":42611,"name":"Kertzfeld","latitude":48.3799,"longitude":7.56816},{"id":42613,"name":"Keskastel","latitude":48.97132,"longitude":7.04412},{"id":42615,"name":"Kilstett","latitude":48.676,"longitude":7.85471},{"id":42616,"name":"Kingersheim","latitude":47.791,"longitude":7.32647},{"id":42617,"name":"Kintzheim","latitude":48.2548,"longitude":7.39491},{"id":42618,"name":"Knutange","latitude":49.33895,"longitude":6.03898},{"id":42624,"name":"Kœnigsmacker","latitude":49.4,"longitude":6.28333},{"id":42619,"name":"Krautergersheim","latitude":48.47634,"longitude":7.56718},{"id":42620,"name":"Kruth","latitude":47.93101,"longitude":6.96467},{"id":42621,"name":"Kunheim","latitude":48.07657,"longitude":7.53489},{"id":42622,"name":"Kuntzig","latitude":49.34731,"longitude":6.2371},{"id":42653,"name":"La Bresse","latitude":47.99974,"longitude":6.86499},{"id":42655,"name":"La Broque","latitude":48.47298,"longitude":7.21639},{"id":42687,"name":"La Chapelle-Saint-Luc","latitude":48.31734,"longitude":4.03988},{"id":42756,"name":"La Francheville","latitude":49.72923,"longitude":4.71273},{"id":42849,"name":"La Rivière-de-Corps","latitude":48.2884,"longitude":4.01947},{"id":42920,"name":"La Wantzenau","latitude":48.65786,"longitude":7.83068},{"id":42921,"name":"Labaroche","latitude":48.11076,"longitude":7.19244},{"id":42938,"name":"Labry","latitude":49.17289,"longitude":5.88087},{"id":42981,"name":"Lamarche","latitude":48.06967,"longitude":5.78141},{"id":42995,"name":"Lampertheim","latitude":48.65149,"longitude":7.69876},{"id":43010,"name":"Landres","latitude":49.32044,"longitude":5.8006},{"id":43012,"name":"Landser","latitude":47.68501,"longitude":7.38998},{"id":43020,"name":"Laneuveville-devant-Nancy","latitude":48.65659,"longitude":6.22658},{"id":43030,"name":"Langres","latitude":47.86263,"longitude":5.33308},{"id":43062,"name":"Lapoutroie","latitude":48.15398,"longitude":7.16714},{"id":43101,"name":"Lautenbach","latitude":47.94055,"longitude":7.15768},{"id":43102,"name":"Lautenbachzell","latitude":47.94124,"longitude":7.14643},{"id":43103,"name":"Lauterbourg","latitude":48.97515,"longitude":8.17846},{"id":43121,"name":"Laxou","latitude":48.68372,"longitude":6.14929},{"id":43122,"name":"Lay-Saint-Christophe","latitude":48.74926,"longitude":6.19735},{"id":43124,"name":"Le Ban Saint-Martin","latitude":49.1225,"longitude":6.15111},{"id":43240,"name":"Le Ménil","latitude":47.90477,"longitude":6.78209},{"id":43231,"name":"Le Mesnil-sur-Oger","latitude":48.94708,"longitude":4.02263},{"id":43303,"name":"Le Syndicat","latitude":48.01733,"longitude":6.68436},{"id":43313,"name":"Le Thillot","latitude":47.87941,"longitude":6.76279},{"id":43315,"name":"Le Tholy","latitude":48.08229,"longitude":6.74351},{"id":43345,"name":"Lembach","latitude":49.00362,"longitude":7.78986},{"id":43346,"name":"Lemberg","latitude":49.00199,"longitude":7.37889},{"id":43689,"name":"Lérouville","latitude":48.79261,"longitude":5.54063},{"id":43388,"name":"Les Forges","latitude":48.17747,"longitude":6.38846},{"id":43394,"name":"Les Hautes-Rivières","latitude":49.88595,"longitude":4.84186},{"id":43415,"name":"Les Noës-près-Troyes","latitude":48.30358,"longitude":4.04552},{"id":43423,"name":"Les Riceys","latitude":47.9939,"longitude":4.36986},{"id":43455,"name":"Lexy","latitude":49.49996,"longitude":5.72985},{"id":43457,"name":"Leymen","latitude":47.49632,"longitude":7.48517},{"id":43524,"name":"Lièpvre","latitude":48.27166,"longitude":7.28229},{"id":43473,"name":"Liffol-le-Grand","latitude":48.31771,"longitude":5.58125},{"id":43477,"name":"Ligny-en-Barrois","latitude":48.68861,"longitude":5.32543},{"id":43501,"name":"Lingolsheim","latitude":48.55752,"longitude":7.68253},{"id":43506,"name":"Lipsheim","latitude":48.49164,"longitude":7.66751},{"id":43515,"name":"Liverdun","latitude":48.74973,"longitude":6.06372},{"id":43546,"name":"Loivre","latitude":49.34619,"longitude":3.97978},{"id":43556,"name":"Longeville-en-Barrois","latitude":48.74242,"longitude":5.20905},{"id":43557,"name":"Longeville-lès-Metz","latitude":49.11403,"longitude":6.13612},{"id":43558,"name":"Longeville-lès-Saint-Avold","latitude":49.11689,"longitude":6.64327},{"id":43562,"name":"Longlaville","latitude":49.53443,"longitude":5.80048},{"id":43573,"name":"Longuyon","latitude":49.44181,"longitude":5.60508},{"id":43575,"name":"Longwy","latitude":49.5217,"longitude":5.76192},{"id":43593,"name":"Lorquin","latitude":48.67102,"longitude":6.99915},{"id":43641,"name":"Ludres","latitude":48.62032,"longitude":6.16747},{"id":43648,"name":"Lumes","latitude":49.73461,"longitude":4.78616},{"id":43656,"name":"Lunéville","latitude":48.59273,"longitude":6.49383},{"id":43663,"name":"Lusigny-sur-Barse","latitude":48.25451,"longitude":4.26891},{"id":43666,"name":"Lutterbach","latitude":47.75976,"longitude":7.28032},{"id":43667,"name":"Lutzelhouse","latitude":48.52114,"longitude":7.287},{"id":43713,"name":"Macheren","latitude":49.10019,"longitude":6.77763},{"id":43718,"name":"Magenta","latitude":49.04899,"longitude":3.96882},{"id":43731,"name":"Maidières","latitude":48.89961,"longitude":6.04005},{"id":43736,"name":"Mailly-le-Camp","latitude":48.66526,"longitude":4.21303},{"id":43746,"name":"Maizières-la-Grande-Paroisse","latitude":48.51012,"longitude":3.78573},{"id":43747,"name":"Maizières-lès-Metz","latitude":49.21335,"longitude":6.15956},{"id":43767,"name":"Malzéville","latitude":48.71235,"longitude":6.18468},{"id":43772,"name":"Mancieulles","latitude":49.28231,"longitude":5.89612},{"id":43779,"name":"Manom","latitude":49.37092,"longitude":6.18345},{"id":43790,"name":"Marange-Silvange","latitude":49.20822,"longitude":6.10426},{"id":43793,"name":"Marbache","latitude":48.79867,"longitude":6.106},{"id":43810,"name":"Marckolsheim","latitude":48.16471,"longitude":7.544},{"id":43817,"name":"Mardeuil","latitude":49.05393,"longitude":3.93},{"id":43826,"name":"Mareuil-le-Port","latitude":49.08179,"longitude":3.76011},{"id":43828,"name":"Mareuil-sur-Ay","latitude":49.04581,"longitude":4.03587},{"id":43842,"name":"Marigny-le-Châtel","latitude":48.40291,"longitude":3.73588},{"id":43849,"name":"Marlenheim","latitude":48.62134,"longitude":7.49096},{"id":43854,"name":"Marly","latitude":49.06382,"longitude":6.15427},{"id":43860,"name":"Marmoutier","latitude":48.69005,"longitude":7.38195},{"id":43863,"name":"Marne","latitude":48.99116,"longitude":4.25966},{"id":43928,"name":"Masevaux","latitude":47.77671,"longitude":6.99683},{"id":43942,"name":"Matzenheim","latitude":48.3945,"longitude":7.62185},{"id":43967,"name":"Maxéville","latitude":48.71324,"longitude":6.16658},{"id":44456,"name":"Mécleuves","latitude":49.04429,"longitude":6.27051},{"id":43990,"name":"Meistratzheim","latitude":48.44853,"longitude":7.5435},{"id":44014,"name":"Mercy-le-Bas","latitude":49.38935,"longitude":5.75599},{"id":44481,"name":"Méréville","latitude":48.59113,"longitude":6.15106},{"id":44019,"name":"Merten","latitude":49.24903,"longitude":6.66465},{"id":44020,"name":"Mertzwiller","latitude":48.86558,"longitude":7.68136},{"id":44026,"name":"Merxheim","latitude":47.91128,"longitude":7.29492},{"id":44479,"name":"Méry-sur-Seine","latitude":48.50937,"longitude":3.89129},{"id":44034,"name":"Messein","latitude":48.6118,"longitude":6.13959},{"id":44041,"name":"Metz","latitude":49.11911,"longitude":6.17269},{"id":44042,"name":"Metzeral","latitude":48.01217,"longitude":7.07091},{"id":44043,"name":"Metzervisse","latitude":49.31476,"longitude":6.28277},{"id":44051,"name":"Meurthe-et-Moselle","latitude":48.65082,"longitude":6.1566},{"id":44052,"name":"Meuse","latitude":48.97176,"longitude":5.36371},{"id":44054,"name":"Mexy","latitude":49.50072,"longitude":5.78078},{"id":44055,"name":"Meyenheim","latitude":47.91364,"longitude":7.3556},{"id":44094,"name":"Mirecourt","latitude":48.30089,"longitude":6.13282},{"id":44107,"name":"Mittelhausbergen","latitude":48.61436,"longitude":7.69009},{"id":44126,"name":"Molsheim","latitude":48.54042,"longitude":7.49199},{"id":44127,"name":"Mommenheim","latitude":48.75782,"longitude":7.64494},{"id":44135,"name":"Mondelange","latitude":49.26145,"longitude":6.16503},{"id":44151,"name":"Monswiller","latitude":48.75511,"longitude":7.37732},{"id":44157,"name":"Mont-Saint-Martin","latitude":49.54363,"longitude":5.78337},{"id":44188,"name":"Montauville","latitude":48.90111,"longitude":6.02359},{"id":44203,"name":"Montbronn","latitude":48.99243,"longitude":7.31075},{"id":44213,"name":"Montcy-Notre-Dame","latitude":49.77507,"longitude":4.74245},{"id":44250,"name":"Monthermé","latitude":49.88465,"longitude":4.73013},{"id":44253,"name":"Montier-en-Der","latitude":48.47823,"longitude":4.77073},{"id":44262,"name":"Montigny-lès-Metz","latitude":49.0956,"longitude":6.15271},{"id":44290,"name":"Montmédy","latitude":49.52096,"longitude":5.36835},{"id":44285,"name":"Montmirail","latitude":48.87214,"longitude":3.53797},{"id":44294,"name":"Montois-la-Montagne","latitude":49.2168,"longitude":6.02137},{"id":44337,"name":"Moosch","latitude":47.86035,"longitude":7.0487},{"id":44352,"name":"Morhange","latitude":48.92359,"longitude":6.64163},{"id":44366,"name":"Morsbach","latitude":49.16806,"longitude":6.8719},{"id":44367,"name":"Morschwiller-le-Bas","latitude":47.73615,"longitude":7.26954},{"id":44380,"name":"Moselle","latitude":49.04177,"longitude":6.58355},{"id":44396,"name":"Moulins-lès-Metz","latitude":49.10434,"longitude":6.10832},{"id":44402,"name":"Mourmelon-le-Grand","latitude":49.13256,"longitude":4.3642},{"id":44412,"name":"Moutiers","latitude":49.23302,"longitude":5.96553},{"id":44419,"name":"Mouzon","latitude":49.60706,"longitude":5.07569},{"id":44422,"name":"Moyenmoutier","latitude":48.3773,"longitude":6.90047},{"id":44423,"name":"Moyeuvre-Grande","latitude":49.25294,"longitude":6.04467},{"id":44432,"name":"Muizon","latitude":49.27499,"longitude":3.89083},{"id":44433,"name":"Mulhouse","latitude":47.75205,"longitude":7.32866},{"id":44435,"name":"Munchhouse","latitude":47.8693,"longitude":7.45233},{"id":44436,"name":"Mundolsheim","latitude":48.64215,"longitude":7.71378},{"id":44437,"name":"Munster","latitude":48.04048,"longitude":7.13933},{"id":44446,"name":"Mussig","latitude":48.22993,"longitude":7.51963},{"id":44447,"name":"Mussy-sur-Seine","latitude":47.97791,"longitude":4.49743},{"id":44448,"name":"Muttersholtz","latitude":48.26761,"longitude":7.53567},{"id":44449,"name":"Mutzig","latitude":48.53974,"longitude":7.45594},{"id":44501,"name":"Nancy","latitude":48.68439,"longitude":6.18496},{"id":44538,"name":"Neuf-Brisach","latitude":48.01783,"longitude":7.52795},{"id":44540,"name":"Neufchâteau","latitude":48.35557,"longitude":5.69602},{"id":44539,"name":"Neufchef","latitude":49.31678,"longitude":6.02416},{"id":44543,"name":"Neufgrange","latitude":49.07679,"longitude":7.06526},{"id":44544,"name":"Neufmanil","latitude":49.81096,"longitude":4.79673},{"id":44560,"name":"Neuves-Maisons","latitude":48.61811,"longitude":6.10544},{"id":44582,"name":"Neuwiller-lès-Saverne","latitude":48.82506,"longitude":7.40513},{"id":44588,"name":"Niderviller","latitude":48.71294,"longitude":7.10627},{"id":44589,"name":"Niederbronn-les-Bains","latitude":48.95165,"longitude":7.64271},{"id":44590,"name":"Niederhaslach","latitude":48.54264,"longitude":7.34282},{"id":44591,"name":"Niederhausbergen","latitude":48.624,"longitude":7.7021},{"id":44592,"name":"Niedernai","latitude":48.45101,"longitude":7.51635},{"id":44593,"name":"Niederschaeffolsheim","latitude":48.77241,"longitude":7.73862},{"id":44600,"name":"Nilvange","latitude":49.34224,"longitude":6.04964},{"id":44610,"name":"Nogent-le-Bas","latitude":48.01974,"longitude":5.33323},{"id":44617,"name":"Nogent-sur-Seine","latitude":48.49372,"longitude":3.50262},{"id":44635,"name":"Nomeny","latitude":48.88977,"longitude":6.22635},{"id":44636,"name":"Nomexy","latitude":48.30741,"longitude":6.38572},{"id":44641,"name":"Nordhouse","latitude":48.44833,"longitude":7.67326},{"id":44644,"name":"Norroy-lès-Pont-à-Mousson","latitude":48.93495,"longitude":6.03078},{"id":44661,"name":"Nouvion-sur-Meuse","latitude":49.69949,"longitude":4.79562},{"id":44664,"name":"Nouzonville","latitude":49.81369,"longitude":4.74736},{"id":44668,"name":"Novéant-sur-Moselle","latitude":49.02366,"longitude":6.04795},{"id":44702,"name":"Obenheim","latitude":48.35975,"longitude":7.692},{"id":44703,"name":"Oberbronn","latitude":48.9402,"longitude":7.607},{"id":44704,"name":"Oberhaslach","latitude":48.55039,"longitude":7.33213},{"id":44705,"name":"Oberhausbergen","latitude":48.60607,"longitude":7.68846},{"id":44706,"name":"Oberhergheim","latitude":47.96668,"longitude":7.39516},{"id":44707,"name":"Oberhoffen-sur-Moder","latitude":48.78366,"longitude":7.86347},{"id":44708,"name":"Obermodern-Zutzendorf","latitude":48.85,"longitude":7.53333},{"id":44709,"name":"Obernai","latitude":48.46313,"longitude":7.481},{"id":44710,"name":"Oberschaeffolsheim","latitude":48.58643,"longitude":7.65018},{"id":44714,"name":"Oderen","latitude":47.91036,"longitude":6.97463},{"id":44716,"name":"Oermingen","latitude":49.00043,"longitude":7.129},{"id":48128,"name":"Œting","latitude":49.17291,"longitude":6.91472},{"id":44719,"name":"Offenheim","latitude":48.63208,"longitude":7.61668},{"id":44723,"name":"Ohlungen","latitude":48.81352,"longitude":7.70225},{"id":44755,"name":"Orbey","latitude":48.12651,"longitude":7.16455},{"id":44793,"name":"Ostheim","latitude":48.15995,"longitude":7.36976},{"id":44795,"name":"Ostwald","latitude":48.54369,"longitude":7.71099},{"id":44797,"name":"Ottange","latitude":49.44307,"longitude":6.01988},{"id":44798,"name":"Otterswiller","latitude":48.72568,"longitude":7.37878},{"id":44799,"name":"Ottmarsheim","latitude":47.78802,"longitude":7.50777},{"id":44800,"name":"Ottrott","latitude":48.45642,"longitude":7.42556},{"id":44826,"name":"Pagny-sur-Moselle","latitude":48.98365,"longitude":6.02069},{"id":44852,"name":"Pargny-sur-Saulx","latitude":48.76866,"longitude":4.83758},{"id":44875,"name":"Payns","latitude":48.38255,"longitude":3.97755},{"id":44889,"name":"Peltre","latitude":49.0748,"longitude":6.22721},{"id":44918,"name":"Petit-Réderching","latitude":49.05494,"longitude":7.3064},{"id":44920,"name":"Petite-Rosselle","latitude":49.21177,"longitude":6.85607},{"id":44937,"name":"Pfaffenheim","latitude":47.98567,"longitude":7.28928},{"id":44938,"name":"Pfaffenhoffen","latitude":48.8422,"longitude":7.60714},{"id":44939,"name":"Pfastatt","latitude":47.76915,"longitude":7.30295},{"id":44940,"name":"Pfetterhouse","latitude":47.50128,"longitude":7.16598},{"id":44941,"name":"Pfulgriesheim","latitude":48.64403,"longitude":7.67086},{"id":44943,"name":"Phalsbourg","latitude":48.76771,"longitude":7.2582},{"id":44948,"name":"Piennes","latitude":49.30964,"longitude":5.78009},{"id":44961,"name":"Pierrepont","latitude":49.41646,"longitude":5.70908},{"id":44964,"name":"Pierrevillers","latitude":49.22468,"longitude":6.10337},{"id":44965,"name":"Pierry","latitude":49.02024,"longitude":3.94071},{"id":44971,"name":"Piney","latitude":48.36366,"longitude":4.33325},{"id":44991,"name":"Plainfaing","latitude":48.17284,"longitude":7.01539},{"id":45002,"name":"Plappeville","latitude":49.13019,"longitude":6.12471},{"id":45029,"name":"Plobsheim","latitude":48.46979,"longitude":7.72442},{"id":45036,"name":"Plombières-les-Bains","latitude":47.96337,"longitude":6.45758},{"id":45155,"name":"Pompey","latitude":48.76876,"longitude":6.12639},{"id":45197,"name":"Pont-à-Mousson","latitude":48.90702,"longitude":6.05635},{"id":45172,"name":"Pont-Saint-Vincent","latitude":48.60519,"longitude":6.0985},{"id":45173,"name":"Pont-Sainte-Marie","latitude":48.31848,"longitude":4.09447},{"id":45209,"name":"Pontfaverger-Moronvilliers","latitude":49.29702,"longitude":4.31657},{"id":45219,"name":"Porcelette","latitude":49.15657,"longitude":6.65513},{"id":45226,"name":"Port à Binson","latitude":49.08202,"longitude":3.75989},{"id":45243,"name":"Portieux","latitude":48.34466,"longitude":6.34465},{"id":45267,"name":"Pouru-Saint-Remy","latitude":49.68333,"longitude":5.08333},{"id":45269,"name":"Pouxeux","latitude":48.10621,"longitude":6.57299},{"id":45292,"name":"Prix-lès-Mézières","latitude":49.75549,"longitude":4.69113},{"id":45327,"name":"Pulligny","latitude":48.53893,"longitude":6.14426},{"id":45328,"name":"Pulnoy","latitude":48.70343,"longitude":6.25765},{"id":45329,"name":"Pulversheim","latitude":47.83753,"longitude":7.30119},{"id":45416,"name":"Raedersheim","latitude":47.88895,"longitude":7.28222},{"id":45422,"name":"Rambervillers","latitude":48.3424,"longitude":6.6358},{"id":45424,"name":"Ramonchamp","latitude":47.89429,"longitude":6.74171},{"id":45432,"name":"Raon-aux-Bois","latitude":48.05686,"longitude":6.52098},{"id":45686,"name":"Réding","latitude":48.75177,"longitude":7.10747},{"id":45689,"name":"Réguisheim","latitude":47.89563,"longitude":7.35288},{"id":45691,"name":"Réhon","latitude":49.49878,"longitude":5.75497},{"id":45444,"name":"Reichshoffen","latitude":48.93287,"longitude":7.66561},{"id":45445,"name":"Reichstett","latitude":48.64856,"longitude":7.75455},{"id":45450,"name":"Reims","latitude":49.26526,"longitude":4.02853},{"id":45451,"name":"Reiningue","latitude":47.75215,"longitude":7.23327},{"id":45693,"name":"Rémelfing","latitude":49.08947,"longitude":7.0882},{"id":45694,"name":"Rémilly","latitude":49.01359,"longitude":6.39219},{"id":45452,"name":"Remiremont","latitude":48.01754,"longitude":6.5882},{"id":45461,"name":"Renwez","latitude":49.83839,"longitude":4.60334},{"id":45467,"name":"Rethel","latitude":49.50979,"longitude":4.3674},{"id":45469,"name":"Retonfey","latitude":49.13648,"longitude":6.30634},{"id":45477,"name":"Revigny-sur-Ornain","latitude":48.83016,"longitude":4.98558},{"id":45478,"name":"Revin","latitude":49.94039,"longitude":4.63503},{"id":45483,"name":"Rhinau","latitude":48.32017,"longitude":7.70527},{"id":45490,"name":"Ribeauvillé","latitude":48.1951,"longitude":7.31938},{"id":45493,"name":"Richardménil","latitude":48.59334,"longitude":6.16917},{"id":45497,"name":"Richemont","latitude":49.27723,"longitude":6.16372},{"id":45498,"name":"Richwiller","latitude":47.77995,"longitude":7.28067},{"id":45500,"name":"Riedisheim","latitude":47.74847,"longitude":7.36716},{"id":45513,"name":"Rilly-la-Montagne","latitude":49.16553,"longitude":4.04568},{"id":45514,"name":"Rimogne","latitude":49.84075,"longitude":4.53941},{"id":45523,"name":"Riquewihr","latitude":48.16672,"longitude":7.29707},{"id":45534,"name":"Rixheim","latitude":47.7497,"longitude":7.40203},{"id":45553,"name":"Rocroi","latitude":49.9261,"longitude":4.5222},{"id":45556,"name":"Roeschwoog","latitude":48.82676,"longitude":8.03684},{"id":45562,"name":"Rohrbach-lès-Bitche","latitude":49.04424,"longitude":7.26759},{"id":45567,"name":"Rolampont","latitude":47.94951,"longitude":5.2856},{"id":45575,"name":"Romanswiller","latitude":48.64556,"longitude":7.40762},{"id":45577,"name":"Rombas","latitude":49.24946,"longitude":6.09398},{"id":45580,"name":"Romilly-sur-Seine","latitude":48.51085,"longitude":3.72634},{"id":45600,"name":"Rosenau","latitude":47.63688,"longitude":7.53598},{"id":45601,"name":"Rosheim","latitude":48.4971,"longitude":7.47105},{"id":45603,"name":"Rosières-aux-Salines","latitude":48.59301,"longitude":6.33199},{"id":45605,"name":"Rosières-près-Troyes","latitude":48.26182,"longitude":4.07396},{"id":45610,"name":"Rosselange","latitude":49.2578,"longitude":6.0689},{"id":45613,"name":"Rothau","latitude":48.45687,"longitude":7.20772},{"id":45619,"name":"Rouffach","latitude":47.95786,"longitude":7.30016},{"id":45626,"name":"Rouhling","latitude":49.13888,"longitude":7.00446},{"id":45655,"name":"Rozérieulles","latitude":49.10668,"longitude":6.08198},{"id":45661,"name":"Ruelisheim","latitude":47.82405,"longitude":7.35744},{"id":45671,"name":"Rumersheim-le-Haut","latitude":47.85124,"longitude":7.52079},{"id":45677,"name":"Rupt-sur-Moselle","latitude":47.92271,"longitude":6.66291},{"id":45678,"name":"Rurange-lès-Thionville","latitude":49.27599,"longitude":6.23184},{"id":45679,"name":"Russ","latitude":48.496,"longitude":7.25911},{"id":45680,"name":"Russange","latitude":49.48283,"longitude":5.95204},{"id":45750,"name":"Saint-Amarin","latitude":47.87494,"longitude":7.0294},{"id":45753,"name":"Saint-Amé","latitude":48.02388,"longitude":6.66416},{"id":45765,"name":"Saint-André-les-Vergers","latitude":48.28527,"longitude":4.0521},{"id":45798,"name":"Saint-Avold","latitude":49.10465,"longitude":6.70402},{"id":45826,"name":"Saint-Brice-Courcelles","latitude":49.26667,"longitude":3.98333},{"id":45913,"name":"Saint-Dié-des-Vosges","latitude":48.28333,"longitude":6.95},{"id":45912,"name":"Saint-Dizier","latitude":48.63773,"longitude":4.94892},{"id":46657,"name":"Saint-Étienne-lès-Remiremont","latitude":48.02287,"longitude":6.60868},{"id":45994,"name":"Saint-Germain","latitude":48.25736,"longitude":4.03264},{"id":46068,"name":"Saint-Hippolyte","latitude":48.23156,"longitude":7.37121},{"id":46148,"name":"Saint-Julien-lès-Metz","latitude":49.13288,"longitude":6.2024},{"id":46147,"name":"Saint-Julien-les-Villas","latitude":48.27127,"longitude":4.09901},{"id":46158,"name":"Saint-Just-Sauvage","latitude":48.55478,"longitude":3.78449},{"id":46172,"name":"Saint-Laurent","latitude":49.76449,"longitude":4.77193},{"id":46223,"name":"Saint-Léonard","latitude":48.21638,"longitude":6.94355},{"id":46196,"name":"Saint-Louis","latitude":47.59206,"longitude":7.55923},{"id":46209,"name":"Saint-Lyé","latitude":48.36502,"longitude":3.999},{"id":46321,"name":"Saint-Maurice-sur-Moselle","latitude":47.85889,"longitude":6.82477},{"id":46323,"name":"Saint-Max","latitude":48.70426,"longitude":6.20686},{"id":46328,"name":"Saint-Memmie","latitude":48.95247,"longitude":4.38409},{"id":46330,"name":"Saint-Menges","latitude":49.73873,"longitude":4.92628},{"id":46340,"name":"Saint-Michel-sur-Meurthe","latitude":48.32219,"longitude":6.89024},{"id":46342,"name":"Saint-Mihiel","latitude":48.88746,"longitude":5.55099},{"id":46356,"name":"Saint-Nabord","latitude":48.05171,"longitude":6.58248},{"id":46364,"name":"Saint-Nicolas-de-Port","latitude":48.62857,"longitude":6.29668},{"id":46397,"name":"Saint-Parres-aux-Tertres","latitude":48.2978,"longitude":4.11752},{"id":46461,"name":"Saint-Pouange","latitude":48.22656,"longitude":4.03979},{"id":46471,"name":"Saint-Privat-la-Montagne","latitude":49.18768,"longitude":6.03874},{"id":46672,"name":"Sainte-Croix-aux-Mines","latitude":48.26249,"longitude":7.22739},{"id":46673,"name":"Sainte-Croix-en-Plaine","latitude":48.00876,"longitude":7.38556},{"id":46704,"name":"Sainte-Marguerite","latitude":48.26735,"longitude":6.98439},{"id":46710,"name":"Sainte-Marie-aux-Chênes","latitude":49.19262,"longitude":6.0015},{"id":46711,"name":"Sainte-Marie-aux-Mines","latitude":48.24649,"longitude":7.18385},{"id":46716,"name":"Sainte-Maure","latitude":48.34729,"longitude":4.05962},{"id":46719,"name":"Sainte-Menehould","latitude":49.09008,"longitude":4.89733},{"id":46725,"name":"Sainte-Savine","latitude":48.29637,"longitude":4.04642},{"id":46739,"name":"Saizerais","latitude":48.7925,"longitude":6.0447},{"id":46785,"name":"Sand","latitude":48.38319,"longitude":7.61233},{"id":46809,"name":"Sarralbe","latitude":48.99858,"longitude":7.03074},{"id":46811,"name":"Sarre-Union","latitude":48.93818,"longitude":7.09373},{"id":46812,"name":"Sarrebourg","latitude":48.73558,"longitude":7.0572},{"id":46813,"name":"Sarreguemines","latitude":49.10995,"longitude":7.06747},{"id":46814,"name":"Sarreinsming","latitude":49.09121,"longitude":7.11053},{"id":46815,"name":"Sarrewerden","latitude":48.92261,"longitude":7.08412},{"id":46818,"name":"Sarry","latitude":48.91852,"longitude":4.40621},{"id":46839,"name":"Saulcy-sur-Meurthe","latitude":48.23758,"longitude":6.96443},{"id":46842,"name":"Saulnes","latitude":49.53189,"longitude":5.8213},{"id":46843,"name":"Saulny","latitude":49.1577,"longitude":6.10929},{"id":46846,"name":"Sault-lès-Rethel","latitude":49.4998,"longitude":4.36227},{"id":46849,"name":"Saulxures-lès-Nancy","latitude":48.68872,"longitude":6.24353},{"id":46850,"name":"Saulxures-sur-Moselotte","latitude":47.94894,"longitude":6.7704},{"id":46853,"name":"Sausheim","latitude":47.78711,"longitude":7.37267},{"id":46874,"name":"Saverne","latitude":48.74164,"longitude":7.36221},{"id":46897,"name":"Scherwiller","latitude":48.28713,"longitude":7.42135},{"id":46898,"name":"Schiltigheim","latitude":48.60749,"longitude":7.74931},{"id":46899,"name":"Schirmeck","latitude":48.48313,"longitude":7.22004},{"id":46900,"name":"Schirrhein","latitude":48.80161,"longitude":7.90588},{"id":46901,"name":"Schnersheim","latitude":48.65741,"longitude":7.56701},{"id":46904,"name":"Schœneck","latitude":49.21667,"longitude":6.91667},{"id":46902,"name":"Schweighouse-sur-Moder","latitude":48.82009,"longitude":7.7281},{"id":46903,"name":"Schwindratzheim","latitude":48.75582,"longitude":7.59898},{"id":46908,"name":"Scy-Chazelles","latitude":49.1134,"longitude":6.1147},{"id":46913,"name":"Sedan","latitude":49.70187,"longitude":4.94028},{"id":46916,"name":"Seichamps","latitude":48.71492,"longitude":6.26139},{"id":46928,"name":"Seingbouse","latitude":49.11341,"longitude":6.83186},{"id":47136,"name":"Sélestat","latitude":48.26195,"longitude":7.4489},{"id":46934,"name":"Seltz","latitude":48.8952,"longitude":8.10757},{"id":46944,"name":"Senones","latitude":48.39475,"longitude":6.97818},{"id":46947,"name":"Sentheim","latitude":47.7556,"longitude":7.05305},{"id":46975,"name":"Serémange-Erzange","latitude":49.32062,"longitude":6.09092},{"id":46957,"name":"Sermaize-les-Bains","latitude":48.78507,"longitude":4.91169},{"id":46976,"name":"Sessenheim","latitude":48.79652,"longitude":7.98719},{"id":47151,"name":"Sézanne","latitude":48.72047,"longitude":3.72339},{"id":46989,"name":"Sierck-les-Bains","latitude":49.43942,"longitude":6.35816},{"id":46990,"name":"Sierentz","latitude":47.65834,"longitude":7.45387},{"id":46993,"name":"Signy-le-Petit","latitude":49.90277,"longitude":4.2799},{"id":46994,"name":"Sigolsheim","latitude":48.13493,"longitude":7.2998},{"id":46996,"name":"Sillery","latitude":49.19822,"longitude":4.13244},{"id":47026,"name":"Solgne","latitude":48.96543,"longitude":6.29429},{"id":47059,"name":"Soucht","latitude":48.95902,"longitude":7.33434},{"id":47065,"name":"Souffelweyersheim","latitude":48.6354,"longitude":7.74141},{"id":47066,"name":"Soufflenheim","latitude":48.83026,"longitude":7.96268},{"id":47074,"name":"Soultz-Haut-Rhin","latitude":47.88849,"longitude":7.2286},{"id":47075,"name":"Soultz-sous-Forêts","latitude":48.93693,"longitude":7.8811},{"id":47076,"name":"Soultzeren","latitude":48.06394,"longitude":7.10233},{"id":47077,"name":"Soultzmatt","latitude":47.96188,"longitude":7.23759},{"id":47093,"name":"Spicheren","latitude":49.19252,"longitude":6.96611},{"id":47097,"name":"Staffelfelden","latitude":47.82647,"longitude":7.25235},{"id":47103,"name":"Steinbach","latitude":47.8214,"longitude":7.15279},{"id":47104,"name":"Steinbourg","latitude":48.77028,"longitude":7.41354},{"id":47105,"name":"Stenay","latitude":49.49489,"longitude":5.18606},{"id":47106,"name":"Still","latitude":48.54982,"longitude":7.40444},{"id":47107,"name":"Stiring-Wendel","latitude":49.20198,"longitude":6.9317},{"id":47108,"name":"Stosswihr","latitude":48.05389,"longitude":7.09964},{"id":47109,"name":"Stotzheim","latitude":48.37868,"longitude":7.49235},{"id":47110,"name":"Strasbourg","latitude":48.58392,"longitude":7.74553},{"id":47113,"name":"Suippes","latitude":49.12886,"longitude":4.53446},{"id":47117,"name":"Sundhoffen","latitude":48.04263,"longitude":7.4132},{"id":47118,"name":"Sundhouse","latitude":48.2511,"longitude":7.60427},{"id":47119,"name":"Surbourg","latitude":48.91009,"longitude":7.84716},{"id":47158,"name":"Taintrux","latitude":48.24944,"longitude":6.89963},{"id":47159,"name":"Taissy","latitude":49.21509,"longitude":4.09406},{"id":47160,"name":"Talange","latitude":49.23577,"longitude":6.17167},{"id":47204,"name":"Tenteling","latitude":49.12544,"longitude":6.93751},{"id":47211,"name":"Terville","latitude":49.34668,"longitude":6.13346},{"id":47214,"name":"Teting-sur-Nied","latitude":49.05704,"longitude":6.66294},{"id":47217,"name":"Thann","latitude":47.80789,"longitude":7.10301},{"id":47219,"name":"Thaon-les-Vosges","latitude":48.25,"longitude":6.41667},{"id":47266,"name":"Théding","latitude":49.12847,"longitude":6.8922},{"id":47231,"name":"Thierville-sur-Meuse","latitude":49.1705,"longitude":5.35266},{"id":47232,"name":"Thil","latitude":49.473,"longitude":5.90821},{"id":47234,"name":"Thilay","latitude":49.87345,"longitude":4.80772},{"id":47236,"name":"Thionville","latitude":49.35994,"longitude":6.16044},{"id":47289,"name":"Tinqueux","latitude":49.25,"longitude":3.98333},{"id":47293,"name":"Tomblaine","latitude":48.68378,"longitude":6.2162},{"id":47309,"name":"Toul","latitude":48.68075,"longitude":5.89115},{"id":47326,"name":"Tournes","latitude":49.797,"longitude":4.63856},{"id":47334,"name":"Tours-sur-Marne","latitude":49.04873,"longitude":4.1206},{"id":47402,"name":"Trémery","latitude":49.2461,"longitude":6.22369},{"id":47362,"name":"Tressange","latitude":49.40271,"longitude":5.98084},{"id":47372,"name":"Trieux","latitude":49.32462,"longitude":5.93049},{"id":47380,"name":"Tronville-en-Barrois","latitude":48.71977,"longitude":5.27808},{"id":47385,"name":"Troyes","latitude":48.30073,"longitude":4.08524},{"id":47386,"name":"Truchtersheim","latitude":48.66313,"longitude":7.60752},{"id":47410,"name":"Tucquegnieux","latitude":49.3101,"longitude":5.89448},{"id":47415,"name":"Turckheim","latitude":48.08748,"longitude":7.27707},{"id":47419,"name":"Uberach","latitude":48.8499,"longitude":7.62934},{"id":47422,"name":"Uckange","latitude":49.30304,"longitude":6.1492},{"id":47423,"name":"Uffholtz","latitude":47.82082,"longitude":7.17785},{"id":47426,"name":"Ungersheim","latitude":47.87848,"longitude":7.30797},{"id":47431,"name":"Uriménil","latitude":48.10079,"longitude":6.40046},{"id":47432,"name":"Urmatt","latitude":48.52752,"longitude":7.32565},{"id":47443,"name":"Uxegney","latitude":48.19652,"longitude":6.36971},{"id":47446,"name":"Uzemain","latitude":48.08572,"longitude":6.34443},{"id":47450,"name":"Vacon","latitude":48.66865,"longitude":5.60024},{"id":47453,"name":"Vagney","latitude":48.00629,"longitude":6.7174},{"id":47463,"name":"Val-de-Meuse","latitude":48.0,"longitude":5.5},{"id":47481,"name":"Valff","latitude":48.4214,"longitude":7.52058},{"id":47488,"name":"Valleroy","latitude":49.20944,"longitude":5.93703},{"id":47496,"name":"Valmont","latitude":49.0843,"longitude":6.69781},{"id":47503,"name":"Vandœuvre-lès-Nancy","latitude":48.65,"longitude":6.18333},{"id":47508,"name":"Varangéville","latitude":48.63675,"longitude":6.31875},{"id":47529,"name":"Vaucouleurs","latitude":48.60313,"longitude":5.66659},{"id":47553,"name":"Vecoux","latitude":47.97797,"longitude":6.63651},{"id":47557,"name":"Velaine-en-Haye","latitude":48.6999,"longitude":6.02754},{"id":47558,"name":"Velaines","latitude":48.6988,"longitude":5.30483},{"id":47570,"name":"Vendenheim","latitude":48.66948,"longitude":7.70983},{"id":47572,"name":"Vendeuvre-sur-Barse","latitude":48.23786,"longitude":4.46905},{"id":47593,"name":"Verdun","latitude":49.15964,"longitude":5.3829},{"id":47626,"name":"Verny","latitude":49.00677,"longitude":6.2035},{"id":47629,"name":"Verrières","latitude":48.23334,"longitude":4.14893},{"id":47643,"name":"Vertus","latitude":48.90609,"longitude":4.00216},{"id":47645,"name":"Verzenay","latitude":49.15918,"longitude":4.14543},{"id":47646,"name":"Verzy","latitude":49.14576,"longitude":4.16409},{"id":47932,"name":"Vézelise","latitude":48.48748,"longitude":6.08825},{"id":47669,"name":"Vic-sur-Seille","latitude":48.78195,"longitude":6.53079},{"id":47691,"name":"Vieux-Thann","latitude":47.804,"longitude":7.12067},{"id":47695,"name":"Vigneulles-lès-Hattonchâtel","latitude":48.98152,"longitude":5.70464},{"id":47699,"name":"Vignot","latitude":48.77418,"longitude":5.60904},{"id":47702,"name":"Vigy","latitude":49.20443,"longitude":6.29906},{"id":47706,"name":"Village-Neuf","latitude":47.60682,"longitude":7.56964},{"id":47837,"name":"Villé","latitude":48.3427,"longitude":7.3026},{"id":47720,"name":"Ville-sous-la-Ferté","latitude":48.1206,"longitude":4.78957},{"id":47757,"name":"Villenauxe-la-Grande","latitude":48.58333,"longitude":3.55},{"id":47804,"name":"Villers-la-Montagne","latitude":49.47175,"longitude":5.82522},{"id":47806,"name":"Villers-lès-Nancy","latitude":48.67333,"longitude":6.15283},{"id":47802,"name":"Villers-Semeuse","latitude":49.74201,"longitude":4.74697},{"id":47812,"name":"Villerupt","latitude":49.46715,"longitude":5.93202},{"id":47824,"name":"Villey-Saint-Étienne","latitude":48.73254,"longitude":5.97851},{"id":47827,"name":"Villiers-en-Lieu","latitude":48.66785,"longitude":4.89755},{"id":47845,"name":"Vincey","latitude":48.33749,"longitude":6.33134},{"id":47858,"name":"Vireux-Molhain","latitude":50.07874,"longitude":4.72426},{"id":47859,"name":"Vireux-Wallerand","latitude":50.08196,"longitude":4.73017},{"id":47873,"name":"Vitry-le-François","latitude":48.72472,"longitude":4.58439},{"id":47874,"name":"Vitry-sur-Orne","latitude":49.26595,"longitude":6.11074},{"id":47878,"name":"Vittel","latitude":48.20085,"longitude":5.94843},{"id":47881,"name":"Vivier-au-Court","latitude":49.73326,"longitude":4.82939},{"id":47891,"name":"Void-Vacon","latitude":48.68333,"longitude":5.61667},{"id":47895,"name":"Volgelsheim","latitude":48.01462,"longitude":7.55456},{"id":47896,"name":"Volmerange-les-Mines","latitude":49.44326,"longitude":6.08062},{"id":47898,"name":"Volstroff","latitude":49.31135,"longitude":6.25976},{"id":47904,"name":"Vosges","latitude":48.19161,"longitude":6.40533},{"id":47916,"name":"Vouziers","latitude":49.39791,"longitude":4.7012},{"id":47920,"name":"Vrigne-aux-Bois","latitude":49.73716,"longitude":4.85567},{"id":47937,"name":"Walbourg","latitude":48.88628,"longitude":7.78828},{"id":47938,"name":"Waldighofen","latitude":47.55045,"longitude":7.31512},{"id":47941,"name":"Walscheid","latitude":48.65308,"longitude":7.14998},{"id":47944,"name":"Wangenbourg-Engenthal","latitude":48.62805,"longitude":7.30471},{"id":47945,"name":"Warcq","latitude":49.77517,"longitude":4.68175},{"id":47950,"name":"Warmeriville","latitude":49.35227,"longitude":4.21882},{"id":47952,"name":"Wasselonne","latitude":48.63779,"longitude":7.44506},{"id":47954,"name":"Wassy","latitude":48.49811,"longitude":4.94775},{"id":47958,"name":"Wattwiller","latitude":47.83649,"longitude":7.17785},{"id":47963,"name":"Weitbruch","latitude":48.75455,"longitude":7.77935},{"id":47965,"name":"Westhoffen","latitude":48.60352,"longitude":7.44289},{"id":47966,"name":"Wettolsheim","latitude":48.05755,"longitude":7.29844},{"id":47967,"name":"Weyersheim","latitude":48.71622,"longitude":7.80127},{"id":47968,"name":"Widensolen","latitude":48.06377,"longitude":7.48015},{"id":47969,"name":"Wiesviller","latitude":49.08095,"longitude":7.16415},{"id":47971,"name":"Wihr-au-Val","latitude":48.05196,"longitude":7.20493},{"id":47973,"name":"Willerwald","latitude":49.02481,"longitude":7.03726},{"id":47976,"name":"Wimmenau","latitude":48.91217,"longitude":7.42189},{"id":47977,"name":"Wingen-sur-Moder","latitude":48.919,"longitude":7.37955},{"id":47978,"name":"Wingersheim","latitude":48.72149,"longitude":7.63464},{"id":47981,"name":"Wintzenheim","latitude":48.07269,"longitude":7.29072},{"id":47982,"name":"Wisches","latitude":48.50881,"longitude":7.26814},{"id":47984,"name":"Wissembourg","latitude":49.03708,"longitude":7.94548},{"id":47986,"name":"Witry-lès-Reims","latitude":49.29162,"longitude":4.11921},{"id":47987,"name":"Wittelsheim","latitude":47.80947,"longitude":7.24154},{"id":47988,"name":"Wittenheim","latitude":47.8109,"longitude":7.32756},{"id":47989,"name":"Wittisheim","latitude":48.26451,"longitude":7.58683},{"id":47991,"name":"Woerth","latitude":48.93953,"longitude":7.74279},{"id":47993,"name":"Woippy","latitude":49.15111,"longitude":6.15132},{"id":47994,"name":"Wolfgantzen","latitude":48.02805,"longitude":7.5004},{"id":47995,"name":"Wolfisheim","latitude":48.58723,"longitude":7.66708},{"id":47997,"name":"Woustviller","latitude":49.07636,"longitude":7.00487},{"id":47998,"name":"Xertigny","latitude":48.04394,"longitude":6.40836},{"id":47999,"name":"Xonrupt-Longemer","latitude":48.08223,"longitude":6.92944},{"id":48013,"name":"Yutz","latitude":49.35571,"longitude":6.1926},{"id":48026,"name":"Zillisheim","latitude":47.69604,"longitude":7.29736},{"id":48027,"name":"Zimmersheim","latitude":47.72079,"longitude":7.38847}]