[{"id":38721,"name":"Ādīgrat","latitude":14.277,"longitude":39.462},{"id":38597,"name":"Axum","latitude":14.12109,"longitude":38.72337},{"id":38658,"name":"Inda Silasē","latitude":14.10307,"longitude":38.28289},{"id":38669,"name":"Korem","latitude":12.50583,"longitude":39.52278},{"id":38675,"name":"Maych’ew","latitude":12.7875,"longitude":39.54222},{"id":38676,"name":"Mek'ele","latitude":13.49667,"longitude":39.47528},{"id":38703,"name":"Southeastern Tigray Zone","latitude":13.24797,"longitude":39.53156},{"id":38704,"name":"Southern Tigray Zone","latitude":12.96033,"longitude":39.52831}]