[{"id":111031,"name":"Adamsville","latitude":35.23591,"longitude":-88.3906},{"id":111091,"name":"Alamo","latitude":35.78479,"longitude":-89.11729},{"id":111132,"name":"Alcoa","latitude":35.78953,"longitude":-83.97379},{"id":111168,"name":"Algood","latitude":36.19589,"longitude":-85.44858},{"id":111234,"name":"Altamont","latitude":35.42952,"longitude":-85.72303},{"id":111318,"name":"Anderson County","latitude":36.11844,"longitude":-84.19846},{"id":111385,"name":"Apison","latitude":35.02396,"longitude":-85.02384},{"id":111441,"name":"Ardmore","latitude":34.99203,"longitude":-86.84667},{"id":111462,"name":"Arlington","latitude":35.2962,"longitude":-89.66147},{"id":111541,"name":"Ashland City","latitude":36.27422,"longitude":-87.06417},{"id":111575,"name":"Athens","latitude":35.44285,"longitude":-84.59299},{"id":111604,"name":"Atoka","latitude":35.44119,"longitude":-89.77814},{"id":111802,"name":"Banner Hill","latitude":36.13066,"longitude":-82.42458},{"id":111861,"name":"Bartlett","latitude":35.20453,"longitude":-89.87398},{"id":111914,"name":"Baxter","latitude":36.15367,"longitude":-85.64359},{"id":111973,"name":"Bean Station","latitude":36.3437,"longitude":-83.28406},{"id":112028,"name":"Bedford County","latitude":35.5138,"longitude":-86.45889},{"id":112087,"name":"Belle Meade","latitude":36.09589,"longitude":-86.85694},{"id":112126,"name":"Bells","latitude":35.71118,"longitude":-89.08756},{"id":112196,"name":"Benton","latitude":35.17424,"longitude":-84.65355},{"id":112202,"name":"Benton County","latitude":36.06978,"longitude":-88.06827},{"id":112402,"name":"Blaine","latitude":36.15425,"longitude":-83.70407},{"id":112428,"name":"Bledsoe County","latitude":35.59642,"longitude":-85.20516},{"id":112446,"name":"Bloomingdale","latitude":36.58455,"longitude":-82.48932},{"id":112458,"name":"Blount County","latitude":35.68724,"longitude":-83.92553},{"id":112461,"name":"Blountville","latitude":36.53316,"longitude":-82.32681},{"id":112481,"name":"Bluff City","latitude":36.47427,"longitude":-82.26097},{"id":112518,"name":"Bolivar","latitude":35.25619,"longitude":-88.98784},{"id":112527,"name":"Bon Aqua Junction","latitude":35.92784,"longitude":-87.31084},{"id":112664,"name":"Bradford","latitude":36.07645,"longitude":-88.81006},{"id":112676,"name":"Bradley County","latitude":35.15411,"longitude":-84.8596},{"id":112729,"name":"Brentwood","latitude":36.03312,"longitude":-86.78278},{"id":112734,"name":"Brentwood Estates","latitude":36.02506,"longitude":-86.77917},{"id":112788,"name":"Brighton","latitude":35.48397,"longitude":-89.72508},{"id":112803,"name":"Bristol","latitude":36.59511,"longitude":-82.18874},{"id":112931,"name":"Brownsville","latitude":35.59397,"longitude":-89.26229},{"id":112943,"name":"Bruceton","latitude":36.03812,"longitude":-88.24449},{"id":113086,"name":"Burns","latitude":36.05339,"longitude":-87.31251},{"id":113141,"name":"Byrdstown","latitude":36.57451,"longitude":-85.12884},{"id":113265,"name":"Camden","latitude":36.05895,"longitude":-88.09782},{"id":113299,"name":"Campbell County","latitude":36.40351,"longitude":-84.14938},{"id":113333,"name":"Cannon County","latitude":35.80868,"longitude":-86.06174},{"id":113456,"name":"Carroll County","latitude":35.97317,"longitude":-88.45026},{"id":113483,"name":"Carter County","latitude":36.29272,"longitude":-82.12743},{"id":113494,"name":"Carthage","latitude":36.25228,"longitude":-85.95165},{"id":113507,"name":"Caryville","latitude":36.29897,"longitude":-84.22326},{"id":113630,"name":"Celina","latitude":36.55006,"longitude":-85.50525},{"id":113655,"name":"Centerville","latitude":35.77896,"longitude":-87.46696},{"id":113664,"name":"Central","latitude":36.32622,"longitude":-82.28958},{"id":113742,"name":"Chapel Hill","latitude":35.62646,"longitude":-86.69333},{"id":113777,"name":"Charlotte","latitude":36.17728,"longitude":-87.33973},{"id":113811,"name":"Chattanooga","latitude":35.04563,"longitude":-85.30968},{"id":113819,"name":"Cheatham County","latitude":36.26117,"longitude":-87.08678},{"id":113896,"name":"Chester County","latitude":35.42175,"longitude":-88.61346},{"id":113998,"name":"Christiana","latitude":35.71007,"longitude":-86.39944},{"id":114007,"name":"Church Hill","latitude":36.52232,"longitude":-82.71349},{"id":114094,"name":"Claiborne County","latitude":36.48585,"longitude":-83.66042},{"id":114154,"name":"Clarksville","latitude":36.52977,"longitude":-87.35945},{"id":114184,"name":"Clay County","latitude":36.55116,"longitude":-85.54386},{"id":114244,"name":"Cleveland","latitude":35.15952,"longitude":-84.87661},{"id":114255,"name":"Clifton","latitude":35.38702,"longitude":-87.99531},{"id":114275,"name":"Clinton","latitude":36.10341,"longitude":-84.13186},{"id":114335,"name":"Coalfield","latitude":36.02897,"longitude":-84.42076},{"id":114354,"name":"Cocke County","latitude":35.92542,"longitude":-83.12116},{"id":114369,"name":"Coffee County","latitude":35.49062,"longitude":-86.07476},{"id":114418,"name":"Collegedale","latitude":35.05313,"longitude":-85.05023},{"id":114424,"name":"Collierville","latitude":35.04204,"longitude":-89.66453},{"id":114448,"name":"Colonial Heights","latitude":36.4851,"longitude":-82.5032},{"id":114472,"name":"Columbia","latitude":35.61507,"longitude":-87.03528},{"id":114548,"name":"Condon","latitude":36.18119,"longitude":-83.7938},{"id":114595,"name":"Cookeville","latitude":36.16284,"longitude":-85.50164},{"id":114609,"name":"Coopertown","latitude":36.43755,"longitude":-86.96722},{"id":114650,"name":"Cornersville","latitude":35.36146,"longitude":-86.83972},{"id":114738,"name":"Covington","latitude":35.56425,"longitude":-89.64647},{"id":114744,"name":"Cowan","latitude":35.16453,"longitude":-86.01054},{"id":114831,"name":"Crockett County","latitude":35.81354,"longitude":-89.13953},{"id":114852,"name":"Cross Plains","latitude":36.54866,"longitude":-86.69611},{"id":114856,"name":"Crossville","latitude":35.94896,"longitude":-85.0269},{"id":114873,"name":"Crump","latitude":35.22175,"longitude":-88.31809},{"id":114916,"name":"Cumberland County","latitude":35.95039,"longitude":-84.99835},{"id":115018,"name":"Dandridge","latitude":36.01537,"longitude":-83.41489},{"id":115064,"name":"Davidson County","latitude":36.17069,"longitude":-86.77753},{"id":115092,"name":"Dayton","latitude":35.49396,"longitude":-85.01245},{"id":115154,"name":"Decatur","latitude":35.51479,"longitude":-84.79022},{"id":115161,"name":"Decatur County","latitude":35.60302,"longitude":-88.10877},{"id":115164,"name":"Decaturville","latitude":35.58424,"longitude":-88.11948},{"id":115165,"name":"Decherd","latitude":35.2098,"longitude":-86.07943},{"id":115131,"name":"DeKalb County","latitude":35.97986,"longitude":-85.83275},{"id":115331,"name":"Dickson","latitude":36.077,"longitude":-87.38779},{"id":115333,"name":"Dickson County","latitude":36.14905,"longitude":-87.35666},{"id":115382,"name":"Dodson Branch","latitude":36.31256,"longitude":-85.5322},{"id":115447,"name":"Dover","latitude":36.48783,"longitude":-87.83836},{"id":115471,"name":"Dresden","latitude":36.29145,"longitude":-88.70811},{"id":115542,"name":"Dunlap","latitude":35.37146,"longitude":-85.39052},{"id":115585,"name":"Dyer","latitude":36.06673,"longitude":-88.99395},{"id":115587,"name":"Dyer County","latitude":36.05906,"longitude":-89.41377},{"id":115588,"name":"Dyersburg","latitude":36.03452,"longitude":-89.38563},{"id":115613,"name":"Eagleton Village","latitude":35.79508,"longitude":-83.93185},{"id":115635,"name":"East Brainerd","latitude":34.99591,"longitude":-85.15023},{"id":115644,"name":"East Chattanooga","latitude":35.06535,"longitude":-85.24912},{"id":115646,"name":"East Cleveland","latitude":35.16091,"longitude":-84.85772},{"id":115747,"name":"East Ridge","latitude":35.01424,"longitude":-85.2519},{"id":115976,"name":"Elizabethton","latitude":36.34872,"longitude":-82.21069},{"id":116130,"name":"Englewood","latitude":35.42452,"longitude":-84.48743},{"id":116170,"name":"Erin","latitude":36.31839,"longitude":-87.69474},{"id":116176,"name":"Erwin","latitude":36.14511,"longitude":-82.41681},{"id":116213,"name":"Estill Springs","latitude":35.27064,"longitude":-86.12804},{"id":116218,"name":"Etowah","latitude":35.32341,"longitude":-84.52493},{"id":116321,"name":"Fairfield Glade","latitude":36.00035,"longitude":-84.88634},{"id":116339,"name":"Fairmount","latitude":35.18146,"longitude":-85.32357},{"id":116349,"name":"Fairview","latitude":35.98201,"longitude":-87.1214},{"id":116370,"name":"Fall Branch","latitude":36.41816,"longitude":-82.62376},{"id":116377,"name":"Falling Water","latitude":35.20312,"longitude":-85.25357},{"id":116429,"name":"Farragut","latitude":35.88452,"longitude":-84.15353},{"id":116448,"name":"Fayette County","latitude":35.19708,"longitude":-89.41437},{"id":116457,"name":"Fayetteville","latitude":35.15203,"longitude":-86.57055},{"id":116476,"name":"Fentress County","latitude":36.38049,"longitude":-84.93246},{"id":116513,"name":"Fincastle","latitude":36.4098,"longitude":-84.0477},{"id":116656,"name":"Forest Hills","latitude":36.06839,"longitude":-86.84417},{"id":116829,"name":"Franklin","latitude":35.92506,"longitude":-86.86889},{"id":116854,"name":"Franklin County","latitude":35.15496,"longitude":-86.09218},{"id":117013,"name":"Gainesboro","latitude":36.35561,"longitude":-85.65887},{"id":117033,"name":"Gallatin","latitude":36.38838,"longitude":-86.44666},{"id":117125,"name":"Gatlinburg","latitude":35.71453,"longitude":-83.51189},{"id":117173,"name":"Germantown","latitude":35.08676,"longitude":-89.81009},{"id":117190,"name":"Gibson County","latitude":35.99661,"longitude":-88.93262},{"id":117210,"name":"Giles County","latitude":35.20215,"longitude":-87.03478},{"id":117257,"name":"Gleason","latitude":36.21367,"longitude":-88.61255},{"id":117386,"name":"Goodlettsville","latitude":36.32311,"longitude":-86.71333},{"id":117400,"name":"Gordonsville","latitude":36.17256,"longitude":-85.92971},{"id":117441,"name":"Grainger County","latitude":36.27625,"longitude":-83.50962},{"id":117552,"name":"Gray","latitude":36.41983,"longitude":-82.47654},{"id":117567,"name":"Graysville","latitude":35.44701,"longitude":-85.0844},{"id":117598,"name":"Green Hill","latitude":36.22283,"longitude":-86.54944},{"id":117615,"name":"Greenback","latitude":35.66119,"longitude":-84.17214},{"id":117620,"name":"Greenbrier","latitude":36.42755,"longitude":-86.80472},{"id":117639,"name":"Greene County","latitude":36.17536,"longitude":-82.84582},{"id":117644,"name":"Greeneville","latitude":36.16316,"longitude":-82.83099},{"id":117648,"name":"Greenfield","latitude":36.1534,"longitude":-88.80062},{"id":117739,"name":"Grimsley","latitude":36.26701,"longitude":-84.9844},{"id":117767,"name":"Gruetli-Laager","latitude":35.3723,"longitude":-85.61803},{"id":117770,"name":"Grundy County","latitude":35.38837,"longitude":-85.72258},{"id":117873,"name":"Halls","latitude":35.87563,"longitude":-89.39618},{"id":117880,"name":"Hamblen County","latitude":36.21715,"longitude":-83.26666},{"id":117898,"name":"Hamilton County","latitude":35.18086,"longitude":-85.16479},{"id":117954,"name":"Hancock County","latitude":36.52365,"longitude":-83.22183},{"id":117995,"name":"Hardeman County","latitude":35.20687,"longitude":-88.99308},{"id":118001,"name":"Hardin County","latitude":35.19868,"longitude":-88.18448},{"id":118039,"name":"Harriman","latitude":35.93396,"longitude":-84.55244},{"id":118055,"name":"Harrison","latitude":35.11368,"longitude":-85.13801},{"id":118079,"name":"Harrogate","latitude":36.5823,"longitude":-83.65686},{"id":118105,"name":"Hartsville","latitude":36.39088,"longitude":-86.16721},{"id":118166,"name":"Hawkins County","latitude":36.44117,"longitude":-82.94468},{"id":118199,"name":"Haywood County","latitude":35.58322,"longitude":-89.28384},{"id":118277,"name":"Henderson","latitude":35.43924,"longitude":-88.64144},{"id":118282,"name":"Henderson County","latitude":35.65426,"longitude":-88.38799},{"id":118286,"name":"Hendersonville","latitude":36.30477,"longitude":-86.62},{"id":118302,"name":"Henry County","latitude":36.33183,"longitude":-88.30122},{"id":118364,"name":"Hickman County","latitude":35.80325,"longitude":-87.47331},{"id":118370,"name":"Hickory Withe","latitude":35.24398,"longitude":-89.58869},{"id":118512,"name":"Hohenwald","latitude":35.54785,"longitude":-87.55196},{"id":118648,"name":"Hopewell","latitude":35.23479,"longitude":-84.888},{"id":118704,"name":"Houston County","latitude":36.28597,"longitude":-87.71704},{"id":118776,"name":"Humboldt","latitude":35.81979,"longitude":-88.9159},{"id":118785,"name":"Humphreys County","latitude":36.04082,"longitude":-87.77563},{"id":118788,"name":"Hunter","latitude":36.37178,"longitude":-82.15874},{"id":118795,"name":"Huntingdon","latitude":36.00062,"longitude":-88.42811},{"id":118817,"name":"Huntsville","latitude":36.4098,"longitude":-84.49049},{"id":119058,"name":"Jacksboro","latitude":36.33008,"longitude":-84.18382},{"id":119068,"name":"Jackson","latitude":35.61452,"longitude":-88.81395},{"id":119087,"name":"Jackson County","latitude":36.35921,"longitude":-85.67315},{"id":119122,"name":"Jamestown","latitude":36.42757,"longitude":-84.93189},{"id":119143,"name":"Jasper","latitude":35.07424,"longitude":-85.62608},{"id":119174,"name":"Jefferson City","latitude":36.12231,"longitude":-83.4924},{"id":119186,"name":"Jefferson County","latitude":36.05099,"longitude":-83.44631},{"id":119209,"name":"Jellico","latitude":36.58786,"longitude":-84.12687},{"id":119257,"name":"Johnson City","latitude":36.31344,"longitude":-82.35347},{"id":119267,"name":"Johnson County","latitude":36.45494,"longitude":-81.85175},{"id":119275,"name":"Johnsonville","latitude":36.06006,"longitude":-87.95281},{"id":119304,"name":"Jonesborough","latitude":36.29427,"longitude":-82.47348},{"id":119497,"name":"Kenton","latitude":36.20229,"longitude":-89.01229},{"id":119565,"name":"Kimball","latitude":35.04786,"longitude":-85.67191},{"id":119619,"name":"Kingsport","latitude":36.54843,"longitude":-82.56182},{"id":119621,"name":"Kingston","latitude":35.88091,"longitude":-84.50854},{"id":119632,"name":"Kingston Springs","latitude":36.102,"longitude":-87.11501},{"id":119687,"name":"Knox County","latitude":35.99322,"longitude":-83.93709},{"id":119694,"name":"Knoxville","latitude":35.96064,"longitude":-83.92074},{"id":119792,"name":"La Vergne","latitude":36.01562,"longitude":-86.58194},{"id":119833,"name":"Lafayette","latitude":36.52116,"longitude":-86.02637},{"id":119800,"name":"LaFollette","latitude":36.38286,"longitude":-84.11993},{"id":119890,"name":"Lake County","latitude":36.33538,"longitude":-89.49347},{"id":119984,"name":"Lake Tansi","latitude":35.87285,"longitude":-85.0544},{"id":120014,"name":"Lakeland","latitude":35.23064,"longitude":-89.74036},{"id":120036,"name":"Lakesite","latitude":35.20868,"longitude":-85.1269},{"id":120046,"name":"Lakewood","latitude":36.24311,"longitude":-86.63555},{"id":120181,"name":"Lauderdale County","latitude":35.76101,"longitude":-89.63144},{"id":120236,"name":"Lawrence County","latitude":35.21727,"longitude":-87.39559},{"id":120242,"name":"Lawrenceburg","latitude":35.2423,"longitude":-87.33474},{"id":120287,"name":"Lebanon","latitude":36.20811,"longitude":-86.2911},{"id":120373,"name":"Lenoir City","latitude":35.7973,"longitude":-84.25603},{"id":120412,"name":"Lewis County","latitude":35.52728,"longitude":-87.4931},{"id":120419,"name":"Lewisburg","latitude":35.44924,"longitude":-86.78889},{"id":120444,"name":"Lexington","latitude":35.6509,"longitude":-88.39338},{"id":120524,"name":"Lincoln County","latitude":35.14052,"longitude":-86.58894},{"id":120561,"name":"Linden","latitude":35.61729,"longitude":-87.83947},{"id":120649,"name":"Livingston","latitude":36.3834,"longitude":-85.32302},{"id":120728,"name":"Lone Oak","latitude":35.20063,"longitude":-85.36413},{"id":120766,"name":"Lookout Mountain","latitude":34.99424,"longitude":-85.3494},{"id":120774,"name":"Loretto","latitude":35.07786,"longitude":-87.43974},{"id":120799,"name":"Loudon","latitude":35.73285,"longitude":-84.33381},{"id":120800,"name":"Loudon County","latitude":35.73478,"longitude":-84.31187},{"id":120815,"name":"Louisville","latitude":35.82175,"longitude":-84.04796},{"id":120897,"name":"Luttrell","latitude":36.19953,"longitude":-83.74185},{"id":120915,"name":"Lynchburg","latitude":35.28314,"longitude":-86.37416},{"id":120972,"name":"Macon County","latitude":36.53203,"longitude":-86.00727},{"id":121011,"name":"Madison County","latitude":35.60814,"longitude":-88.83847},{"id":121026,"name":"Madisonville","latitude":35.5198,"longitude":-84.36353},{"id":121093,"name":"Manchester","latitude":35.48174,"longitude":-86.0886},{"id":121258,"name":"Marion County","latitude":35.12935,"longitude":-85.62203},{"id":121315,"name":"Marshall County","latitude":35.46886,"longitude":-86.76502},{"id":121335,"name":"Martin","latitude":36.3434,"longitude":-88.85034},{"id":121364,"name":"Maryville","latitude":35.75647,"longitude":-83.97046},{"id":121367,"name":"Mascot","latitude":36.0612,"longitude":-83.74573},{"id":121371,"name":"Mason","latitude":35.41175,"longitude":-89.53285},{"id":121426,"name":"Maury County","latitude":35.61694,"longitude":-87.07701},{"id":121441,"name":"Maynardville","latitude":36.25064,"longitude":-83.79741},{"id":121498,"name":"McEwen","latitude":36.10784,"longitude":-87.63307},{"id":121520,"name":"McKenzie","latitude":36.13256,"longitude":-88.51866},{"id":121539,"name":"McMinn County","latitude":35.42475,"longitude":-84.61747},{"id":121540,"name":"McMinnville","latitude":35.6834,"longitude":-85.76998},{"id":121544,"name":"McNairy County","latitude":35.17545,"longitude":-88.56364},{"id":121602,"name":"Medina","latitude":35.80285,"longitude":-88.77478},{"id":121618,"name":"Meigs County","latitude":35.51283,"longitude":-84.81339},{"id":121639,"name":"Memphis","latitude":35.14953,"longitude":-90.04898},{"id":121763,"name":"Middle Valley","latitude":35.1959,"longitude":-85.18468},{"id":121810,"name":"Midtown","latitude":35.87952,"longitude":-84.5641},{"id":121817,"name":"Midway","latitude":36.30011,"longitude":-82.42375},{"id":121836,"name":"Milan","latitude":35.91979,"longitude":-88.75895},{"id":121888,"name":"Millersville","latitude":36.37116,"longitude":-86.71},{"id":121891,"name":"Millington","latitude":35.34147,"longitude":-89.89731},{"id":122076,"name":"Monroe County","latitude":35.44265,"longitude":-84.25279},{"id":122112,"name":"Monteagle","latitude":35.24008,"longitude":-85.8397},{"id":122118,"name":"Monterey","latitude":36.14756,"longitude":-85.2683},{"id":122149,"name":"Montgomery County","latitude":36.49686,"longitude":-87.38289},{"id":122202,"name":"Moore County","latitude":35.28462,"longitude":-86.35877},{"id":122242,"name":"Morgan County","latitude":36.13502,"longitude":-84.6492},{"id":122281,"name":"Morristown","latitude":36.21398,"longitude":-83.29489},{"id":122304,"name":"Mosheim","latitude":36.18954,"longitude":-82.95849},{"id":122336,"name":"Mount Carmel","latitude":36.54538,"longitude":-82.66099},{"id":122359,"name":"Mount Juliet","latitude":36.20005,"longitude":-86.51861},{"id":122375,"name":"Mount Pleasant","latitude":35.53424,"longitude":-87.20695},{"id":122412,"name":"Mountain City","latitude":36.47456,"longitude":-81.80484},{"id":122443,"name":"Mowbray Mountain","latitude":35.27536,"longitude":-85.22246},{"id":122471,"name":"Munford","latitude":35.44925,"longitude":-89.81508},{"id":122482,"name":"Murfreesboro","latitude":35.84562,"longitude":-86.39027},{"id":122577,"name":"Nashville","latitude":36.16589,"longitude":-86.78444},{"id":122725,"name":"New Hope","latitude":35.00508,"longitude":-85.6583},{"id":122732,"name":"New Johnsonville","latitude":36.02117,"longitude":-87.96698},{"id":122750,"name":"New Market","latitude":36.10398,"longitude":-83.55268},{"id":122780,"name":"New South Memphis","latitude":35.08676,"longitude":-90.05676},{"id":122785,"name":"New Tazewell","latitude":36.44258,"longitude":-83.59963},{"id":122789,"name":"New Union","latitude":35.53258,"longitude":-86.08082},{"id":122809,"name":"Newbern","latitude":36.11285,"longitude":-89.26174},{"id":122843,"name":"Newport","latitude":35.96704,"longitude":-83.18766},{"id":122933,"name":"Nolensville","latitude":35.95229,"longitude":-86.66944},{"id":122955,"name":"Norris","latitude":36.19563,"longitude":-84.06797},{"id":123237,"name":"Oak Grove","latitude":36.41177,"longitude":-82.42459},{"id":123244,"name":"Oak Hill","latitude":36.08784,"longitude":-86.78305},{"id":123262,"name":"Oak Ridge","latitude":36.01036,"longitude":-84.26964},{"id":123285,"name":"Oakland","latitude":35.22898,"longitude":-89.51508},{"id":123317,"name":"Obion","latitude":36.25896,"longitude":-89.19174},{"id":123318,"name":"Obion County","latitude":36.35825,"longitude":-89.1488},{"id":123444,"name":"Oliver Springs","latitude":36.04452,"longitude":-84.34437},{"id":123446,"name":"Olivet","latitude":35.21425,"longitude":-88.20031},{"id":123472,"name":"Oneida","latitude":36.49813,"longitude":-84.51272},{"id":123654,"name":"Overton County","latitude":36.345,"longitude":-85.28808},{"id":123833,"name":"Paris","latitude":36.302,"longitude":-88.32671},{"id":123838,"name":"Park City","latitude":35.08203,"longitude":-86.57111},{"id":123892,"name":"Parsons","latitude":35.64979,"longitude":-88.1267},{"id":123985,"name":"Pegram","latitude":36.10061,"longitude":-87.05112},{"id":124081,"name":"Perry County","latitude":35.64263,"longitude":-87.85897},{"id":124159,"name":"Pickett County","latitude":36.55841,"longitude":-85.07499},{"id":124183,"name":"Pigeon Forge","latitude":35.78842,"longitude":-83.55433},{"id":124199,"name":"Pikeville","latitude":35.60562,"longitude":-85.18885},{"id":124220,"name":"Pine Crest","latitude":36.29927,"longitude":-82.31792},{"id":124276,"name":"Piperton","latitude":35.04509,"longitude":-89.62175},{"id":124332,"name":"Plainview","latitude":36.17731,"longitude":-83.79534},{"id":124380,"name":"Pleasant View","latitude":36.39422,"longitude":-87.03667},{"id":124445,"name":"Polk County","latitude":35.1199,"longitude":-84.5233},{"id":124558,"name":"Portland","latitude":36.58171,"longitude":-86.51638},{"id":124614,"name":"Powells Crossroads","latitude":35.18952,"longitude":-85.4858},{"id":124733,"name":"Pulaski","latitude":35.1998,"longitude":-87.03084},{"id":124764,"name":"Putnam County","latitude":36.14083,"longitude":-85.49519},{"id":124937,"name":"Red Bank","latitude":35.11229,"longitude":-85.29413},{"id":124941,"name":"Red Boiling Springs","latitude":36.53339,"longitude":-85.84998},{"id":125043,"name":"Rhea County","latitude":35.60871,"longitude":-84.9244},{"id":125126,"name":"Ridgely","latitude":36.2634,"longitude":-89.48785},{"id":125128,"name":"Ridgetop","latitude":36.39505,"longitude":-86.77944},{"id":125163,"name":"Ripley","latitude":35.74536,"longitude":-89.5298},{"id":125223,"name":"Roan Mountain","latitude":36.19623,"longitude":-82.0704},{"id":125224,"name":"Roane County","latitude":35.84786,"longitude":-84.52324},{"id":125246,"name":"Robertson County","latitude":36.52546,"longitude":-86.87057},{"id":125332,"name":"Rockwood","latitude":35.86563,"longitude":-84.68494},{"id":125340,"name":"Rocky Top","latitude":36.21786,"longitude":-84.15465},{"id":125356,"name":"Rogersville","latitude":36.40732,"longitude":-83.00544},{"id":125517,"name":"Rural Hill","latitude":36.11673,"longitude":-86.47916},{"id":125548,"name":"Rutherford","latitude":36.12757,"longitude":-88.9859},{"id":125553,"name":"Rutherford County","latitude":35.8427,"longitude":-86.41674},{"id":125559,"name":"Rutledge","latitude":36.28092,"longitude":-83.5149},{"id":125725,"name":"Sale Creek","latitude":35.38229,"longitude":-85.10884},{"id":125976,"name":"Savannah","latitude":35.2248,"longitude":-88.2492},{"id":126049,"name":"Scott County","latitude":36.42854,"longitude":-84.50352},{"id":126142,"name":"Selmer","latitude":35.17008,"longitude":-88.59227},{"id":126163,"name":"Sequatchie County","latitude":35.37115,"longitude":-85.41059},{"id":126181,"name":"Sevier County","latitude":35.78466,"longitude":-83.52418},{"id":126183,"name":"Sevierville","latitude":35.86815,"longitude":-83.56184},{"id":126185,"name":"Sewanee","latitude":35.20314,"longitude":-85.92109},{"id":126194,"name":"Seymour","latitude":35.89064,"longitude":-83.72462},{"id":126200,"name":"Shackle Island","latitude":36.3706,"longitude":-86.61666},{"id":126277,"name":"Shelby County","latitude":35.184,"longitude":-89.8956},{"id":126284,"name":"Shelbyville","latitude":35.48341,"longitude":-86.46027},{"id":126412,"name":"Signal Mountain","latitude":35.12257,"longitude":-85.34385},{"id":126514,"name":"Smith County","latitude":36.25053,"longitude":-85.95671},{"id":126530,"name":"Smithville","latitude":35.96062,"longitude":-85.81415},{"id":126536,"name":"Smyrna","latitude":35.98284,"longitude":-86.5186},{"id":126540,"name":"Sneedville","latitude":36.52981,"longitude":-83.2174},{"id":126563,"name":"Soddy-Daisy","latitude":35.2359,"longitude":-85.19079},{"id":126593,"name":"Somerville","latitude":35.2437,"longitude":-89.35007},{"id":126635,"name":"South Carthage","latitude":36.242,"longitude":-85.95193},{"id":126639,"name":"South Cleveland","latitude":35.14119,"longitude":-84.87217},{"id":126656,"name":"South Fulton","latitude":36.50089,"longitude":-88.87534},{"id":126710,"name":"South Pittsburg","latitude":35.0123,"longitude":-85.70441},{"id":126810,"name":"Sparta","latitude":35.9259,"longitude":-85.46414},{"id":126823,"name":"Spencer","latitude":35.74729,"longitude":-85.46664},{"id":126851,"name":"Spring City","latitude":35.69201,"longitude":-84.86078},{"id":126862,"name":"Spring Hill","latitude":35.75118,"longitude":-86.93},{"id":126895,"name":"Springfield","latitude":36.50921,"longitude":-86.885},{"id":126922,"name":"Spurgeon","latitude":36.43955,"longitude":-82.4557},{"id":127051,"name":"Stewart County","latitude":36.5011,"longitude":-87.83846},{"id":127187,"name":"Sullivan County","latitude":36.51292,"longitude":-82.30414},{"id":127225,"name":"Sumner County","latitude":36.46941,"longitude":-86.46036},{"id":127289,"name":"Surgoinsville","latitude":36.47093,"longitude":-82.85183},{"id":127341,"name":"Sweetwater","latitude":35.60146,"longitude":-84.46104},{"id":127468,"name":"Tazewell","latitude":36.45425,"longitude":-83.56935},{"id":127490,"name":"Tellico Village","latitude":35.68321,"longitude":-84.25518},{"id":127510,"name":"Tennessee Ridge","latitude":36.312,"longitude":-87.77336},{"id":127593,"name":"Thompson's Station","latitude":35.80201,"longitude":-86.91139},{"id":127622,"name":"Three Way","latitude":35.7759,"longitude":-88.8595},{"id":127679,"name":"Tipton County","latitude":35.49687,"longitude":-89.75924},{"id":127681,"name":"Tiptonville","latitude":36.3784,"longitude":-89.47202},{"id":127772,"name":"Tracy City","latitude":35.26036,"longitude":-85.73608},{"id":127805,"name":"Trenton","latitude":35.98062,"longitude":-88.94145},{"id":127837,"name":"Trousdale County","latitude":36.39204,"longitude":-86.15675},{"id":127847,"name":"Troy","latitude":36.33868,"longitude":-89.16396},{"id":127886,"name":"Tullahoma","latitude":35.36202,"longitude":-86.20943},{"id":127913,"name":"Tusculum","latitude":36.1751,"longitude":-82.75876},{"id":127969,"name":"Unicoi","latitude":36.19539,"longitude":-82.34958},{"id":127970,"name":"Unicoi County","latitude":36.11082,"longitude":-82.43224},{"id":127982,"name":"Union City","latitude":36.42423,"longitude":-89.05701},{"id":127997,"name":"Union County","latitude":36.28787,"longitude":-83.83751},{"id":128019,"name":"Unionville","latitude":35.62174,"longitude":-86.5925},{"id":128130,"name":"Van Buren County","latitude":35.69598,"longitude":-85.45261},{"id":128305,"name":"Vonore","latitude":35.59008,"longitude":-84.24186},{"id":128367,"name":"Walden","latitude":35.16479,"longitude":-85.30135},{"id":128421,"name":"Walnut Hill","latitude":36.56983,"longitude":-82.2568},{"id":128491,"name":"Warren County","latitude":35.67868,"longitude":-85.7785},{"id":128523,"name":"Wartburg","latitude":36.1048,"longitude":-84.59716},{"id":128565,"name":"Washington County","latitude":36.2933,"longitude":-82.49743},{"id":128619,"name":"Watertown","latitude":36.10034,"longitude":-86.13193},{"id":128666,"name":"Waverly","latitude":36.08395,"longitude":-87.79475},{"id":128696,"name":"Wayne County","latitude":35.23992,"longitude":-87.78801},{"id":128708,"name":"Waynesboro","latitude":35.31952,"longitude":-87.76225},{"id":128714,"name":"Weakley County","latitude":36.2983,"longitude":-88.71774},{"id":129053,"name":"Westmoreland","latitude":36.56199,"longitude":-86.24804},{"id":129127,"name":"White Bluff","latitude":36.10756,"longitude":-87.22084},{"id":129137,"name":"White County","latitude":35.92635,"longitude":-85.45518},{"id":129143,"name":"White House","latitude":36.47032,"longitude":-86.65138},{"id":129152,"name":"White Pine","latitude":36.10759,"longitude":-83.28683},{"id":129190,"name":"Whiteville","latitude":35.32647,"longitude":-89.14951},{"id":129212,"name":"Whitwell","latitude":35.20146,"longitude":-85.51913},{"id":129239,"name":"Wildwood","latitude":35.8037,"longitude":-83.87129},{"id":129242,"name":"Wildwood Lake","latitude":35.09202,"longitude":-84.85439},{"id":129277,"name":"Williamson County","latitude":35.89378,"longitude":-86.8986},{"id":129336,"name":"Wilson County","latitude":36.15486,"longitude":-86.29763},{"id":129355,"name":"Winchester","latitude":35.18592,"longitude":-86.11221},{"id":129507,"name":"Woodbury","latitude":35.82757,"longitude":-86.07166}]