[{"id":10204,"name":"Amapá","latitude":1.85706,"longitude":-50.84374},{"id":10933,"name":"Calçoene","latitude":2.36098,"longitude":-51.45285},{"id":11541,"name":"Cutias","latitude":0.99713,"longitude":-50.52041},{"id":11812,"name":"Ferreira Gomes","latitude":0.91012,"longitude":-51.35442},{"id":12462,"name":"Itaubal","latitude":0.57732,"longitude":-50.67833},{"id":12798,"name":"Laranjal do Jari","latitude":0.93828,"longitude":-53.22949},{"id":12887,"name":"Macapá","latitude":0.03889,"longitude":-51.06639},{"id":13088,"name":"Mazagão","latitude":-0.115,"longitude":-51.28944},{"id":13492,"name":"Oiapoque","latitude":2.70795,"longitude":-52.16963},{"id":13751,"name":"Pedra Branca do Amapari","latitude":1.14843,"longitude":-52.40118},{"id":14008,"name":"Porto Grande","latitude":0.56553,"longitude":-51.71181},{"id":14058,"name":"Pracuúba","latitude":1.67076,"longitude":-51.2449},{"id":14568,"name":"Santana","latitude":-0.05833,"longitude":-51.18167},{"id":14739,"name":"Serra do Navio","latitude":1.65803,"longitude":-52.28195},{"id":15255,"name":"Tartarugalzinho","latitude":1.263,"longitude":-51.10973},{"id":15602,"name":"Vitória do Jari","latitude":-0.95653,"longitude":-52.03443}]