[{"id":9843,"name":"Challapata","latitude":-18.90208,"longitude":-66.77048},{"id":9868,"name":"Huanuni","latitude":-18.289,"longitude":-66.83583},{"id":9879,"name":"Litoral de Atacama","latitude":-18.76071,"longitude":-68.24295},{"id":9882,"name":"Machacamarca","latitude":-18.17251,"longitude":-67.02099},{"id":9889,"name":"Nor Carangas Province","latitude":-17.8375,"longitude":-67.9433},{"id":9891,"name":"Oruro","latitude":-17.98333,"longitude":-67.15},{"id":9896,"name":"Poop칩","latitude":-18.38026,"longitude":-66.96695},{"id":9906,"name":"Provincia Avaroa","latitude":-19.0,"longitude":-66.66667},{"id":9915,"name":"Provincia Carangas","latitude":-18.33333,"longitude":-67.75},{"id":9917,"name":"Provincia Cercado","latitude":-17.91667,"longitude":-67.08333},{"id":9942,"name":"Provincia Ladislao Cabrera","latitude":-19.5,"longitude":-67.66667},{"id":9969,"name":"Provincia Pantale칩n Dalence","latitude":-18.33333,"longitude":-66.91667},{"id":9970,"name":"Provincia Poop칩","latitude":-18.5,"longitude":-66.91667},{"id":9976,"name":"Provincia Sabaya","latitude":-19.0,"longitude":-68.58333},{"id":9977,"name":"Provincia Sajama","latitude":-18.2,"longitude":-68.55},{"id":9978,"name":"Provincia San Pedro de Totora","latitude":-17.83333,"longitude":-68.2},{"id":9981,"name":"Provincia Saucari","latitude":-18.25,"longitude":-67.41667},{"id":9988,"name":"Provincia Tom치s Barron","latitude":-17.83333,"longitude":-68.25},{"id":10000,"name":"Puerto de Mejillones","latitude":-18.99266,"longitude":-68.68446},{"id":10028,"name":"Sebastian Pagador Province","latitude":-19.21667,"longitude":-66.21667},{"id":10032,"name":"Sud Carangas Province","latitude":-18.5,"longitude":-68.25},{"id":10040,"name":"Totoral","latitude":-18.49587,"longitude":-66.8738}]