[{"id":150201,"name":"Abouzeidabad","latitude":33.9016576,"longitude":51.7433737},{"id":134557,"name":"Abrisham","latitude":32.55613,"longitude":51.57325},{"id":150226,"name":"Afus","latitude":33.0249555,"longitude":50.088129},{"id":150282,"name":"Alavijeh","latitude":33.0516901,"longitude":51.0599254},{"id":150277,"name":"Anarak","latitude":33.3070206,"longitude":53.687675},{"id":135084,"name":"Aran va Bidgol","latitude":34.1,"longitude":51.9},{"id":134570,"name":"Ardestan","latitude":33.3761,"longitude":52.3694},{"id":150230,"name":"Asghar Abad","latitude":32.6526091,"longitude":51.471194},{"id":150228,"name":"Askaran","latitude":32.8662328,"longitude":50.8471942},{"id":150285,"name":"Badroud","latitude":33.6893967,"longitude":51.9978082},{"id":150278,"name":"BafrƒÅn","latitude":32.8393832,"longitude":53.1366205},{"id":150263,"name":"Baghbahadoran","latitude":32.3787285,"longitude":51.1819124},{"id":150264,"name":"Baghshad","latitude":32.382261,"longitude":51.2294413},{"id":150250,"name":"Baharan Shahr","latitude":32.6509743,"longitude":51.7207093},{"id":150207,"name":"Baharestan","latitude":32.48391,"longitude":51.7339319},{"id":150247,"name":"Barf Anbar","latitude":32.9952365,"longitude":50.1757621},{"id":150255,"name":"Barzok","latitude":33.7769941,"longitude":51.1974042},{"id":134812,"name":"Borkhvar","latitude":32.98333,"longitude":51.76667},{"id":134593,"name":"Buin va Miandasht","latitude":33.07241,"longitude":50.14641},{"id":134609,"name":"Chadegan","latitude":32.76825,"longitude":50.62873},{"id":150266,"name":"Chamgordan","latitude":32.3929167,"longitude":51.3308286},{"id":150265,"name":"Chermahin","latitude":32.3243343,"longitude":51.143245},{"id":150246,"name":"Damaneh","latitude":33.0175874,"longitude":50.4790449},{"id":134627,"name":"Daran","latitude":32.98871,"longitude":50.41267},{"id":150221,"name":"Dastgerd","latitude":32.8022271,"longitude":51.657114},{"id":150281,"name":"Dehagh","latitude":33.1072833,"longitude":50.9389684},{"id":150236,"name":"Dehaghan","latitude":31.937249,"longitude":51.6452264},{"id":134618,"name":"Dehaqan","latitude":31.94004,"longitude":51.64786},{"id":150272,"name":"Diziche","latitude":32.4043349,"longitude":51.4847655},{"id":150222,"name":"Dolatabad","latitude":32.8082647,"longitude":51.6797517},{"id":150231,"name":"Dorcheh","latitude":32.6150096,"longitude":51.5346145},{"id":134623,"name":"Dorcheh Piaz","latitude":32.61528,"longitude":51.55556},{"id":134624,"name":"Dowlatabad","latitude":32.79978,"longitude":51.69553},{"id":134863,"name":"Esfahan","latitude":32.26667,"longitude":52.45},{"id":150206,"name":"Ezhieh","latitude":32.442367,"longitude":52.3718261},{"id":134632,"name":"Falavarjan","latitude":32.5553,"longitude":51.50973},{"id":134636,"name":"Fareydunshahr","latitude":32.94098,"longitude":50.121},{"id":150235,"name":"Farrokhi","latitude":33.8419575,"longitude":54.9437856},{"id":134639,"name":"Fereydan","latitude":33.1,"longitude":50.26667},{"id":150248,"name":"Fereydun Shahr","latitude":32.937186,"longitude":50.1202939},{"id":150270,"name":"Fooladshahr","latitude":32.5254951,"longitude":51.2963009},{"id":150242,"name":"Gazborkhar","latitude":32.802222,"longitude":51.621111},{"id":150253,"name":"Ghahderijan","latitude":32.5688954,"longitude":51.4095348},{"id":150257,"name":"Ghamsar","latitude":33.7406642,"longitude":51.4100073},{"id":150284,"name":"Goldasht","latitude":32.6217327,"longitude":51.4273773},{"id":134645,"name":"Golpayegan","latitude":33.4537,"longitude":50.28836},{"id":150261,"name":"Golshahr","latitude":33.505957,"longitude":50.4527807},{"id":150237,"name":"Golshan","latitude":31.9265144,"longitude":51.7227954},{"id":150262,"name":"Googad","latitude":33.4763767,"longitude":50.344237},{"id":150241,"name":"Gorgab","latitude":32.8662504,"longitude":51.5887927},{"id":150219,"name":"Habibabad","latitude":32.8312424,"longitude":51.7659903},{"id":150238,"name":"Hanna","latitude":31.1974485,"longitude":51.713966},{"id":150218,"name":"Harand","latitude":32.574865,"longitude":52.3993773},{"id":150209,"name":"Hassan Abad","latitude":32.1392797,"longitude":52.621293},{"id":150249,"name":"Imanshahr","latitude":32.4839242,"longitude":51.4349304},{"id":134656,"name":"Isfahan","latitude":32.65246,"longitude":51.67462},{"id":150234,"name":"Jandaq","latitude":34.0426131,"longitude":54.4051123},{"id":150256,"name":"Josheqaneqali","latitude":33.5560138,"longitude":51.1353468},{"id":150258,"name":"Jowsheqan va Kamu","latitude":33.6,"longitude":51.233333},{"id":150280,"name":"Jowzdan","latitude":32.5560172,"longitude":51.356964},{"id":150283,"name":"Kahrizsang","latitude":32.6325252,"longitude":51.4680719},{"id":150275,"name":"Karkevand","latitude":32.3422788,"longitude":51.4375161},{"id":134935,"name":"Kashan","latitude":33.88333,"longitude":51.28333},{"id":150254,"name":"Kelishad and Soderjaan","latitude":32.5518585,"longitude":51.5215873},{"id":134666,"name":"Kelishad va Sudarjan","latitude":32.55118,"longitude":51.52758},{"id":150286,"name":"Khaled Abad","latitude":33.7007161,"longitude":51.9828843},{"id":150233,"name":"Khansar","latitude":33.2674819,"longitude":50.2487159},{"id":134672,"name":"Khomeyni Shahr","latitude":32.6856,"longitude":51.53609},{"id":150220,"name":"Khorzugh","latitude":32.780038,"longitude":51.6254424},{"id":134680,"name":"Khur","latitude":33.77512,"longitude":55.08329},{"id":134677,"name":"Khvansar","latitude":33.22052,"longitude":50.31497},{"id":150239,"name":"Komeh","latitude":31.0632087,"longitude":51.5845656},{"id":150225,"name":"Komshecheh","latitude":32.9066492,"longitude":51.8017817},{"id":150232,"name":"Kooshk","latitude":32.6386692,"longitude":51.4909028},{"id":150213,"name":"Kuhpayeh","latitude":32.7028747,"longitude":52.4222082},{"id":150243,"name":"Laybid","latitude":33.4568206,"longitude":50.6866693},{"id":134942,"name":"Lenjan","latitude":32.36667,"longitude":51.2},{"id":150205,"name":"Mahabad","latitude":33.5289096,"longitude":52.2133613},{"id":150276,"name":"Majlesi","latitude":32.1953678,"longitude":51.483693},{"id":150245,"name":"Manzariyeh","latitude":31.9463813,"longitude":51.8713045},{"id":150259,"name":"Mashkat","latitude":34.183852,"longitude":51.2570994},{"id":135043,"name":"Meymeh","latitude":33.4450491,"longitude":51.1634588},{"id":134703,"name":"Mobarakeh","latitude":32.34651,"longitude":51.50449},{"id":150214,"name":"Mohammad Abad","latitude":32.3174267,"longitude":52.0917295},{"id":150279,"name":"Naein","latitude":32.8614894,"longitude":53.074436},{"id":134718,"name":"Nain","latitude":32.86006,"longitude":53.08749},{"id":134707,"name":"Najafabad","latitude":32.6344,"longitude":51.3668},{"id":150215,"name":"Nasr Abad","latitude":32.2801661,"longitude":52.0529437},{"id":134711,"name":"Natanz","latitude":33.51118,"longitude":51.91808},{"id":150260,"name":"Niasar","latitude":33.977457,"longitude":51.1412285},{"id":150216,"name":"Nik Abad","latitude":32.3038007,"longitude":52.1897363},{"id":150203,"name":"Nushabad","latitude":34.0795706,"longitude":51.4278602},{"id":150251,"name":"Pir Bakran","latitude":32.4674776,"longitude":51.5390538},{"id":134735,"name":"Qahderijan","latitude":32.5767,"longitude":51.455},{"id":150212,"name":"Qahjavarestan","latitude":32.70272036,"longitude":51.8280244},{"id":134751,"name":"Rehnan","latitude":32.68325,"longitude":51.60158},{"id":150227,"name":"Rezvanshahr","latitude":32.6658105,"longitude":51.0235971},{"id":150229,"name":"Rezveh","latitude":32.8368771,"longitude":50.5652189},{"id":150269,"name":"Sedeh Lenjan","latitude":32.3744779,"longitude":51.309124},{"id":150202,"name":"Sefid Shahr","latitude":34.1240612,"longitude":51.3470507},{"id":150211,"name":"Sejzi","latitude":32.6986664,"longitude":52.0667404},{"id":135034,"name":"Semirom","latitude":31.3,"longitude":51.53333},{"id":135111,"name":"Shahin Shahr","latitude":32.85788,"longitude":51.5529},{"id":135104,"name":"Shahreza","latitude":32.0089,"longitude":51.8668},{"id":150224,"name":"Shapur Abad","latitude":32.8433764,"longitude":51.7391897},{"id":150223,"name":"Sin","latitude":32.8502804,"longitude":51.6476189},{"id":150274,"name":"Talkhooncheh","latitude":32.2499931,"longitude":51.5188403},{"id":150287,"name":"Tarq Rud","latitude":33.3468269,"longitude":51.7911439},{"id":135136,"name":"Tiran","latitude":32.7026,"longitude":51.1537},{"id":150208,"name":"Toodeshk","latitude":32.7208919,"longitude":52.6562261},{"id":150240,"name":"Vanak","latitude":31.5275575,"longitude":51.3214762},{"id":150271,"name":"Varnamkhast","latitude":32.3552212,"longitude":51.3720596},{"id":150217,"name":"Varzaneh","latitude":32.4176745,"longitude":52.6381787},{"id":150244,"name":"Vazvan","latitude":33.4179911,"longitude":51.173973},{"id":150268,"name":"Zarinshahr","latitude":32.4117636,"longitude":51.3631862},{"id":135144,"name":"Zarrin Shahr","latitude":32.3897,"longitude":51.3766},{"id":150204,"name":"Zavareh","latitude":33.4441168,"longitude":52.4654243},{"id":150267,"name":"Zayandehrod","latitude":32.3825772,"longitude":51.25747},{"id":150252,"name":"Zazeran","latitude":32.595996,"longitude":51.4839934},{"id":150210,"name":"Ziar","latitude":32.5112446,"longitude":51.9268047},{"id":150273,"name":"Zibashahr","latitude":32.3868081,"longitude":51.5448259}]