[{"id":89899,"name":"Agrieș","latitude":47.40022,"longitude":24.13491},{"id":89961,"name":"Anieș","latitude":47.41347,"longitude":24.76853},{"id":90080,"name":"Beclean","latitude":47.18333,"longitude":24.18333},{"id":90129,"name":"Bichigiu","latitude":47.42522,"longitude":24.33893},{"id":90147,"name":"Bistriţa","latitude":47.13316,"longitude":24.50011},{"id":90148,"name":"Bistriţa Bârgăului","latitude":47.21667,"longitude":24.76667},{"id":90268,"name":"Braniştea","latitude":47.16667,"longitude":24.06667},{"id":90284,"name":"Breaza","latitude":47.35108,"longitude":24.0622},{"id":90376,"name":"Budacu de Jos","latitude":47.08333,"longitude":24.51667},{"id":90377,"name":"Budacu de Sus","latitude":47.06118,"longitude":24.65752},{"id":90383,"name":"Budeşti","latitude":46.88333,"longitude":24.25},{"id":93827,"name":"Căianu Mic","latitude":47.23333,"longitude":24.15},{"id":90671,"name":"Chiochiş","latitude":46.98333,"longitude":24.18333},{"id":90686,"name":"Chiuza","latitude":47.23333,"longitude":24.25},{"id":90695,"name":"Ciceu-Giurgeşti","latitude":47.25,"longitude":24.01667},{"id":90696,"name":"Ciceu-Mihăiești","latitude":47.18568,"longitude":23.9748},{"id":90735,"name":"Cireșoaia","latitude":47.14265,"longitude":24.06217},{"id":90777,"name":"Cociu","latitude":47.19926,"longitude":24.23238},{"id":90998,"name":"Comuna Bistriţa Bârgăului","latitude":47.19026,"longitude":24.83429},{"id":91077,"name":"Comuna Braniştea","latitude":47.1625,"longitude":24.07815},{"id":91143,"name":"Comuna Budacu de Jos","latitude":47.08214,"longitude":24.5184},{"id":91146,"name":"Comuna Budeşti","latitude":46.83403,"longitude":24.23802},{"id":91568,"name":"Comuna Căianu","latitude":47.25389,"longitude":24.1344},{"id":91317,"name":"Comuna Chiochiş","latitude":46.98381,"longitude":24.18318},{"id":91328,"name":"Comuna Chiuza","latitude":47.24007,"longitude":24.24001},{"id":91331,"name":"Comuna Ciceu-Giurgeşti","latitude":47.26529,"longitude":24.0038},{"id":91332,"name":"Comuna Ciceu-Mihăieşti","latitude":47.21738,"longitude":23.95696},{"id":91472,"name":"Comuna Coşbuc","latitude":47.36544,"longitude":24.3922},{"id":91722,"name":"Comuna Dumitra","latitude":47.21675,"longitude":24.43434},{"id":91724,"name":"Comuna Dumitriţa","latitude":47.06781,"longitude":24.63503},{"id":91755,"name":"Comuna Feldru","latitude":47.27796,"longitude":24.56415},{"id":91827,"name":"Comuna Galaţii Bistriţei","latitude":46.99307,"longitude":24.42153},{"id":92075,"name":"Comuna Ilva Mare","latitude":47.351,"longitude":24.8963},{"id":92076,"name":"Comuna Ilva Mică","latitude":47.3076,"longitude":24.66035},{"id":92131,"name":"Comuna Josenii Bârgăului","latitude":47.21238,"longitude":24.66351},{"id":92143,"name":"Comuna Lechinţa","latitude":47.01983,"longitude":24.32605},{"id":92160,"name":"Comuna Leşu","latitude":47.31077,"longitude":24.76369},{"id":92177,"name":"Comuna Livezile","latitude":47.17744,"longitude":24.63595},{"id":92204,"name":"Comuna Lunca Ilvei","latitude":47.36409,"longitude":24.97106},{"id":92391,"name":"Comuna Măgura Ilvei","latitude":47.36625,"longitude":24.82185},{"id":92395,"name":"Comuna Măieru","latitude":47.40738,"longitude":24.7568},{"id":92412,"name":"Comuna Mărişelu","latitude":47.01066,"longitude":24.5126},{"id":92247,"name":"Comuna Matei","latitude":46.9993,"longitude":24.26029},{"id":92265,"name":"Comuna Miceştii de Câmpie","latitude":46.84309,"longitude":24.31568},{"id":92287,"name":"Comuna Milas","latitude":46.82249,"longitude":24.43371},{"id":92330,"name":"Comuna Monor","latitude":46.95475,"longitude":24.70106},{"id":92436,"name":"Comuna Negrileşti","latitude":47.31054,"longitude":24.05557},{"id":92448,"name":"Comuna Nimigea","latitude":47.24697,"longitude":24.30623},{"id":92458,"name":"Comuna Nuşeni","latitude":47.09063,"longitude":24.17525},{"id":92540,"name":"Comuna Parva","latitude":47.39601,"longitude":24.54218},{"id":92568,"name":"Comuna Petru Rareş","latitude":47.19221,"longitude":24.00731},{"id":92624,"name":"Comuna Poiana  Ilvei","latitude":47.35749,"longitude":24.74104},{"id":92686,"name":"Comuna Prundu Bârgăului","latitude":47.22154,"longitude":24.7245},{"id":92854,"name":"Comuna Războeni-Cetate","latitude":47.11072,"longitude":24.62878},{"id":92750,"name":"Comuna Rebra","latitude":47.32588,"longitude":24.49984},{"id":92752,"name":"Comuna Rebrişoara","latitude":47.31994,"longitude":24.46568},{"id":92777,"name":"Comuna Rodna","latitude":47.4514,"longitude":24.82366},{"id":92784,"name":"Comuna Romuli","latitude":47.56247,"longitude":24.42897},{"id":92813,"name":"Comuna Runcu Salvei","latitude":47.34382,"longitude":24.32529},{"id":92868,"name":"Comuna Salva","latitude":47.30586,"longitude":24.35557},{"id":93059,"name":"Comuna Sânmihaiu de Câmpie","latitude":46.8964,"longitude":24.34323},{"id":93499,"name":"Comuna Şanţ","latitude":47.45266,"longitude":24.91842},{"id":93514,"name":"Comuna Şieu","latitude":47.01244,"longitude":24.62425},{"id":93516,"name":"Comuna Şieu-Măgheruş","latitude":47.08975,"longitude":24.37651},{"id":93517,"name":"Comuna Şieu-Odorhei","latitude":47.13288,"longitude":24.26856},{"id":93518,"name":"Comuna Şieuţ","latitude":46.9988,"longitude":24.67935},{"id":92929,"name":"Comuna Silivaşu De Câmpie","latitude":46.78127,"longitude":24.29155},{"id":93526,"name":"Comuna Şintereag","latitude":47.16796,"longitude":24.31655},{"id":92981,"name":"Comuna Spermezeu","latitude":47.3,"longitude":24.15},{"id":93227,"name":"Comuna Târlişua","latitude":47.40584,"longitude":24.16514},{"id":93131,"name":"Comuna Teaca","latitude":46.91151,"longitude":24.47653},{"id":93135,"name":"Comuna Telciu","latitude":47.4507,"longitude":24.39396},{"id":93152,"name":"Comuna Tiha Bârgăului","latitude":47.23676,"longitude":24.87913},{"id":93283,"name":"Comuna Uriu","latitude":47.21202,"longitude":24.07755},{"id":93284,"name":"Comuna Urmeniş","latitude":46.79559,"longitude":24.35923},{"id":93469,"name":"Comuna Zagra","latitude":47.37083,"longitude":24.26057},{"id":93629,"name":"Cormaia","latitude":47.36667,"longitude":24.68333},{"id":93688,"name":"Coşbuc","latitude":47.3654,"longitude":24.39115},{"id":93721,"name":"Cristeștii Ciceului","latitude":47.19326,"longitude":24.09605},{"id":93957,"name":"Dobric","latitude":47.2469,"longitude":24.12777},{"id":94097,"name":"Dumitra","latitude":47.21667,"longitude":24.48333},{"id":94100,"name":"Dumitrița","latitude":47.07143,"longitude":24.62579},{"id":94153,"name":"Feldru","latitude":47.28333,"longitude":24.6},{"id":94216,"name":"Frunzi","latitude":46.9,"longitude":24.33333},{"id":94273,"name":"Galaţii Bistriţei","latitude":46.98333,"longitude":24.4},{"id":94661,"name":"Ilva Mare","latitude":47.36667,"longitude":24.9},{"id":94662,"name":"Ilva Mică","latitude":47.31667,"longitude":24.66667},{"id":94749,"name":"Josenii Bârgăului","latitude":47.21667,"longitude":24.68333},{"id":94768,"name":"Lechinţa","latitude":47.01667,"longitude":24.35},{"id":94790,"name":"Leşu","latitude":47.31667,"longitude":24.75},{"id":94825,"name":"Livezile","latitude":47.18333,"longitude":24.56667},{"id":94865,"name":"Lunca Ilvei","latitude":47.36667,"longitude":24.98333},{"id":94867,"name":"Lunca Leșului","latitude":47.30943,"longitude":24.77602},{"id":95242,"name":"Măgura Ilvei","latitude":47.38333,"longitude":24.8},{"id":95249,"name":"Măieru","latitude":47.4,"longitude":24.75},{"id":95277,"name":"Mărişelu","latitude":47.01667,"longitude":24.51667},{"id":94936,"name":"Matei","latitude":46.98333,"longitude":24.26667},{"id":94966,"name":"Miceştii de Câmpie","latitude":46.86667,"longitude":24.31667},{"id":94999,"name":"Mijlocenii Bârgăului","latitude":47.21592,"longitude":24.68936},{"id":95000,"name":"Milaş","latitude":46.81667,"longitude":24.43333},{"id":95069,"name":"Monor","latitude":46.96667,"longitude":24.7},{"id":95113,"name":"Municipiul Bistriţa","latitude":47.13499,"longitude":24.49115},{"id":95376,"name":"Năsăud","latitude":47.28333,"longitude":24.4},{"id":95322,"name":"Negrilești","latitude":47.27068,"longitude":24.04936},{"id":95328,"name":"Nepos","latitude":47.2775,"longitude":24.5332},{"id":95345,"name":"Nimigea de Jos","latitude":47.25357,"longitude":24.30084},{"id":95346,"name":"Nimigea de Sus","latitude":47.28333,"longitude":24.31667},{"id":95365,"name":"Nuşeni","latitude":47.1,"longitude":24.2},{"id":95401,"name":"Ocnița","latitude":46.86266,"longitude":24.48677},{"id":95460,"name":"Oraş Beclean","latitude":47.16124,"longitude":24.17385},{"id":95554,"name":"Oraş Nãsãud","latitude":47.27491,"longitude":24.41483},{"id":95595,"name":"Oraş Sângeorz-Bãi","latitude":47.3778,"longitude":24.66979},{"id":95715,"name":"Parva","latitude":47.4,"longitude":24.55},{"id":95754,"name":"Petriș","latitude":47.10301,"longitude":24.62314},{"id":95874,"name":"Poiana Ilvei","latitude":47.35749,"longitude":24.74104},{"id":95967,"name":"Prundu Bârgăului","latitude":47.21975,"longitude":24.74123},{"id":96204,"name":"Răpănaşu","latitude":47.38333,"longitude":24.18333},{"id":96064,"name":"Rebra","latitude":47.31667,"longitude":24.5},{"id":96066,"name":"Rebrişoara","latitude":47.28333,"longitude":24.45},{"id":96088,"name":"Reteag","latitude":47.19582,"longitude":24.01862},{"id":96099,"name":"Rodna","latitude":47.41667,"longitude":24.81667},{"id":96108,"name":"Romuli","latitude":47.53333,"longitude":24.43333},{"id":96155,"name":"Runcu Salvei","latitude":47.34382,"longitude":24.32529},{"id":96237,"name":"Salva","latitude":47.3,"longitude":24.35},{"id":96529,"name":"Sângeorz-Băi","latitude":47.3685,"longitude":24.67212},{"id":96536,"name":"Sânmihaiu de Câmpie","latitude":46.89257,"longitude":24.33589},{"id":97113,"name":"Șanț","latitude":47.45,"longitude":24.9},{"id":97044,"name":"Şieu","latitude":47.01667,"longitude":24.6},{"id":97045,"name":"Şieu-Măgheruş","latitude":47.08333,"longitude":24.38333},{"id":97046,"name":"Şieu-Odorhei","latitude":47.15194,"longitude":24.29159},{"id":97047,"name":"Şieuţ","latitude":46.98333,"longitude":24.65},{"id":96338,"name":"Silivașu de Câmpie","latitude":46.78333,"longitude":24.3},{"id":97055,"name":"Şintereag","latitude":47.18333,"longitude":24.3},{"id":96415,"name":"Spermezeu","latitude":47.3,"longitude":24.15},{"id":96513,"name":"Susenii Bârgăului","latitude":47.22311,"longitude":24.7073},{"id":96592,"name":"Târlişua","latitude":47.38333,"longitude":24.18333},{"id":106066,"name":"Teaca","latitude":46.91667,"longitude":24.51667},{"id":106076,"name":"Telcișor","latitude":47.46,"longitude":24.45158},{"id":106075,"name":"Telciu","latitude":47.43333,"longitude":24.4},{"id":106097,"name":"Tiha Bârgăului","latitude":47.23333,"longitude":24.76667},{"id":96560,"name":"Tureac","latitude":47.22967,"longitude":24.80589},{"id":96667,"name":"Unirea","latitude":47.1606,"longitude":24.53078},{"id":96678,"name":"Uriu","latitude":47.2,"longitude":24.05},{"id":96682,"name":"Urmeniş","latitude":46.76667,"longitude":24.36667},{"id":96712,"name":"Valea Borcutului","latitude":47.37483,"longitude":24.65293},{"id":96817,"name":"Viile Tecii","latitude":46.93333,"longitude":24.48333},{"id":96825,"name":"Viișoara","latitude":47.10332,"longitude":24.44949},{"id":96980,"name":"Zagra","latitude":47.33333,"longitude":24.28333}]