[{"id":56184,"name":"Atambua","latitude":-9.10611,"longitude":124.8925},{"id":56272,"name":"Ende","latitude":-8.8432,"longitude":121.6623},{"id":56319,"name":"Kabupaten Alor","latitude":-8.3,"longitude":124.56667},{"id":56352,"name":"Kabupaten Belu","latitude":-9.41258,"longitude":124.95066},{"id":56403,"name":"Kabupaten Ende","latitude":-8.84056,"longitude":121.66389},{"id":56406,"name":"Kabupaten Flores Timur","latitude":-8.24224,"longitude":122.96817},{"id":56475,"name":"Kabupaten Kupang","latitude":-9.91667,"longitude":123.83333},{"id":56493,"name":"Kabupaten Lembata","latitude":-8.41396,"longitude":123.55225},{"id":56510,"name":"Kabupaten Malaka","latitude":-9.5632,"longitude":124.89481},{"id":56524,"name":"Kabupaten Manggarai","latitude":-8.56667,"longitude":120.41667},{"id":56525,"name":"Kabupaten Manggarai Barat","latitude":-8.64484,"longitude":119.88281},{"id":56526,"name":"Kabupaten Manggarai Timur","latitude":-8.55533,"longitude":120.59761},{"id":56553,"name":"Kabupaten Nagekeo","latitude":-8.8721,"longitude":121.20963},{"id":56556,"name":"Kabupaten Ngada","latitude":-8.66667,"longitude":121.0},{"id":56613,"name":"Kabupaten Rote Ndao","latitude":-10.73617,"longitude":123.12054},{"id":56614,"name":"Kabupaten Sabu Raijua","latitude":-10.56286,"longitude":121.78894},{"id":56632,"name":"Kabupaten Sikka","latitude":-8.66667,"longitude":122.36667},{"id":56648,"name":"Kabupaten Sumba Barat","latitude":-9.56667,"longitude":119.45},{"id":56649,"name":"Kabupaten Sumba Barat Daya","latitude":-9.56216,"longitude":119.08905},{"id":56650,"name":"Kabupaten Sumba Tengah","latitude":-9.62941,"longitude":119.61914},{"id":56651,"name":"Kabupaten Sumba Timur","latitude":-9.88333,"longitude":120.25},{"id":56680,"name":"Kabupaten Timor Tengah Selatan","latitude":-9.83333,"longitude":124.4},{"id":56681,"name":"Kabupaten Timor Tengah Utara","latitude":-9.33136,"longitude":124.51904},{"id":56710,"name":"Kefamenanu","latitude":-9.44667,"longitude":124.47806},{"id":56721,"name":"Komodo","latitude":-8.5895,"longitude":119.4913},{"id":56760,"name":"Kota Kupang","latitude":-10.21667,"longitude":123.6},{"id":56826,"name":"Kupang","latitude":-10.17083,"longitude":123.60694},{"id":56830,"name":"Labuan Bajo","latitude":-8.4964,"longitude":119.8877},{"id":56866,"name":"Maumere","latitude":-8.6199,"longitude":122.2111},{"id":56883,"name":"Naisano Dua","latitude":-9.59806,"longitude":123.77028},{"id":56956,"name":"Ruteng","latitude":-8.61139,"longitude":120.46444},{"id":56989,"name":"Soe","latitude":-9.86071,"longitude":124.28395},{"id":57048,"name":"Waingapu","latitude":-9.6567,"longitude":120.2641}]