[{"id":89730,"name":"Caaguazú","latitude":-25.47104,"longitude":-56.01603},{"id":89740,"name":"Carayaó","latitude":-25.1975,"longitude":-56.39878},{"id":89742,"name":"Cecilio Baez","latitude":-25.07158,"longitude":-56.24386},{"id":89748,"name":"Colonia General Alfredo Stroessner","latitude":-25.36395,"longitude":-55.7069},{"id":89757,"name":"Coronel Oviedo","latitude":-25.44444,"longitude":-56.44028},{"id":89760,"name":"Doctor Juan Manuel Frutos","latitude":-25.3838,"longitude":-55.83215},{"id":89796,"name":"Mbutuý","latitude":-24.97518,"longitude":-56.30927},{"id":89816,"name":"Repatriación","latitude":-25.53333,"longitude":-55.95},{"id":89823,"name":"San Joaquín","latitude":-25.02853,"longitude":-56.0428},{"id":89824,"name":"San José","latitude":-25.53333,"longitude":-56.73333},{"id":89853,"name":"Yhú","latitude":-25.05784,"longitude":-55.92267}]