[{"id":107180,"name":"Ardanuç","latitude":41.12738,"longitude":42.06292},{"id":107184,"name":"Arhavi","latitude":41.35121,"longitude":41.30456},{"id":107196,"name":"Artvin","latitude":41.18161,"longitude":41.82172},{"id":107371,"name":"Borçka","latitude":41.35792,"longitude":41.66579},{"id":107834,"name":"Hopa","latitude":41.39046,"longitude":41.41966},{"id":107975,"name":"Kemalpaşa","latitude":41.48336,"longitude":41.5275},{"id":108226,"name":"Murgul","latitude":41.27937,"longitude":41.55514},{"id":108940,"name":"Şavşat","latitude":41.24027,"longitude":42.36109},{"id":108455,"name":"Seyitler","latitude":41.19484,"longitude":41.83696},{"id":108741,"name":"Yusufeli","latitude":40.82042,"longitude":41.53743}]