[{"id":106760,"name":"Abdurahmoni Jomí","latitude":37.94636,"longitude":68.80878},{"id":106763,"name":"Boshchorbogh","latitude":37.52027,"longitude":68.12825},{"id":106765,"name":"Bŭstonqal’a","latitude":37.84783,"longitude":68.83125},{"id":106767,"name":"Chubek","latitude":37.61453,"longitude":69.70525},{"id":106768,"name":"Danghara","latitude":38.09578,"longitude":69.33998},{"id":106770,"name":"Dŭstí","latitude":37.34812,"longitude":68.66398},{"id":106771,"name":"Farkhor","latitude":37.49219,"longitude":69.40356},{"id":106773,"name":"Gharavŭtí","latitude":37.56703,"longitude":68.44668},{"id":106778,"name":"Jilikŭl","latitude":37.49167,"longitude":68.53106},{"id":106784,"name":"Kirov","latitude":37.81908,"longitude":68.85905},{"id":106785,"name":"Kolkhozobod","latitude":37.58823,"longitude":68.65886},{"id":106788,"name":"Kŭlob","latitude":37.91459,"longitude":69.78454},{"id":106789,"name":"Moskovskiy","latitude":37.60931,"longitude":68.58094},{"id":106791,"name":"Mŭ’minobod","latitude":38.10714,"longitude":70.03213},{"id":106793,"name":"Nohiyai Kolkhozobod","latitude":37.57277,"longitude":68.81528},{"id":106795,"name":"Nohiyai Panj","latitude":37.31611,"longitude":69.16679},{"id":106797,"name":"Nohiyai Vakhsh","latitude":37.75602,"longitude":68.94138},{"id":106798,"name":"Norak","latitude":38.38917,"longitude":69.32272},{"id":106803,"name":"Orzu","latitude":37.5582,"longitude":68.81952},{"id":106806,"name":"Panj","latitude":37.23634,"longitude":69.09911},{"id":106810,"name":"Qŭrghonteppa","latitude":37.83399,"longitude":68.78186},{"id":106814,"name":"Shahritus","latitude":37.26206,"longitude":68.13849},{"id":106817,"name":"Sovet","latitude":38.0467,"longitude":69.58822},{"id":106820,"name":"Tartiki","latitude":37.58221,"longitude":68.13347},{"id":106824,"name":"Vakhsh","latitude":37.71485,"longitude":68.83456},{"id":106828,"name":"Vose’","latitude":37.80396,"longitude":69.64417},{"id":106829,"name":"Yovon","latitude":38.31408,"longitude":69.03784}]