[{"id":129790,"name":"Castillos","latitude":-34.19871,"longitude":-53.85919},{"id":129792,"name":"Cebollatí","latitude":-33.26703,"longitude":-53.79425},{"id":129793,"name":"Chui","latitude":-33.69792,"longitude":-53.45926},{"id":129798,"name":"Dieciocho de Julio","latitude":-33.68216,"longitude":-53.55325},{"id":129816,"name":"La Paloma","latitude":-34.66268,"longitude":-54.16452},{"id":129822,"name":"Lascano","latitude":-33.67235,"longitude":-54.2065},{"id":129853,"name":"Rocha","latitude":-34.48333,"longitude":-54.33333},{"id":129886,"name":"Velázquez","latitude":-34.03631,"longitude":-54.28054}]