[{"id":105376,"name":"Amphoe Kapho","latitude":6.60264,"longitude":101.54327},{"id":105416,"name":"Amphoe Khok Pho","latitude":6.70858,"longitude":101.11693},{"id":105503,"name":"Amphoe Mae Lan","latitude":6.66833,"longitude":101.23149},{"id":105522,"name":"Amphoe Mai Kaen","latitude":6.61603,"longitude":101.67864},{"id":105527,"name":"Amphoe Mayo","latitude":6.70764,"longitude":101.40359},{"id":105566,"name":"Amphoe Mueang Pattani","latitude":6.85581,"longitude":101.26761},{"id":105661,"name":"Amphoe Nong Chik","latitude":6.80011,"longitude":101.17057},{"id":105710,"name":"Amphoe Panare","latitude":6.81211,"longitude":101.51247},{"id":105821,"name":"Amphoe Sai Buri","latitude":6.7,"longitude":101.58333},{"id":106321,"name":"Amphoe Thung Yang Daeng","latitude":6.6416,"longitude":101.44652},{"id":106377,"name":"Amphoe Yarang","latitude":6.6924,"longitude":101.31408},{"id":106378,"name":"Amphoe Yaring","latitude":6.83507,"longitude":101.39073},{"id":106596,"name":"Nong Chik","latitude":6.84356,"longitude":101.17803},{"id":106616,"name":"Pattani","latitude":6.86814,"longitude":101.25009},{"id":106673,"name":"Sai Buri","latitude":6.70131,"longitude":101.61675},{"id":106758,"name":"Yaring","latitude":6.86617,"longitude":101.36894}]