[{"id":15738,"name":"Gobojango","latitude":-21.8327,"longitude":28.72882},{"id":15739,"name":"Gweta","latitude":-20.18333,"longitude":25.23333},{"id":15742,"name":"Kalamare","latitude":-22.93369,"longitude":26.57032},{"id":15750,"name":"Letlhakane","latitude":-21.41494,"longitude":25.59263},{"id":15752,"name":"Letsheng","latitude":-22.66384,"longitude":27.2239},{"id":15753,"name":"Maapi","latitude":-22.75785,"longitude":27.35001},{"id":15754,"name":"Machaneng","latitude":-23.18621,"longitude":27.48856},{"id":15755,"name":"Mahalapye","latitude":-23.10407,"longitude":26.81421},{"id":15757,"name":"Makobeng","latitude":-22.99637,"longitude":27.66766},{"id":15758,"name":"Makwata","latitude":-23.28333,"longitude":27.3},{"id":15761,"name":"Mathakola","latitude":-22.72125,"longitude":27.31057},{"id":15762,"name":"Mathambgwane","latitude":-20.99075,"longitude":27.33158},{"id":15763,"name":"Mathathane","latitude":-22.26875,"longitude":28.74946},{"id":15765,"name":"Maunatlala","latitude":-22.59701,"longitude":27.63006},{"id":15770,"name":"Mogapi","latitude":-22.32301,"longitude":27.83492},{"id":15772,"name":"Moijabana","latitude":-22.43333,"longitude":26.41667},{"id":15774,"name":"Mookane","latitude":-23.68805,"longitude":26.65948},{"id":15775,"name":"Mopipi","latitude":-21.18333,"longitude":24.88333},{"id":15776,"name":"Mosetse","latitude":-20.75,"longitude":26.65},{"id":15778,"name":"Nata","latitude":-20.21667,"longitude":26.18333},{"id":15781,"name":"Orapa","latitude":-21.3115,"longitude":25.37642},{"id":15783,"name":"Palapye","latitude":-22.54605,"longitude":27.12507},{"id":15786,"name":"Pilikwe","latitude":-22.79904,"longitude":27.19376},{"id":15787,"name":"Rakops","latitude":-21.02257,"longitude":24.36052},{"id":15788,"name":"Ramokgonami","latitude":-22.8645,"longitude":27.42391},{"id":15790,"name":"Ratholo","latitude":-22.72454,"longitude":27.57199},{"id":15792,"name":"Sefophe","latitude":-22.18333,"longitude":27.96667},{"id":15795,"name":"Serowe","latitude":-22.38754,"longitude":26.71077},{"id":15797,"name":"Sua","latitude":-20.05,"longitude":26.2},{"id":15798,"name":"Tamasane","latitude":-22.4184,"longitude":27.40127},{"id":15800,"name":"Tobane","latitude":-21.95,"longitude":27.9},{"id":15801,"name":"Tonota","latitude":-21.44236,"longitude":27.46153}]