[{"id":39153,"name":"Colonia","latitude":9.51638,"longitude":138.12167},{"id":39154,"name":"Dalipebinaw Municipality","latitude":9.52229,"longitude":138.0854},{"id":39157,"name":"Fais","latitude":9.766,"longitude":140.52},{"id":39158,"name":"Fais Municipality","latitude":9.766,"longitude":140.519},{"id":39161,"name":"Fanif Municipality","latitude":9.56056,"longitude":138.11333},{"id":39162,"name":"Faraulep Municipality","latitude":8.588,"longitude":144.5065},{"id":39165,"name":"Gagil Municipality","latitude":9.54722,"longitude":138.19028},{"id":39166,"name":"Gilman Municipality","latitude":9.44611,"longitude":138.06389},{"id":39168,"name":"Kanifay Municipality","latitude":9.46735,"longitude":138.05935},{"id":39174,"name":"Lamotrek Municipality","latitude":7.491,"longitude":146.303},{"id":39178,"name":"Maap Municipality","latitude":9.58975,"longitude":138.17119},{"id":39191,"name":"Ngulu Municipality","latitude":8.45,"longitude":137.481},{"id":39208,"name":"Rull Municipality","latitude":9.50773,"longitude":138.1154},{"id":39209,"name":"Rumung Municipality","latitude":9.62428,"longitude":138.15745},{"id":39212,"name":"Satawal Municipality","latitude":7.382,"longitude":147.0318},{"id":39221,"name":"Tomil Municipality","latitude":9.52517,"longitude":138.15488},{"id":39225,"name":"Ulithi Municipality","latitude":9.9,"longitude":139.6},{"id":39229,"name":"Weloy Municipality","latitude":9.52712,"longitude":138.11909},{"id":39232,"name":"Woleai Municipality","latitude":7.345,"longitude":143.857}]