[{"id":62296,"name":"Airy Castle","latitude":17.92506,"longitude":-76.34216},{"id":62299,"name":"Albion","latitude":17.90119,"longitude":-76.60761},{"id":62311,"name":"Amity Hall","latitude":17.96759,"longitude":-76.25698},{"id":62314,"name":"Arcadia","latitude":17.9223,"longitude":-76.3003},{"id":62332,"name":"Baptist","latitude":17.87666,"longitude":-76.57837},{"id":62335,"name":"Barking Lodge","latitude":17.89279,"longitude":-76.28922},{"id":62339,"name":"Bath","latitude":17.9482,"longitude":-76.34916},{"id":62355,"name":"Bethel","latitude":17.98527,"longitude":-76.5805},{"id":62438,"name":"Cedar Valley","latitude":18.02815,"longitude":-76.59556},{"id":62455,"name":"Church Corner","latitude":17.88718,"longitude":-76.41898},{"id":62500,"name":"Dalvey","latitude":17.90241,"longitude":-76.25001},{"id":62502,"name":"Danvers Pen","latitude":17.9288,"longitude":-76.47586},{"id":62522,"name":"Duckenfield","latitude":17.92205,"longitude":-76.22657},{"id":62524,"name":"Duhaney Pen","latitude":17.89402,"longitude":-76.43193},{"id":62529,"name":"Easington","latitude":17.92397,"longitude":-76.58824},{"id":62535,"name":"Eleven Miles","latitude":17.93745,"longitude":-76.64337},{"id":62561,"name":"Font Hill","latitude":17.94055,"longitude":-76.51169},{"id":62592,"name":"Golden Grove","latitude":17.93361,"longitude":-76.27254},{"id":62622,"name":"Hagley Gap","latitude":18.04845,"longitude":-76.62777},{"id":62627,"name":"Hampton Court","latitude":17.91782,"longitude":-76.26131},{"id":62639,"name":"Hayfield","latitude":17.98199,"longitude":-76.36841},{"id":62649,"name":"Hillside","latitude":17.99619,"longitude":-76.49082},{"id":62677,"name":"Johns Town","latitude":17.89659,"longitude":-76.36136},{"id":62678,"name":"Johnson Mountain","latitude":17.98091,"longitude":-76.31986},{"id":62680,"name":"Jones Pen","latitude":17.95068,"longitude":-76.54775},{"id":62706,"name":"Leith Hall","latitude":17.87973,"longitude":-76.34331},{"id":62719,"name":"Llandewey","latitude":17.94477,"longitude":-76.62245},{"id":62721,"name":"Lloyds","latitude":17.91504,"longitude":-76.54085},{"id":62735,"name":"Lyssons","latitude":17.88708,"longitude":-76.37961},{"id":62772,"name":"Middleton","latitude":17.93971,"longitude":-76.43558},{"id":62789,"name":"Morant Bay","latitude":17.88145,"longitude":-76.40927},{"id":62797,"name":"Mount Lebanus","latitude":17.97544,"longitude":-76.53891},{"id":62820,"name":"New Monkland","latitude":17.99158,"longitude":-76.57333},{"id":62850,"name":"Pamphret","latitude":17.8757,"longitude":-76.51736},{"id":62869,"name":"Pear Tree","latitude":17.91162,"longitude":-76.31676},{"id":62891,"name":"Poormans Corner","latitude":17.89152,"longitude":-76.58351},{"id":62894,"name":"Port Morant","latitude":17.89947,"longitude":-76.34286},{"id":62907,"name":"Prospect","latitude":17.87404,"longitude":-76.34956},{"id":62912,"name":"Ramble","latitude":17.96791,"longitude":-76.6263},{"id":62925,"name":"Retreat","latitude":17.8776,"longitude":-76.36795},{"id":62932,"name":"Richmond Vale","latitude":17.97435,"longitude":-76.59044},{"id":62936,"name":"River Head","latitude":17.99237,"longitude":-76.61082},{"id":62957,"name":"Rowlandsfield","latitude":17.97355,"longitude":-76.28781},{"id":62980,"name":"Seaforth","latitude":17.94421,"longitude":-76.45661},{"id":63001,"name":"Somerset","latitude":18.00976,"longitude":-76.54595},{"id":63011,"name":"Spring Bank","latitude":17.95995,"longitude":-76.32596},{"id":63012,"name":"Spring Garden","latitude":17.91749,"longitude":-76.42978},{"id":63042,"name":"Sunning Hill","latitude":17.95612,"longitude":-76.40931},{"id":63064,"name":"Trinity Ville","latitude":17.96076,"longitude":-76.51427},{"id":63065,"name":"Trinityville","latitude":17.9572,"longitude":-76.4942},{"id":63098,"name":"Wheelerfield","latitude":17.95874,"longitude":-76.29623},{"id":63099,"name":"White Hall","latitude":17.99805,"longitude":-76.43105},{"id":63101,"name":"White Horses","latitude":17.8962,"longitude":-76.47076},{"id":63109,"name":"Wilmington","latitude":17.92856,"longitude":-76.38962},{"id":63112,"name":"Winchester","latitude":17.94177,"longitude":-76.29823},{"id":63124,"name":"Yallahs","latitude":17.8748,"longitude":-76.56245},{"id":63125,"name":"York","latitude":17.92849,"longitude":-76.43983}]