[{"id":104940,"name":"Ad Darbāsīyah","latitude":37.07279,"longitude":40.65199},{"id":104957,"name":"Al Ḩasakah","latitude":36.50237,"longitude":40.74772},{"id":104950,"name":"Al Mālikīyah","latitude":37.17701,"longitude":42.14006},{"id":104955,"name":"Al Qāmishlī","latitude":37.05215,"longitude":41.23142},{"id":104960,"name":"Al-Malikiyah District","latitude":36.94113,"longitude":41.90157},{"id":104967,"name":"Amude","latitude":37.10417,"longitude":40.93}]