[{"id":109353,"name":"Baryshivka","latitude":50.36098,"longitude":31.32173},{"id":109354,"name":"Baryshivs’kyy Rayon","latitude":50.36919,"longitude":31.34896},{"id":109393,"name":"Bila Tserkva","latitude":49.80939,"longitude":30.11209},{"id":109394,"name":"Bila Tserkva Raion","latitude":49.75,"longitude":30.08333},{"id":109422,"name":"Bohuslav","latitude":49.54939,"longitude":30.8744},{"id":109426,"name":"Borispol’skiy Rayon","latitude":50.3345,"longitude":31.0247},{"id":109427,"name":"Borodianka","latitude":50.64484,"longitude":29.9201},{"id":109429,"name":"Borodyans’kyy Rayon","latitude":50.65889,"longitude":29.88556},{"id":109431,"name":"Borova","latitude":50.17625,"longitude":30.10429},{"id":109436,"name":"Boryspil’","latitude":50.35269,"longitude":30.95501},{"id":109440,"name":"Boyarka","latitude":50.31911,"longitude":30.29728},{"id":109449,"name":"Brovary","latitude":50.51809,"longitude":30.80671},{"id":109450,"name":"Brovary Raion","latitude":50.58333,"longitude":31.0},{"id":109456,"name":"Bucha","latitude":50.54345,"longitude":30.21201},{"id":109468,"name":"Chabany","latitude":50.34071,"longitude":30.42356},{"id":109494,"name":"Chernyakhivka","latitude":50.21882,"longitude":31.93082},{"id":109591,"name":"Dymer","latitude":50.78647,"longitude":30.3026},{"id":109597,"name":"Fastiv","latitude":50.0767,"longitude":29.9177},{"id":109598,"name":"Fastiv Raion","latitude":50.08333,"longitude":30.0},{"id":109631,"name":"Hlevakha","latitude":50.27423,"longitude":30.32706},{"id":109635,"name":"Hnidyn","latitude":50.32899,"longitude":30.71059},{"id":109639,"name":"Horenka","latitude":50.55731,"longitude":30.33217},{"id":109655,"name":"Hostomel","latitude":50.56841,"longitude":30.2651},{"id":109672,"name":"Irpin","latitude":50.52175,"longitude":30.25055},{"id":109673,"name":"Irpins’ka Mis’krada","latitude":50.51585,"longitude":30.24099},{"id":109680,"name":"Ivankiv","latitude":50.93865,"longitude":29.89426},{"id":109681,"name":"Ivankiv Raion","latitude":51.0,"longitude":29.91667},{"id":109695,"name":"Kaharlyk","latitude":49.86233,"longitude":30.82815},{"id":109696,"name":"Kaharlyk Raion","latitude":49.91667,"longitude":30.75},{"id":109705,"name":"Kalynove","latitude":49.38179,"longitude":30.45137},{"id":109716,"name":"Karapyshi","latitude":49.64237,"longitude":30.79002},{"id":109720,"name":"Katyuzhanka","latitude":50.80595,"longitude":30.13763},{"id":109739,"name":"Khotiv","latitude":50.33069,"longitude":30.46836},{"id":109749,"name":"Kirove","latitude":50.3689,"longitude":31.12066},{"id":109758,"name":"Klavdiyevo-Tarasove","latitude":50.58416,"longitude":30.01134},{"id":109764,"name":"Knyazhichi","latitude":50.46275,"longitude":30.78369},{"id":109768,"name":"Kodra","latitude":50.59488,"longitude":29.55873},{"id":109797,"name":"Korniyivka","latitude":50.41661,"longitude":31.46261},{"id":109825,"name":"Kozhanka","latitude":49.97231,"longitude":29.76424},{"id":109855,"name":"Krasyatychi","latitude":51.07636,"longitude":29.64899},{"id":109865,"name":"Kriukivschina","latitude":50.37153,"longitude":30.36861},{"id":109874,"name":"Kryva Hora","latitude":51.38495,"longitude":30.19978},{"id":109900,"name":"Kyyevo-Svyatoshyns’kyy Rayon","latitude":50.3853,"longitude":30.23129},{"id":109925,"name":"Liutizh","latitude":50.6835,"longitude":30.39324},{"id":109972,"name":"Makariv","latitude":50.46408,"longitude":29.81128},{"id":109973,"name":"Makariv Raion","latitude":50.5,"longitude":29.75},{"id":110035,"name":"Mirovka","latitude":49.93126,"longitude":30.62309},{"id":110057,"name":"Motovylivka","latitude":50.15821,"longitude":30.07421},{"id":110076,"name":"Myronivka","latitude":49.66007,"longitude":30.98225},{"id":110116,"name":"Novi Petrivtsi","latitude":50.62754,"longitude":30.4431},{"id":110173,"name":"Obukhiv","latitude":50.10689,"longitude":30.61848},{"id":110174,"name":"Obukhiv Raion","latitude":50.16667,"longitude":30.66667},{"id":110175,"name":"Obukhivs’ka Mis’krada","latitude":50.11425,"longitude":30.63293},{"id":110239,"name":"Pereiaslav-Khmelnytskyi","latitude":50.06739,"longitude":31.44969},{"id":110240,"name":"Pereiaslav-Khmelnytskyi Raion","latitude":50.08333,"longitude":31.5},{"id":110274,"name":"Piskivka","latitude":50.69378,"longitude":29.61934},{"id":110287,"name":"Pohreby","latitude":50.55453,"longitude":30.64455},{"id":110327,"name":"Pukhivka","latitude":50.6097,"longitude":30.7177},{"id":110363,"name":"Rokytne","latitude":49.68665,"longitude":30.47384},{"id":110365,"name":"Rokytne Raion","latitude":49.75,"longitude":30.5},{"id":110373,"name":"Roskoshnyy","latitude":49.37087,"longitude":30.18471},{"id":110398,"name":"Rzhyshchiv","latitude":49.96886,"longitude":31.04628},{"id":110417,"name":"Semypolky","latitude":50.72627,"longitude":30.93441},{"id":110474,"name":"Skvyra","latitude":49.73177,"longitude":29.66569},{"id":110475,"name":"Skvyrs’kyy Rayon","latitude":49.74177,"longitude":29.70043},{"id":110480,"name":"Slavutych","latitude":51.5225,"longitude":30.71806},{"id":110499,"name":"Sofiyivska Borschagivka","latitude":50.41005,"longitude":30.36724},{"id":110543,"name":"Stavyshche","latitude":49.39124,"longitude":30.19022},{"id":110545,"name":"Stayki","latitude":50.07818,"longitude":30.9038},{"id":110590,"name":"Tarashcha","latitude":49.55832,"longitude":30.49259},{"id":110606,"name":"Tetiiv","latitude":49.3767,"longitude":29.66474},{"id":110620,"name":"Trebukhiv","latitude":50.48432,"longitude":30.90304},{"id":110624,"name":"Trypillia","latitude":50.11802,"longitude":30.78141},{"id":110632,"name":"Tsybli","latitude":49.99484,"longitude":31.56281},{"id":110651,"name":"Ukrainka","latitude":50.14317,"longitude":30.74612},{"id":110669,"name":"Uzyn","latitude":49.82619,"longitude":30.41487},{"id":110678,"name":"Vasylkiv","latitude":50.18693,"longitude":30.31346},{"id":110679,"name":"Vasylkiv Raion","latitude":50.16667,"longitude":30.33333},{"id":110684,"name":"Velyka Dymerka","latitude":50.59333,"longitude":30.90313},{"id":110733,"name":"Volodarka","latitude":49.52484,"longitude":29.91222},{"id":110742,"name":"Voronkov","latitude":50.22235,"longitude":30.89967},{"id":110745,"name":"Vorzel’","latitude":50.5444,"longitude":30.15305},{"id":110762,"name":"Vyshgorodskiy Rayon","latitude":50.58333,"longitude":30.5},{"id":110763,"name":"Vyshhorod","latitude":50.58476,"longitude":30.4898},{"id":110765,"name":"Vyshneve","latitude":50.38913,"longitude":30.3705},{"id":110773,"name":"Yahotyn","latitude":50.27975,"longitude":31.76246},{"id":110774,"name":"Yahotyns’kyy Rayon","latitude":50.25722,"longitude":31.89456},{"id":110872,"name":"Z·hurivs’kyy Rayon","latitude":50.47192,"longitude":31.79423},{"id":110839,"name":"Zgurovka","latitude":50.50276,"longitude":31.78492}]