[{"id":52040,"name":"Akhaldaba","latitude":41.65395,"longitude":42.15163},{"id":52053,"name":"Batumi","latitude":41.64228,"longitude":41.63392},{"id":52058,"name":"Chakvi","latitude":41.72528,"longitude":41.73278},{"id":52061,"name":"Dioknisi","latitude":41.62933,"longitude":42.39171},{"id":52081,"name":"Khelvachauri","latitude":41.58556,"longitude":41.66889},{"id":52084,"name":"Khulo","latitude":41.64353,"longitude":42.30397},{"id":52085,"name":"Kobuleti","latitude":41.82143,"longitude":41.77921},{"id":52093,"name":"Makhinjauri","latitude":41.67385,"longitude":41.69401},{"id":52104,"name":"Ochkhamuri","latitude":41.85975,"longitude":41.85309},{"id":52119,"name":"Shuakhevi","latitude":41.63,"longitude":42.19083},{"id":52134,"name":"Tsikhisdziri","latitude":41.76659,"longitude":41.75517}]