[{"id":107182,"name":"Ardeşen","latitude":41.19111,"longitude":40.9875},{"id":108800,"name":"Çayeli","latitude":41.08941,"longitude":40.73696},{"id":107644,"name":"Fındıklı","latitude":41.2711,"longitude":41.14449},{"id":107743,"name":"Güneysu","latitude":40.9813,"longitude":40.60465},{"id":107821,"name":"Hemşin İlçesi","latitude":41.05922,"longitude":40.9014},{"id":108889,"name":"İkizdere İlçesi","latitude":40.77713,"longitude":40.56076},{"id":108922,"name":"İyidere","latitude":41.00905,"longitude":40.37776},{"id":107877,"name":"Kalkandere","latitude":40.92143,"longitude":40.43999},{"id":108257,"name":"Nurluca","latitude":41.03519,"longitude":40.90584},{"id":108321,"name":"Pazar","latitude":41.17917,"longitude":40.88417},{"id":108371,"name":"Rize","latitude":41.02083,"longitude":40.52194}]