[{"id":109074,"name":"Igugunu","latitude":-4.56667,"longitude":34.63333},{"id":109076,"name":"Ikungi","latitude":-5.13333,"longitude":34.76667},{"id":109080,"name":"Ilongero","latitude":-4.66667,"longitude":34.86667},{"id":109086,"name":"Itigi","latitude":-5.7,"longitude":34.48333},{"id":109113,"name":"Kilimatinde","latitude":-5.85,"longitude":34.95},{"id":109118,"name":"Kintinku","latitude":-5.88333,"longitude":35.23333},{"id":109119,"name":"Kiomboi","latitude":-4.26667,"longitude":34.36667},{"id":109194,"name":"Mgandu","latitude":-5.95,"longitude":34.13333},{"id":109217,"name":"Mtinko","latitude":-4.55,"longitude":34.85},{"id":109224,"name":"Mungaa","latitude":-4.96667,"longitude":34.88333},{"id":109247,"name":"Ndago","latitude":-4.6,"longitude":34.35},{"id":109271,"name":"Puma","latitude":-5.0,"longitude":34.73333},{"id":109275,"name":"Sepuka","latitude":-4.75,"longitude":34.53333},{"id":109276,"name":"Shelui","latitude":-4.36667,"longitude":34.2},{"id":109279,"name":"Singida","latitude":-4.81629,"longitude":34.74358}]