[{"id":104000,"name":"Åhus","latitude":55.91667,"longitude":14.28333},{"id":104002,"name":"Åkarp","latitude":55.65396,"longitude":13.11107},{"id":102998,"name":"Anderslöv","latitude":55.43836,"longitude":13.31966},{"id":103996,"name":"Ängelholm","latitude":56.2428,"longitude":12.86219},{"id":103012,"name":"Arlöv","latitude":55.63248,"longitude":13.07141},{"id":103021,"name":"Asmundtorp","latitude":55.88333,"longitude":12.93333},{"id":104021,"name":"Åstorp","latitude":56.13566,"longitude":12.9443},{"id":103028,"name":"Bara","latitude":55.58155,"longitude":13.17862},{"id":103104,"name":"Bårslöv","latitude":56.0091,"longitude":12.8058},{"id":103105,"name":"Båstad","latitude":56.42689,"longitude":12.85339},{"id":103041,"name":"Billeberga","latitude":55.88333,"longitude":13.0},{"id":103042,"name":"Billesholm","latitude":56.05,"longitude":13.0},{"id":103049,"name":"Bjärnum","latitude":56.29032,"longitude":13.71128},{"id":103050,"name":"Bjärred","latitude":55.71667,"longitude":13.01667},{"id":103047,"name":"Bjuv","latitude":56.08372,"longitude":12.91914},{"id":103058,"name":"Blentarp","latitude":55.58333,"longitude":13.6},{"id":103087,"name":"Broby","latitude":56.25521,"longitude":14.07797},{"id":103089,"name":"Bromölla","latitude":56.07551,"longitude":14.46958},{"id":103097,"name":"Bunkeflostrand","latitude":55.54478,"longitude":12.92375},{"id":103109,"name":"Dalby","latitude":55.66655,"longitude":13.34976},{"id":103114,"name":"Degeberga","latitude":55.83333,"longitude":14.08333},{"id":103130,"name":"Ekeby","latitude":56.0,"longitude":12.96667},{"id":103152,"name":"Eslöv","latitude":55.83928,"longitude":13.30393},{"id":103195,"name":"Färlöv","latitude":56.06667,"longitude":14.08333},{"id":103171,"name":"Fjälkinge","latitude":56.04364,"longitude":14.27562},{"id":103196,"name":"Förslöv","latitude":56.35,"longitude":12.81667},{"id":103188,"name":"Furulund","latitude":55.7738,"longitude":13.09022},{"id":103203,"name":"Gantofta","latitude":55.98729,"longitude":12.80482},{"id":103239,"name":"Gärsnäs","latitude":55.54949,"longitude":14.17923},{"id":103206,"name":"Genarp","latitude":55.59907,"longitude":13.3982},{"id":103211,"name":"Glimåkra","latitude":56.3,"longitude":14.13333},{"id":103213,"name":"Glumslöv","latitude":55.94091,"longitude":12.80929},{"id":103315,"name":"Häljarp","latitude":55.85,"longitude":12.91667},{"id":103260,"name":"Hammar","latitude":56.01667,"longitude":14.21667},{"id":103263,"name":"Hanaskog","latitude":56.16061,"longitude":14.09307},{"id":103325,"name":"Hässleholm","latitude":56.15905,"longitude":13.76638},{"id":103327,"name":"Hästveda","latitude":56.28468,"longitude":13.93547},{"id":103277,"name":"Helsingborg","latitude":56.05648,"longitude":12.78718},{"id":103287,"name":"Hittarp","latitude":56.1,"longitude":12.63333},{"id":103291,"name":"Hjärnarp","latitude":56.31667,"longitude":12.91667},{"id":103292,"name":"Hjärup","latitude":55.6688,"longitude":13.13931},{"id":103295,"name":"Hofterup","latitude":55.80485,"longitude":12.9797},{"id":103329,"name":"Höganäs","latitude":56.19971,"longitude":12.55795},{"id":103334,"name":"Hököpinge","latitude":55.49411,"longitude":13.00782},{"id":103335,"name":"Höllviken","latitude":55.40982,"longitude":12.9558},{"id":103342,"name":"Höör","latitude":55.93444,"longitude":13.5385},{"id":103338,"name":"Hörby","latitude":55.85238,"longitude":13.66094},{"id":103312,"name":"Hyllinge","latitude":56.1,"longitude":12.85},{"id":103356,"name":"Jonstorp","latitude":56.2338,"longitude":12.67184},{"id":103440,"name":"Kågeröd","latitude":55.99976,"longitude":13.08795},{"id":103437,"name":"Kävlinge","latitude":55.79188,"longitude":13.11021},{"id":103401,"name":"Klågerup","latitude":55.59416,"longitude":13.24574},{"id":103399,"name":"Klippan","latitude":56.13559,"longitude":13.13086},{"id":103402,"name":"Knislinge","latitude":56.18333,"longitude":14.08333},{"id":103443,"name":"Köpingebro","latitude":55.45526,"longitude":13.93453},{"id":103414,"name":"Kristianstad","latitude":56.03129,"longitude":14.15242},{"id":103433,"name":"Kvidinge","latitude":56.13386,"longitude":13.04678},{"id":103451,"name":"Landskrona","latitude":55.8862,"longitude":12.8588},{"id":103480,"name":"Ljungbyhed","latitude":56.07437,"longitude":13.2401},{"id":103482,"name":"Ljunghusen","latitude":55.39793,"longitude":12.92486},{"id":103506,"name":"Löberöd","latitude":55.7761,"longitude":13.52414},{"id":103507,"name":"Löddeköpinge","latitude":55.76667,"longitude":13.01667},{"id":103489,"name":"Lomma","latitude":55.67244,"longitude":13.06849},{"id":103509,"name":"Lönsboda","latitude":56.4,"longitude":14.31667},{"id":103495,"name":"Lund","latitude":55.70584,"longitude":13.19321},{"id":103517,"name":"Malmö","latitude":55.60587,"longitude":13.00073},{"id":103527,"name":"Marieholm","latitude":55.86667,"longitude":13.15},{"id":103567,"name":"Mörarp","latitude":56.05749,"longitude":12.88018},{"id":103552,"name":"Munka-Ljungby","latitude":56.25,"longitude":12.96667},{"id":103604,"name":"Näsum","latitude":56.17693,"longitude":14.49706},{"id":103584,"name":"Norra Åsum","latitude":55.98333,"longitude":14.15},{"id":104030,"name":"Ödåkra","latitude":56.10412,"longitude":12.7477},{"id":104032,"name":"Önnestad","latitude":56.05747,"longitude":14.02233},{"id":104037,"name":"Örkelljunga","latitude":56.28338,"longitude":13.27773},{"id":103621,"name":"Osby","latitude":56.38165,"longitude":13.99364},{"id":104051,"name":"Östra Ljungby","latitude":56.19601,"longitude":13.09199},{"id":103629,"name":"Oxie","latitude":55.54014,"longitude":13.09605},{"id":103639,"name":"Påarp","latitude":56.03333,"longitude":12.81667},{"id":103635,"name":"Perstorp","latitude":56.13829,"longitude":13.39476},{"id":103663,"name":"Rydebäck","latitude":55.96667,"longitude":12.76667},{"id":103664,"name":"Rydsgård","latitude":55.47285,"longitude":13.58829},{"id":103810,"name":"Sätofta","latitude":55.91667,"longitude":13.55},{"id":103683,"name":"Saxtorpsskogen","latitude":55.83208,"longitude":12.94429},{"id":103685,"name":"Sibbhult","latitude":56.26667,"longitude":14.2},{"id":103689,"name":"Simrishamn","latitude":55.55653,"longitude":14.35037},{"id":103692,"name":"Sjöbo","latitude":55.63135,"longitude":13.70622},{"id":103695,"name":"Skanör med Falsterbo","latitude":55.4,"longitude":12.85},{"id":103721,"name":"Skåre","latitude":55.38333,"longitude":13.05},{"id":103699,"name":"Skegrie","latitude":55.40633,"longitude":13.07693},{"id":103707,"name":"Skivarp","latitude":55.41667,"longitude":13.56667},{"id":103714,"name":"Skurup","latitude":55.47839,"longitude":13.50186},{"id":103731,"name":"Smygehamn","latitude":55.34337,"longitude":13.36989},{"id":103826,"name":"Södra Sandby","latitude":55.71677,"longitude":13.34659},{"id":103834,"name":"Sösdala","latitude":56.03992,"longitude":13.67811},{"id":103744,"name":"Staffanstorp","latitude":55.64277,"longitude":13.20638},{"id":103781,"name":"Stångby","latitude":55.7503,"longitude":13.19797},{"id":103748,"name":"Stehag","latitude":55.90188,"longitude":13.39577},{"id":103777,"name":"Strövelstorp","latitude":56.16979,"longitude":12.83925},{"id":103794,"name":"Svalöv","latitude":55.9134,"longitude":13.10762},{"id":103797,"name":"Svedala","latitude":55.50788,"longitude":13.23515},{"id":103839,"name":"Teckomatorp","latitude":55.86667,"longitude":13.08333},{"id":103856,"name":"Tollarp","latitude":55.93333,"longitude":13.98333},{"id":103857,"name":"Tollarp1","latitude":56.16667,"longitude":14.28333},{"id":103858,"name":"Tomelilla","latitude":55.54293,"longitude":13.9546},{"id":103860,"name":"Torekov","latitude":56.425,"longitude":12.63333},{"id":103861,"name":"Tormestorp","latitude":56.1135,"longitude":13.74516},{"id":103874,"name":"Trelleborg","latitude":55.37514,"longitude":13.15691},{"id":103884,"name":"Tygelsjö","latitude":55.51667,"longitude":13.0},{"id":103886,"name":"Tyringe","latitude":56.16037,"longitude":13.59811},{"id":103915,"name":"Valje","latitude":56.06279,"longitude":14.54388},{"id":103931,"name":"Veberöd","latitude":55.63333,"longitude":13.48333},{"id":103934,"name":"Vejbystrand","latitude":56.31778,"longitude":12.76722},{"id":103935,"name":"Vellinge","latitude":55.47124,"longitude":13.01971},{"id":103943,"name":"Viken","latitude":56.15063,"longitude":12.57429},{"id":103954,"name":"Vinslöv","latitude":56.1,"longitude":13.91667},{"id":103960,"name":"Vittsjö","latitude":56.34366,"longitude":13.66081},{"id":103983,"name":"Ystad","latitude":55.42966,"longitude":13.82041}]