[{"id":53427,"name":"Aguacatán","latitude":15.34222,"longitude":-91.31141},{"id":53435,"name":"Barillas","latitude":15.80361,"longitude":-91.31583},{"id":53447,"name":"Chiantla","latitude":15.35484,"longitude":-91.45807},{"id":53464,"name":"Colotenango","latitude":15.40602,"longitude":-91.71267},{"id":53470,"name":"Concepción Huista","latitude":15.62378,"longitude":-91.66521},{"id":53476,"name":"Cuilco","latitude":15.40719,"longitude":-91.94667},{"id":53503,"name":"Huehuetenango","latitude":15.31918,"longitude":-91.47241},{"id":53507,"name":"Ixtahuacán","latitude":15.41688,"longitude":-91.76927},{"id":53509,"name":"Jacaltenango","latitude":15.66662,"longitude":-91.71177},{"id":53521,"name":"La Libertad","latitude":15.51421,"longitude":-91.86944},{"id":53528,"name":"Malacatancito","latitude":15.24457,"longitude":-91.49901},{"id":53604,"name":"Nentón","latitude":15.8007,"longitude":-91.75464},{"id":53656,"name":"San Antonio Huista","latitude":15.6501,"longitude":-91.77163},{"id":53678,"name":"San Gaspar Ixchil","latitude":15.38796,"longitude":-91.72564},{"id":53691,"name":"San Juan Atitán","latitude":15.42886,"longitude":-91.62398},{"id":53696,"name":"San Juan Ixcoy","latitude":15.60022,"longitude":-91.44639},{"id":53714,"name":"San Mateo Ixtatán","latitude":15.83194,"longitude":-91.47806},{"id":53715,"name":"San Miguel Acatán","latitude":15.70401,"longitude":-91.59771},{"id":53727,"name":"San Pedro Necta","latitude":15.49142,"longitude":-91.76551},{"id":53732,"name":"San Rafael La Independencia","latitude":15.7015,"longitude":-91.53553},{"id":53734,"name":"San Rafael Petzal","latitude":15.40487,"longitude":-91.66451},{"id":53738,"name":"San Sebastián Coatán","latitude":15.73584,"longitude":-91.56285},{"id":53739,"name":"San Sebastián Huehuetenango","latitude":15.38768,"longitude":-91.6153},{"id":53744,"name":"Santa Ana Huista","latitude":15.68085,"longitude":-91.82005},{"id":53747,"name":"Santa Bárbara","latitude":15.31617,"longitude":-91.63279},{"id":53760,"name":"Santa Eulalia","latitude":15.7306,"longitude":-91.45846},{"id":53771,"name":"Santiago Chimaltenango","latitude":15.47658,"longitude":-91.69656},{"id":53783,"name":"Soloma","latitude":15.65841,"longitude":-91.42994},{"id":53791,"name":"Tectitán","latitude":15.3063,"longitude":-92.06051},{"id":53794,"name":"Todos Santos Cuchumatán","latitude":15.50846,"longitude":-91.60382}]