[{"id":77304,"name":"Aagtekerke","latitude":51.54667,"longitude":3.50972},{"id":77311,"name":"Aardenburg","latitude":51.27333,"longitude":3.44722},{"id":77355,"name":"Arnemuiden","latitude":51.50167,"longitude":3.675},{"id":77362,"name":"Axel","latitude":51.26667,"longitude":3.90833},{"id":77460,"name":"Borssele","latitude":51.42333,"longitude":3.73472},{"id":77477,"name":"Breskens","latitude":51.39583,"longitude":3.55556},{"id":77488,"name":"Brouwershaven","latitude":51.72667,"longitude":3.9125},{"id":77490,"name":"Bruinisse","latitude":51.66167,"longitude":4.09444},{"id":77520,"name":"Colijnsplaat","latitude":51.59917,"longitude":3.84861},{"id":77531,"name":"Dauwendaele","latitude":51.49299,"longitude":3.62624},{"id":77589,"name":"Domburg","latitude":51.56333,"longitude":3.49583},{"id":78037,"name":"Goes","latitude":51.50417,"longitude":3.88889},{"id":78055,"name":"Griffioen","latitude":51.50548,"longitude":3.59598},{"id":78057,"name":"Grijpskerke","latitude":51.53417,"longitude":3.56111},{"id":78077,"name":"Haamstede","latitude":51.69682,"longitude":3.74299},{"id":78195,"name":"Hulst","latitude":51.28,"longitude":4.05278},{"id":78202,"name":"IJzendijke","latitude":51.32167,"longitude":3.61667},{"id":78214,"name":"Kamperland","latitude":51.57167,"longitude":3.70417},{"id":78215,"name":"Kapelle","latitude":51.48627,"longitude":3.95804},{"id":78234,"name":"Klarenbeek","latitude":51.50964,"longitude":3.61132},{"id":78239,"name":"Kloetinge","latitude":51.49833,"longitude":3.91528},{"id":78242,"name":"Koewacht","latitude":51.22833,"longitude":3.97361},{"id":78253,"name":"Koudekerke","latitude":51.48167,"longitude":3.55417},{"id":78266,"name":"Lammerenburg","latitude":51.46667,"longitude":3.55833},{"id":78346,"name":"Malta","latitude":51.65,"longitude":3.93333},{"id":78378,"name":"Meliskerke","latitude":51.51417,"longitude":3.50972},{"id":78388,"name":"Middelburg","latitude":51.5,"longitude":3.61389},{"id":78429,"name":"Nieuw- en Sint Joosland","latitude":51.48333,"longitude":3.65694},{"id":78444,"name":"Nieuwerkerk","latitude":51.65083,"longitude":4.00139},{"id":78508,"name":"Oostburg","latitude":51.32583,"longitude":3.4875},{"id":78521,"name":"Oosterland","latitude":51.65,"longitude":4.03611},{"id":78527,"name":"Oostkapelle","latitude":51.56667,"longitude":3.55139},{"id":78548,"name":"Othene","latitude":51.33083,"longitude":3.85972},{"id":78555,"name":"Oud-Vossemeer","latitude":51.57083,"longitude":4.19861},{"id":78593,"name":"Poortvliet","latitude":51.54417,"longitude":4.14306},{"id":78613,"name":"Renesse","latitude":51.7325,"longitude":3.775},{"id":78653,"name":"Sas van Gent","latitude":51.2275,"longitude":3.79861},{"id":78659,"name":"Scharendijke","latitude":51.73583,"longitude":3.84306},{"id":78665,"name":"Scherpenisse","latitude":51.54667,"longitude":4.10556},{"id":78678,"name":"Schoondijke","latitude":51.35417,"longitude":3.55556},{"id":78683,"name":"Schouwen-Duiveland","latitude":51.69294,"longitude":3.88676},{"id":78687,"name":"Serooskerke","latitude":51.54833,"longitude":3.59444},{"id":78699,"name":"Sint Laurens","latitude":51.5275,"longitude":3.60278},{"id":78703,"name":"Sint Philipsland","latitude":51.61667,"longitude":4.16528},{"id":78714,"name":"Sluis","latitude":51.30833,"longitude":3.38611},{"id":78715,"name":"Sluiskil","latitude":51.27833,"longitude":3.83611},{"id":78747,"name":"Stavenisse","latitude":51.5875,"longitude":4.0125},{"id":78774,"name":"Terneuzen","latitude":51.33583,"longitude":3.82778},{"id":78781,"name":"Tholen","latitude":51.53167,"longitude":4.22083},{"id":78862,"name":"Vlissingen","latitude":51.4425,"longitude":3.57361},{"id":78893,"name":"Waarde","latitude":51.4175,"longitude":4.06806},{"id":78923,"name":"Wemeldinge","latitude":51.51833,"longitude":3.99722},{"id":78929,"name":"West-Souburg","latitude":51.46417,"longitude":3.59167},{"id":78931,"name":"Westdorpe","latitude":51.2325,"longitude":3.82639},{"id":78941,"name":"Westerzicht","latitude":51.46252,"longitude":3.58687},{"id":78942,"name":"Westkapelle","latitude":51.52917,"longitude":3.44028},{"id":78969,"name":"Wissenkerke","latitude":51.585,"longitude":3.74722},{"id":78977,"name":"Wolphaartsdijk","latitude":51.53167,"longitude":3.81944},{"id":78989,"name":"Yerseke","latitude":51.4925,"longitude":4.05},{"id":78992,"name":"Zaamslag","latitude":51.3125,"longitude":3.9125},{"id":79013,"name":"Zierikzee","latitude":51.65,"longitude":3.91944},{"id":79020,"name":"Zoutelande","latitude":51.50167,"longitude":3.48472}]