[{"id":89886,"name":"Adânca","latitude":44.9225,"longitude":25.61005},{"id":89966,"name":"Aninoasa","latitude":44.96667,"longitude":25.43333},{"id":90481,"name":"Bădeni","latitude":45.15272,"longitude":25.40263},{"id":90440,"name":"Bâldana","latitude":44.603,"longitude":25.77836},{"id":90509,"name":"Băleni Sârbi","latitude":44.81667,"longitude":25.63333},{"id":90516,"name":"Bălteni","latitude":44.66488,"longitude":25.69339},{"id":90538,"name":"Bărbuleţu","latitude":45.13333,"longitude":25.3},{"id":90122,"name":"Bezdead","latitude":45.15,"longitude":25.51667},{"id":90136,"name":"Bilciureşti","latitude":44.73333,"longitude":25.8},{"id":90335,"name":"Brăneşti","latitude":45.03333,"longitude":25.41667},{"id":90269,"name":"Braniştea","latitude":44.68333,"longitude":25.58333},{"id":90301,"name":"Brezoaele","latitude":44.58333,"longitude":25.73333},{"id":90302,"name":"Brezoaia","latitude":44.55683,"longitude":25.78527},{"id":90312,"name":"Broșteni","latitude":44.72053,"longitude":25.50935},{"id":90354,"name":"Buciumeni","latitude":45.15,"longitude":25.45},{"id":90366,"name":"Bucşani","latitude":44.86667,"longitude":25.65},{"id":90412,"name":"Bungetu","latitude":44.84323,"longitude":25.53816},{"id":90427,"name":"Butimanu","latitude":44.68333,"longitude":25.9},{"id":93808,"name":"Cândeşti Vale","latitude":45.08333,"longitude":25.21667},{"id":93860,"name":"Căprioru","latitude":44.98236,"longitude":25.28116},{"id":90593,"name":"Cazaci","latitude":44.80152,"longitude":25.55405},{"id":90713,"name":"Ciocănari","latitude":44.6977,"longitude":25.97717},{"id":90715,"name":"Ciocăneşti","latitude":44.6,"longitude":25.85},{"id":90789,"name":"Cojasca","latitude":44.71667,"longitude":25.85},{"id":90791,"name":"Colacu","latitude":44.66895,"longitude":25.75881},{"id":90813,"name":"Comişani","latitude":44.88333,"longitude":25.58333},{"id":90874,"name":"Comuna Aninoasa","latitude":44.96863,"longitude":25.43802},{"id":91214,"name":"Comuna Băleni Sârbi","latitude":44.82017,"longitude":25.64756},{"id":91237,"name":"Comuna Bărbuleţu","latitude":45.14196,"longitude":25.29771},{"id":90980,"name":"Comuna Bezdead","latitude":45.13705,"longitude":25.49476},{"id":90989,"name":"Comuna Bilciureşti","latitude":44.7477,"longitude":25.80621},{"id":91122,"name":"Comuna Brăneşti","latitude":45.0343,"longitude":25.42253},{"id":91079,"name":"Comuna Braniştea","latitude":44.68134,"longitude":25.58387},{"id":91099,"name":"Comuna Brezoaele","latitude":44.56647,"longitude":25.76664},{"id":91130,"name":"Comuna Buciumeni","latitude":45.15902,"longitude":25.46392},{"id":91140,"name":"Comuna Bucşani","latitude":44.8527,"longitude":25.64561},{"id":91175,"name":"Comuna Butimanu","latitude":44.6868,"longitude":25.90535},{"id":91548,"name":"Comuna Cândeşti Vale","latitude":45.0666,"longitude":25.20455},{"id":91346,"name":"Comuna Ciocăneşti","latitude":44.62136,"longitude":25.8449},{"id":91385,"name":"Comuna Cobia de Sus","latitude":44.81197,"longitude":25.33463},{"id":91394,"name":"Comuna Cojasca","latitude":44.71855,"longitude":25.85566},{"id":91408,"name":"Comuna Comişani","latitude":44.87528,"longitude":25.57009},{"id":91414,"name":"Comuna Conţeşti","latitude":44.67875,"longitude":25.6733},{"id":91426,"name":"Comuna Corbii Mari","latitude":44.55671,"longitude":25.4806},{"id":91444,"name":"Comuna Cornăţelu","latitude":44.7308,"longitude":25.6864},{"id":91439,"name":"Comuna Corneşti","latitude":44.77121,"longitude":25.88722},{"id":91458,"name":"Comuna Costeştii din Vale","latitude":44.64096,"longitude":25.50153},{"id":91515,"name":"Comuna Crângurile","latitude":44.74277,"longitude":25.24062},{"id":91489,"name":"Comuna Crevedia","latitude":44.59787,"longitude":25.9226},{"id":91745,"name":"Comuna Dărmăneşti","latitude":44.92476,"longitude":25.76145},{"id":91632,"name":"Comuna Dobra","latitude":44.79586,"longitude":25.71297},{"id":91653,"name":"Comuna Doiceşti","latitude":44.99144,"longitude":25.40073},{"id":91671,"name":"Comuna Dragodana","latitude":44.75892,"longitude":25.38433},{"id":91673,"name":"Comuna Dragomireşti","latitude":44.89354,"longitude":25.36611},{"id":91767,"name":"Comuna Finta","latitude":44.7937,"longitude":25.79926},{"id":91883,"name":"Comuna Glodeni","latitude":45.0193,"longitude":25.45913},{"id":91947,"name":"Comuna Gura Foii","latitude":44.75712,"longitude":25.29852},{"id":91949,"name":"Comuna Gura Ocniţei","latitude":44.93449,"longitude":25.57419},{"id":91956,"name":"Comuna Gura Şuţii","latitude":44.76161,"longitude":25.47575},{"id":92027,"name":"Comuna Hulubeşti","latitude":44.84204,"longitude":25.26253},{"id":92047,"name":"Comuna I. L. Caragiale","latitude":44.92189,"longitude":25.68409},{"id":92063,"name":"Comuna Iedera","latitude":45.03333,"longitude":25.63333},{"id":92188,"name":"Comuna Lucieni","latitude":44.84766,"longitude":25.4199},{"id":92190,"name":"Comuna Ludeşti","latitude":44.90396,"longitude":25.22557},{"id":92213,"name":"Comuna Lunguleţu","latitude":44.61601,"longitude":25.6434},{"id":92237,"name":"Comuna Malu cu Flori","latitude":45.15617,"longitude":25.22589},{"id":92403,"name":"Comuna Măneşti","latitude":44.95033,"longitude":25.30034},{"id":92420,"name":"Comuna Mătăsaru","latitude":44.67584,"longitude":25.44365},{"id":92318,"name":"Comuna Mogoşani","latitude":44.68319,"longitude":25.38774},{"id":92332,"name":"Comuna Moroeni","latitude":45.23406,"longitude":25.44468},{"id":92333,"name":"Comuna Morteni","latitude":44.66221,"longitude":25.25208},{"id":92352,"name":"Comuna Moţãieni","latitude":45.10631,"longitude":25.41045},{"id":92445,"name":"Comuna Niculeşti","latitude":44.68664,"longitude":25.9635},{"id":92454,"name":"Comuna Nucet","latitude":44.80328,"longitude":25.55434},{"id":92479,"name":"Comuna Ocniţa","latitude":44.99011,"longitude":25.55591},{"id":92481,"name":"Comuna Odobeşti","latitude":44.59883,"longitude":25.54082},{"id":92557,"name":"Comuna Perşinari","latitude":44.80185,"longitude":25.4988},{"id":92563,"name":"Comuna Petreşti","latitude":44.66761,"longitude":25.31458},{"id":92576,"name":"Comuna Pietrari","latitude":45.10034,"longitude":25.29356},{"id":92583,"name":"Comuna Pietroşiţa","latitude":45.18773,"longitude":25.42828},{"id":92623,"name":"Comuna Poiana","latitude":44.57429,"longitude":25.67684},{"id":92665,"name":"Comuna Potlogi","latitude":44.57362,"longitude":25.60164},{"id":92681,"name":"Comuna Produleşti","latitude":44.70336,"longitude":25.50466},{"id":92690,"name":"Comuna Pucheni","latitude":45.18211,"longitude":25.26926},{"id":92732,"name":"Comuna Raciu","latitude":44.81644,"longitude":25.4346},{"id":92847,"name":"Comuna Răscăeţi","latitude":44.5976,"longitude":25.25621},{"id":92825,"name":"Comuna Râu Alb","latitude":45.1485,"longitude":25.33714},{"id":92833,"name":"Comuna Rãzvad","latitude":44.93588,"longitude":25.52914},{"id":92811,"name":"Comuna Runcu","latitude":45.17702,"longitude":25.38533},{"id":93094,"name":"Comuna Sălcioara","latitude":44.73645,"longitude":25.57411},{"id":93504,"name":"Comuna Şelaru","latitude":44.48705,"longitude":25.31294},{"id":92957,"name":"Comuna Slobozia Moara","latitude":44.59865,"longitude":25.73126},{"id":93544,"name":"Comuna Şotânga","latitude":44.98544,"longitude":25.38254},{"id":93241,"name":"Comuna Tărtăşeşti","latitude":44.57674,"longitude":25.82134},{"id":93244,"name":"Comuna Tătărani","latitude":45.00067,"longitude":25.27998},{"id":93258,"name":"Comuna Ulieşti","latitude":44.6016,"longitude":25.4077},{"id":93262,"name":"Comuna Ulmi","latitude":44.8903,"longitude":25.44376},{"id":93452,"name":"Comuna Văcăreşti","latitude":44.84041,"longitude":25.51989},{"id":93309,"name":"Comuna Valea Lungă","latitude":45.06978,"longitude":25.56993},{"id":93313,"name":"Comuna Valea Mare","latitude":44.79383,"longitude":25.23292},{"id":93460,"name":"Comuna Văleni-Dâmboviţa","latitude":45.17593,"longitude":25.17678},{"id":93440,"name":"Comuna Vârfuri","latitude":45.09555,"longitude":25.50712},{"id":93376,"name":"Comuna Vişina","latitude":44.60194,"longitude":25.35218},{"id":93379,"name":"Comuna Vişineşti","latitude":45.11256,"longitude":25.56815},{"id":93387,"name":"Comuna Vlădeni","latitude":44.8755,"longitude":25.77318},{"id":93398,"name":"Comuna Voineşti","latitude":45.06986,"longitude":25.26072},{"id":93413,"name":"Comuna Vulcana Băi","latitude":45.0791,"longitude":25.38219},{"id":93414,"name":"Comuna Vulcana-Pandele","latitude":45.02165,"longitude":25.39888},{"id":93597,"name":"Conțești","latitude":44.68518,"longitude":25.63879},{"id":93615,"name":"Corbii Mari","latitude":44.55,"longitude":25.5},{"id":93643,"name":"Cornăţelu","latitude":44.75,"longitude":25.66667},{"id":93635,"name":"Corneşti","latitude":44.78333,"longitude":25.86667},{"id":93666,"name":"Costeștii din Deal","latitude":44.68132,"longitude":25.48938},{"id":93662,"name":"Costeştii din Vale","latitude":44.65,"longitude":25.48333},{"id":93749,"name":"Crângurile de Sus","latitude":44.76667,"longitude":25.23333},{"id":93710,"name":"Crevedia","latitude":44.6,"longitude":25.93333},{"id":93738,"name":"Croitori","latitude":44.57512,"longitude":25.41356},{"id":93739,"name":"Crovu","latitude":44.58947,"longitude":25.53684},{"id":94104,"name":"Dâmbovicioara","latitude":44.67569,"longitude":25.55374},{"id":94132,"name":"Dărmăneşti","latitude":44.91667,"longitude":25.78333},{"id":94113,"name":"Dârza","latitude":44.60175,"longitude":25.94956},{"id":93903,"name":"Dealu Frumos","latitude":45.18575,"longitude":25.41329},{"id":93904,"name":"Dealu Mare","latitude":45.16072,"longitude":25.44871},{"id":93907,"name":"Decindeni","latitude":44.91234,"longitude":25.32607},{"id":93948,"name":"Dobra","latitude":44.78333,"longitude":25.71667},{"id":93981,"name":"Doiceşti","latitude":44.98333,"longitude":25.4},{"id":94055,"name":"Drăgăești Ungureni","latitude":44.94557,"longitude":25.31048},{"id":94012,"name":"Dragodana","latitude":44.73333,"longitude":25.35},{"id":94013,"name":"Dragodănești","latitude":45.05552,"longitude":25.23631},{"id":94018,"name":"Dragomireşti","latitude":44.91667,"longitude":25.33333},{"id":94243,"name":"Fântânele","latitude":44.71667,"longitude":25.86667},{"id":94164,"name":"Fieni","latitude":45.13333,"longitude":25.41667},{"id":94166,"name":"Fierbinți","latitude":44.50747,"longitude":25.2876},{"id":94179,"name":"Finta Mare","latitude":44.8,"longitude":25.8},{"id":94496,"name":"Găeşti","latitude":44.71667,"longitude":25.31667},{"id":94288,"name":"Gemenea Brătulești","latitude":45.10839,"longitude":25.23155},{"id":94296,"name":"Gheboaia","latitude":44.80203,"longitude":25.74875},{"id":94297,"name":"Gheboieni","latitude":44.98701,"longitude":25.3067},{"id":94330,"name":"Ghinești","latitude":44.74774,"longitude":25.553},{"id":94336,"name":"Ghirdoveni","latitude":44.94059,"longitude":25.67368},{"id":94359,"name":"Glod","latitude":45.24163,"longitude":25.44994},{"id":94362,"name":"Glodeni","latitude":45.01667,"longitude":25.46667},{"id":94386,"name":"Gorgota","latitude":44.97626,"longitude":25.50837},{"id":94407,"name":"Greci","latitude":44.66132,"longitude":25.34346},{"id":94424,"name":"Grozăvești","latitude":44.56882,"longitude":25.4536},{"id":94449,"name":"Gulia","latitude":44.54687,"longitude":25.87304},{"id":94453,"name":"Gura Foii","latitude":44.75,"longitude":25.28333},{"id":94456,"name":"Gura Ocniței","latitude":44.94166,"longitude":25.56846},{"id":94467,"name":"Gura Şuţii","latitude":44.75,"longitude":25.51667},{"id":94464,"name":"Gura Vulcanei","latitude":45.02442,"longitude":25.39596},{"id":94595,"name":"Hăbeni","latitude":44.85629,"longitude":25.62873},{"id":94573,"name":"Hulubeşti","latitude":44.83333,"longitude":25.23333},{"id":94612,"name":"I. L. Caragiale","latitude":44.90963,"longitude":25.70251},{"id":94626,"name":"Iazu","latitude":44.71764,"longitude":25.83119},{"id":94631,"name":"Ibrianu","latitude":44.77509,"longitude":25.84375},{"id":94641,"name":"Iedera de Jos","latitude":45.03333,"longitude":25.63333},{"id":94642,"name":"Iedera de Sus","latitude":45.04174,"longitude":25.63084},{"id":94679,"name":"Ionești","latitude":44.69374,"longitude":25.2778},{"id":94705,"name":"Izvoarele","latitude":45.03333,"longitude":25.26667},{"id":94889,"name":"Lăculețe","latitude":45.01837,"longitude":25.43108},{"id":94765,"name":"Lazuri","latitude":44.87859,"longitude":25.54964},{"id":94837,"name":"Lucieni","latitude":44.85,"longitude":25.43333},{"id":94842,"name":"Ludeşti","latitude":44.86667,"longitude":25.23333},{"id":94856,"name":"Lunca","latitude":45.20022,"longitude":25.44351},{"id":94882,"name":"Lunguleţu","latitude":44.61667,"longitude":25.65},{"id":94919,"name":"Malu cu Flori","latitude":45.15,"longitude":25.2},{"id":95259,"name":"Măneşti","latitude":44.96667,"longitude":25.28333},{"id":95266,"name":"Mărcești","latitude":44.80537,"longitude":25.70951},{"id":95273,"name":"Mărginenii de Sus","latitude":44.93172,"longitude":25.75228},{"id":95291,"name":"Mătăsaru","latitude":44.71667,"longitude":25.41667},{"id":94938,"name":"Mavrodin","latitude":44.64919,"longitude":25.71731},{"id":94998,"name":"Mija","latitude":44.91356,"longitude":25.67585},{"id":95052,"name":"Mogoşani","latitude":44.68333,"longitude":25.4},{"id":95071,"name":"Moreni","latitude":44.98301,"longitude":25.64415},{"id":95072,"name":"Moroeni","latitude":45.21667,"longitude":25.43333},{"id":95073,"name":"Morteni","latitude":44.66667,"longitude":25.23333},{"id":95097,"name":"Moțăieni","latitude":45.1,"longitude":25.41667},{"id":95158,"name":"Municipiul Moreni","latitude":44.9801,"longitude":25.64381},{"id":95191,"name":"Municipiul Târgovişte","latitude":44.92616,"longitude":25.45498},{"id":95342,"name":"Niculești","latitude":44.68266,"longitude":25.94221},{"id":95359,"name":"Nucet","latitude":44.78333,"longitude":25.55},{"id":95400,"name":"Ocniţa","latitude":44.98333,"longitude":25.55},{"id":95405,"name":"Odaia Turcului","latitude":44.69777,"longitude":25.45082},{"id":95406,"name":"Odobeşti","latitude":44.61667,"longitude":25.56667},{"id":95515,"name":"Oraş Fieni","latitude":45.13054,"longitude":25.41094},{"id":95526,"name":"Oraş Gãeşti","latitude":44.72003,"longitude":25.3204},{"id":95574,"name":"Oraş Pucioasa","latitude":45.0757,"longitude":25.43335},{"id":95582,"name":"Oraş Rãcari","latitude":44.66037,"longitude":25.74703},{"id":95604,"name":"Oraş Titu","latitude":44.65747,"longitude":25.55549},{"id":95741,"name":"Perșinari","latitude":44.80185,"longitude":25.4988},{"id":95746,"name":"Petreşti","latitude":44.65,"longitude":25.33333},{"id":95774,"name":"Picior de Munte","latitude":44.78247,"longitude":25.39047},{"id":95776,"name":"Pietrari","latitude":45.09377,"longitude":25.29289},{"id":95790,"name":"Pietroşiţa","latitude":45.18333,"longitude":25.43333},{"id":95801,"name":"Pitaru","latitude":44.59061,"longitude":25.58407},{"id":95865,"name":"Poiana","latitude":44.56667,"longitude":25.68333},{"id":95933,"name":"Potlogi","latitude":44.55,"longitude":25.58333},{"id":95949,"name":"Priboiu","latitude":45.03006,"longitude":25.2579},{"id":95959,"name":"Produleşti","latitude":44.7,"longitude":25.5},{"id":95972,"name":"Pucheni","latitude":45.18333,"longitude":25.28333},{"id":95975,"name":"Pucioasa","latitude":45.07807,"longitude":25.43232},{"id":96182,"name":"Răcari","latitude":44.63333,"longitude":25.73333},{"id":96039,"name":"Raciu","latitude":44.81791,"longitude":25.44106},{"id":96047,"name":"Racovița","latitude":44.83927,"longitude":25.62082},{"id":96172,"name":"Râncăciov","latitude":44.88872,"longitude":25.35778},{"id":96206,"name":"Răscăeți","latitude":44.59221,"longitude":25.2699},{"id":96174,"name":"Râu Alb de Jos","latitude":45.13653,"longitude":25.34745},{"id":96216,"name":"Răzvad","latitude":44.93333,"longitude":25.53333},{"id":96111,"name":"Românești","latitude":44.56667,"longitude":25.61667},{"id":96153,"name":"Runcu","latitude":45.18333,"longitude":25.38333},{"id":105996,"name":"Săcueni","latitude":44.91077,"longitude":25.57223},{"id":106011,"name":"Sălcioara","latitude":44.71667,"longitude":25.58333},{"id":106016,"name":"Sălcuța","latitude":44.64374,"longitude":25.58103},{"id":106040,"name":"Săteni","latitude":44.97129,"longitude":25.41683},{"id":96266,"name":"Scheiu de Jos","latitude":44.9346,"longitude":25.19986},{"id":96267,"name":"Scheiu de Sus","latitude":44.95602,"longitude":25.19317},{"id":97035,"name":"Şelaru","latitude":44.47667,"longitude":25.29997},{"id":96326,"name":"Serdanu","latitude":44.62732,"longitude":25.63124},{"id":96376,"name":"Slobozia Moara","latitude":44.6,"longitude":25.71667},{"id":97074,"name":"Şotânga","latitude":44.98333,"longitude":25.36667},{"id":96414,"name":"Speriețeni","latitude":44.76611,"longitude":25.45223},{"id":96512,"name":"Suseni Socetu","latitude":44.75618,"longitude":25.79829},{"id":96580,"name":"Târgovişte","latitude":44.92543,"longitude":25.4567},{"id":96613,"name":"Tărtăşeşti","latitude":44.57722,"longitude":25.81278},{"id":96617,"name":"Tătărani","latitude":45.0,"longitude":25.26667},{"id":106074,"name":"Teiș","latitude":44.96285,"longitude":25.4028},{"id":106091,"name":"Tețcoiu","latitude":44.68188,"longitude":25.43846},{"id":106110,"name":"Titu","latitude":44.65,"longitude":25.53333},{"id":96643,"name":"Ulieşti","latitude":44.58333,"longitude":25.41667},{"id":96649,"name":"Ulmi","latitude":44.9,"longitude":25.5},{"id":96658,"name":"Ungureni","latitude":44.57804,"longitude":25.50006},{"id":96686,"name":"Urziceanca","latitude":44.63052,"longitude":25.8424},{"id":96952,"name":"Văcăreşti","latitude":44.85,"longitude":25.48333},{"id":96728,"name":"Valea Leurzii","latitude":45.16186,"longitude":25.48533},{"id":96730,"name":"Valea Lungă Ogrea","latitude":45.05978,"longitude":25.59024},{"id":96731,"name":"Valea Lungă-Cricov","latitude":45.06528,"longitude":25.58793},{"id":96734,"name":"Valea Mare","latitude":44.78333,"longitude":25.23333},{"id":96765,"name":"Valea Voievozilor","latitude":44.93805,"longitude":25.48518},{"id":96963,"name":"Văleni-Dâmbovița","latitude":45.16667,"longitude":25.18333},{"id":96939,"name":"Vârfuri","latitude":45.1,"longitude":25.51667},{"id":96813,"name":"Viforâta","latitude":44.96011,"longitude":25.45796},{"id":96826,"name":"Viișoara","latitude":44.88116,"longitude":25.4273},{"id":96849,"name":"Vişina","latitude":44.58333,"longitude":25.33333},{"id":96851,"name":"Vişineşti","latitude":45.1,"longitude":25.55},{"id":96845,"name":"Vizurești","latitude":44.6404,"longitude":25.8074},{"id":96861,"name":"Vlădeni","latitude":44.8755,"longitude":25.77318},{"id":96871,"name":"Vlăsceni","latitude":44.58522,"longitude":25.59931},{"id":96879,"name":"Voineşti","latitude":45.06667,"longitude":25.25},{"id":96902,"name":"Vulcana Băi","latitude":45.07982,"longitude":25.38219},{"id":96903,"name":"Vulcana de Sus","latitude":45.10125,"longitude":25.35826},{"id":96904,"name":"Vulcana-Pandele","latitude":45.01558,"longitude":25.39319},{"id":97023,"name":"Zăvoiu","latitude":44.66038,"longitude":25.4035},{"id":96992,"name":"Zidurile","latitude":44.58176,"longitude":25.55458}]