[{"id":85793,"name":"Baboszewo","latitude":52.6807,"longitude":20.25527},{"id":85801,"name":"Baniocha","latitude":52.01653,"longitude":21.13984},{"id":85802,"name":"Baranowo","latitude":53.17554,"longitude":21.29803},{"id":85824,"name":"Bemowo","latitude":52.2546,"longitude":20.90844},{"id":85834,"name":"Biała","latitude":52.60524,"longitude":19.64956},{"id":85843,"name":"Białobrzegi","latitude":51.64695,"longitude":20.95041},{"id":85846,"name":"Białołeka","latitude":52.32127,"longitude":20.97204},{"id":85852,"name":"Bielany","latitude":52.29242,"longitude":20.93531},{"id":85859,"name":"Bielsk","latitude":52.6718,"longitude":19.805},{"id":85863,"name":"Bieniewice","latitude":52.18268,"longitude":20.56306},{"id":85870,"name":"Bieżuń","latitude":52.96107,"longitude":19.88976},{"id":86017,"name":"Błędów","latitude":51.77767,"longitude":20.69798},{"id":86016,"name":"Błonie","latitude":52.19849,"longitude":20.61709},{"id":85893,"name":"Bodzanów","latitude":52.49992,"longitude":20.02945},{"id":85900,"name":"Boguty-Pianki","latitude":52.7168,"longitude":22.41546},{"id":85921,"name":"Borkowice","latitude":51.32025,"longitude":20.68339},{"id":85925,"name":"Borowie","latitude":51.94908,"longitude":21.7658},{"id":85938,"name":"Brańszczyk","latitude":52.62931,"longitude":21.58745},{"id":85942,"name":"Brochów","latitude":52.3195,"longitude":20.26257},{"id":85948,"name":"Brody-Parcele","latitude":52.47797,"longitude":20.74974},{"id":85951,"name":"Brok","latitude":52.69948,"longitude":21.85704},{"id":85955,"name":"Brudzeń Duży","latitude":52.66884,"longitude":19.50399},{"id":85957,"name":"Brwinów","latitude":52.14269,"longitude":20.71697},{"id":85993,"name":"Bulkowo","latitude":52.54087,"longitude":20.11889},{"id":86020,"name":"Cegłów","latitude":52.14782,"longitude":21.73739},{"id":86022,"name":"Celestynów","latitude":52.06093,"longitude":21.39107},{"id":86023,"name":"Ceranów","latitude":52.63082,"longitude":22.22826},{"id":86033,"name":"Chlewiska","latitude":51.24376,"longitude":20.76871},{"id":86054,"name":"Chorzele","latitude":53.26075,"longitude":20.89728},{"id":86057,"name":"Chotcza","latitude":51.24043,"longitude":21.77662},{"id":86070,"name":"Chynów","latitude":51.90425,"longitude":21.08208},{"id":86077,"name":"Ciechanów","latitude":52.88141,"longitude":20.61996},{"id":86083,"name":"Ciepielów","latitude":51.24838,"longitude":21.57475},{"id":86110,"name":"Czarnia","latitude":53.35614,"longitude":21.1952},{"id":86131,"name":"Czernice Borowe","latitude":53.03197,"longitude":20.71944},{"id":86140,"name":"Czerwin","latitude":52.94905,"longitude":21.75842},{"id":86142,"name":"Czerwińsk Nad Wisłą","latitude":52.39828,"longitude":20.3096},{"id":86144,"name":"Czerwonka","latitude":52.89254,"longitude":21.21494},{"id":86244,"name":"Dąbrówka","latitude":52.48388,"longitude":21.29794},{"id":86246,"name":"Dębe Wielkie","latitude":52.19961,"longitude":21.44334},{"id":86260,"name":"Długosiodło","latitude":52.75998,"longitude":21.59183},{"id":86170,"name":"Dobre","latitude":52.32097,"longitude":21.67881},{"id":86183,"name":"Domanice","latitude":52.03739,"longitude":22.17642},{"id":86198,"name":"Drobin","latitude":52.73775,"longitude":19.98928},{"id":86206,"name":"Duczki","latitude":52.36271,"longitude":21.29047},{"id":86219,"name":"Dziekanów Leśny","latitude":52.35243,"longitude":20.85124},{"id":86224,"name":"Dzierzążnia","latitude":52.62811,"longitude":20.23364},{"id":86222,"name":"Dzierzgowo","latitude":53.15279,"longitude":20.66322},{"id":86422,"name":"Gąbin","latitude":52.39849,"longitude":19.73509},{"id":86281,"name":"Garbatka-Letnisko","latitude":51.4832,"longitude":21.61079},{"id":86286,"name":"Garwolin","latitude":51.89747,"longitude":21.61466},{"id":86425,"name":"Gąsocin","latitude":52.73754,"longitude":20.7118},{"id":86297,"name":"Gielniów","latitude":51.40076,"longitude":20.48126},{"id":86306,"name":"Glinojeck","latitude":52.81983,"longitude":20.29198},{"id":86358,"name":"Gołymin-Ośrodek","latitude":52.808,"longitude":20.87325},{"id":86410,"name":"Góra Kalwaria","latitude":51.97653,"longitude":21.21537},{"id":86418,"name":"Górzno","latitude":51.84681,"longitude":21.70933},{"id":86345,"name":"Gostynin","latitude":52.42938,"longitude":19.46194},{"id":86349,"name":"Goszczyn","latitude":51.73187,"longitude":20.85154},{"id":86351,"name":"Goworowo","latitude":52.90083,"longitude":21.55578},{"id":86421,"name":"Gózd","latitude":51.37832,"longitude":21.37914},{"id":86353,"name":"Gozdowo","latitude":52.72455,"longitude":19.68501},{"id":86371,"name":"Granica","latitude":52.13359,"longitude":20.80313},{"id":86400,"name":"Grębków","latitude":52.26931,"longitude":21.90974},{"id":86375,"name":"Grodzisk Mazowiecki","latitude":52.10387,"longitude":20.6337},{"id":86399,"name":"Grójec","latitude":51.86252,"longitude":20.86757},{"id":86385,"name":"Grudusk","latitude":53.05845,"longitude":20.62494},{"id":86405,"name":"Guzów","latitude":52.11626,"longitude":20.33672},{"id":86407,"name":"Gzy","latitude":52.74045,"longitude":20.94372},{"id":86440,"name":"Halinów","latitude":52.2288,"longitude":21.3551},{"id":86449,"name":"Hornówek","latitude":52.28638,"longitude":20.80793},{"id":86475,"name":"Iłów","latitude":52.33953,"longitude":20.0273},{"id":86476,"name":"Iłża","latitude":51.16313,"longitude":21.23979},{"id":86467,"name":"Izabelin","latitude":52.29992,"longitude":20.81729},{"id":86482,"name":"Jabłonna","latitude":52.37885,"longitude":20.91745},{"id":86484,"name":"Jabłonna Lacka","latitude":52.47664,"longitude":22.44228},{"id":86489,"name":"Jadów","latitude":52.47849,"longitude":21.63199},{"id":86492,"name":"Jakubów","latitude":52.21965,"longitude":21.68032},{"id":86512,"name":"Jasienica","latitude":52.41415,"longitude":21.4115},{"id":86516,"name":"Jasieniec","latitude":51.82104,"longitude":20.94099},{"id":86523,"name":"Jastrząb","latitude":51.24725,"longitude":20.94758},{"id":86525,"name":"Jastrzębia","latitude":51.49742,"longitude":21.23709},{"id":86542,"name":"Jedlińsk","latitude":51.514,"longitude":21.11577},{"id":86543,"name":"Jedlnia-Letnisko","latitude":51.43074,"longitude":21.33536},{"id":86544,"name":"Jednorożec","latitude":53.14116,"longitude":21.05161},{"id":86566,"name":"Joniec","latitude":52.60128,"longitude":20.58177},{"id":86574,"name":"Józefosław","latitude":52.1005,"longitude":21.04629},{"id":86576,"name":"Józefów","latitude":52.13707,"longitude":21.23589},{"id":86579,"name":"Kabaty","latitude":52.13012,"longitude":21.08148},{"id":86582,"name":"Kadzidło","latitude":53.23435,"longitude":21.46454},{"id":86628,"name":"Kałuszyn","latitude":52.20669,"longitude":21.80838},{"id":86605,"name":"Kampinos","latitude":52.26837,"longitude":20.46307},{"id":86609,"name":"Karczew","latitude":52.07655,"longitude":21.24962},{"id":86614,"name":"Karniewo","latitude":52.837,"longitude":20.98886},{"id":86624,"name":"Kazanów","latitude":51.27593,"longitude":21.46737},{"id":86637,"name":"Kiełpin","latitude":52.35796,"longitude":20.86214},{"id":86644,"name":"Klembów","latitude":52.4065,"longitude":21.33176},{"id":86657,"name":"Klwów","latitude":51.53448,"longitude":20.63644},{"id":86669,"name":"Kobyłka","latitude":52.33953,"longitude":21.19589},{"id":86743,"name":"Kołbiel","latitude":52.06431,"longitude":21.48153},{"id":86687,"name":"Komorów","latitude":52.1456,"longitude":20.81566},{"id":86696,"name":"Konstancin-Jeziorna","latitude":52.0938,"longitude":21.11761},{"id":86701,"name":"Korczew","latitude":52.35327,"longitude":22.61338},{"id":86708,"name":"Korytnica","latitude":52.41441,"longitude":21.84949},{"id":86721,"name":"Kosów Lacki","latitude":52.59541,"longitude":22.14707},{"id":86724,"name":"Kotuń","latitude":52.17643,"longitude":22.06819},{"id":86726,"name":"Kowala","latitude":51.32503,"longitude":21.06972},{"id":86735,"name":"Kozienice","latitude":51.58294,"longitude":21.54779},{"id":86768,"name":"Krasne","latitude":52.92401,"longitude":20.96732},{"id":86772,"name":"Krasnosielc","latitude":53.03378,"longitude":21.15735},{"id":86815,"name":"Krzynowłoga Mała","latitude":53.15773,"longitude":20.78579},{"id":86834,"name":"Kuczbork-Osada","latitude":53.08619,"longitude":20.04782},{"id":86874,"name":"Latowicz","latitude":52.02636,"longitude":21.80829},{"id":86876,"name":"Legionowo","latitude":52.40149,"longitude":20.92664},{"id":86882,"name":"Leszno","latitude":52.25799,"longitude":20.59121},{"id":86884,"name":"Lesznowola","latitude":52.09095,"longitude":20.93479},{"id":86920,"name":"Lipowiec Kościelny","latitude":53.10459,"longitude":20.17639},{"id":86922,"name":"Lipsko","latitude":51.15954,"longitude":21.64933},{"id":86955,"name":"Lubowidz","latitude":53.11865,"longitude":19.84594},{"id":86967,"name":"Lutocin","latitude":52.98152,"longitude":19.76655},{"id":88811,"name":"Łąck","latitude":52.46621,"longitude":19.61137},{"id":88762,"name":"Łajski","latitude":52.42873,"longitude":20.94946},{"id":88771,"name":"Łaskarzew","latitude":51.78993,"longitude":21.59122},{"id":88782,"name":"Łochów","latitude":52.53076,"longitude":21.68158},{"id":88785,"name":"Łomianki","latitude":52.33413,"longitude":20.88602},{"id":88792,"name":"Łosice","latitude":52.21129,"longitude":22.71801},{"id":88807,"name":"Łyse","latitude":53.36443,"longitude":21.56487},{"id":86980,"name":"Maciejowice","latitude":51.69222,"longitude":21.55342},{"id":86983,"name":"Maków Mazowiecki","latitude":52.86493,"longitude":21.10053},{"id":87005,"name":"Mała Wieś","latitude":52.45779,"longitude":20.10223},{"id":87007,"name":"Małkinia Górna","latitude":52.6922,"longitude":22.02836},{"id":86994,"name":"Marki","latitude":52.32065,"longitude":21.10474},{"id":87001,"name":"Maszewo Duże","latitude":52.58026,"longitude":19.62905},{"id":87018,"name":"Miastków Kościelny","latitude":51.88407,"longitude":21.82528},{"id":87024,"name":"Michałów-Reginów","latitude":52.41711,"longitude":20.96595},{"id":87019,"name":"Michałowice","latitude":52.17435,"longitude":20.88089},{"id":87030,"name":"Miedzna","latitude":52.46778,"longitude":22.08947},{"id":87069,"name":"Miętne","latitude":51.92135,"longitude":21.57457},{"id":87047,"name":"Milanówek","latitude":52.11879,"longitude":20.67155},{"id":87075,"name":"Mińsk Mazowiecki","latitude":52.17935,"longitude":21.57251},{"id":87127,"name":"Mława","latitude":53.11278,"longitude":20.3841},{"id":87128,"name":"Młodzieszyn","latitude":52.29945,"longitude":20.20017},{"id":87130,"name":"Młynarze","latitude":52.95417,"longitude":21.41141},{"id":87080,"name":"Mochowo","latitude":52.7657,"longitude":19.55592},{"id":87084,"name":"Mogielnica","latitude":51.69432,"longitude":20.72227},{"id":87087,"name":"Mokobody","latitude":52.26523,"longitude":22.11182},{"id":87088,"name":"Mokotów","latitude":52.1934,"longitude":21.03487},{"id":87091,"name":"Mordy","latitude":52.2116,"longitude":22.51725},{"id":87102,"name":"Mrozy","latitude":52.01975,"longitude":20.36702},{"id":87111,"name":"Mszczonów","latitude":51.97415,"longitude":20.52083},{"id":87117,"name":"Mysiadło","latitude":52.10216,"longitude":21.01856},{"id":87119,"name":"Myszyniec","latitude":53.38055,"longitude":21.34961},{"id":87131,"name":"Nadarzyn","latitude":52.09438,"longitude":20.80776},{"id":87140,"name":"Naruszewo","latitude":52.52687,"longitude":20.35157},{"id":87141,"name":"Nasielsk","latitude":52.58887,"longitude":20.80553},{"id":87166,"name":"Nieporęt","latitude":52.43152,"longitude":21.03212},{"id":87182,"name":"Nowe Grocholice","latitude":52.15924,"longitude":20.9111},{"id":87183,"name":"Nowe Lipiny","latitude":52.35789,"longitude":21.27125},{"id":87185,"name":"Nowe Miasto","latitude":52.65691,"longitude":20.62838},{"id":87187,"name":"Nowe Miasto nad Pilicą","latitude":51.61812,"longitude":20.57619},{"id":87201,"name":"Nowy Duninów","latitude":52.58271,"longitude":19.47996},{"id":87203,"name":"Nowy Dwór Mazowiecki","latitude":52.43022,"longitude":20.71652},{"id":87212,"name":"Nur","latitude":52.66826,"longitude":22.32207},{"id":87220,"name":"Obryte","latitude":52.71633,"longitude":21.24945},{"id":87226,"name":"Ochota","latitude":52.22096,"longitude":20.98526},{"id":87230,"name":"Odrzywół","latitude":51.51953,"longitude":20.55559},{"id":87232,"name":"Ojrzeń","latitude":52.7657,"longitude":20.54315},{"id":87260,"name":"Opinogóra Górna","latitude":52.90554,"longitude":20.71781},{"id":87270,"name":"Orońsko","latitude":51.31339,"longitude":20.99067},{"id":87277,"name":"Osieck","latitude":51.96653,"longitude":21.41913},{"id":87305,"name":"Ostrołęka","latitude":53.08621,"longitude":21.57566},{"id":87310,"name":"Ostrów Mazowiecka","latitude":52.80245,"longitude":21.89507},{"id":87312,"name":"Ostrówek","latitude":52.5535,"longitude":21.76014},{"id":87316,"name":"Otrębusy","latitude":52.12843,"longitude":20.76073},{"id":87317,"name":"Otwock","latitude":52.10577,"longitude":21.26129},{"id":87319,"name":"Owczarnia","latitude":52.11114,"longitude":20.70468},{"id":87329,"name":"Ożarów Mazowiecki","latitude":52.21039,"longitude":20.79716},{"id":87332,"name":"Pacyna","latitude":52.30281,"longitude":19.70982},{"id":87344,"name":"Paprotnia","latitude":52.20513,"longitude":20.4232},{"id":87349,"name":"Parysów","latitude":51.97584,"longitude":21.68006},{"id":87368,"name":"Piaseczno","latitude":52.0814,"longitude":21.02397},{"id":87372,"name":"Piastów","latitude":52.18435,"longitude":20.83952},{"id":87387,"name":"Pilawa","latitude":51.95945,"longitude":21.53089},{"id":87392,"name":"Pionki","latitude":51.47604,"longitude":21.44995},{"id":87864,"name":"Płock","latitude":52.54682,"longitude":19.70638},{"id":87865,"name":"Płoniawy-Bramura","latitude":52.9778,"longitude":21.07178},{"id":87867,"name":"Płońsk","latitude":52.62348,"longitude":20.37552},{"id":87413,"name":"Podebłocie","latitude":51.64023,"longitude":21.7442},{"id":87417,"name":"Podkowa Leśna","latitude":52.12237,"longitude":20.72665},{"id":87427,"name":"Pokrzywnica","latitude":52.62072,"longitude":21.01925},{"id":87435,"name":"Policzna","latitude":51.45545,"longitude":21.62684},{"id":87438,"name":"Pomiechówek","latitude":52.47138,"longitude":20.72923},{"id":87780,"name":"Poświętne","latitude":52.32967,"longitude":21.42137},{"id":87455,"name":"Potworów","latitude":51.50874,"longitude":20.72176},{"id":87462,"name":"Powiat białobrzeski","latitude":51.62102,"longitude":20.94328},{"id":87488,"name":"Powiat ciechanowski","latitude":52.90207,"longitude":20.57631},{"id":87500,"name":"Powiat garwoliński","latitude":51.82657,"longitude":21.61615},{"id":87509,"name":"Powiat gostyniński","latitude":52.38988,"longitude":19.62187},{"id":87513,"name":"Powiat grodziski","latitude":52.06391,"longitude":20.59408},{"id":87518,"name":"Powiat grójecki","latitude":51.75742,"longitude":20.83661},{"id":87546,"name":"Powiat kozienicki","latitude":51.63946,"longitude":21.4958},{"id":87564,"name":"Powiat legionowski","latitude":52.45179,"longitude":20.94356},{"id":87572,"name":"Powiat lipski","latitude":51.15879,"longitude":21.56753},{"id":87751,"name":"Powiat łosicki","latitude":52.22363,"longitude":22.8451},{"id":87581,"name":"Powiat makowski","latitude":52.9477,"longitude":21.1795},{"id":87589,"name":"Powiat miński","latitude":52.18429,"longitude":21.60893},{"id":87596,"name":"Powiat mławski","latitude":53.05496,"longitude":20.37708},{"id":87601,"name":"Powiat nowodworski","latitude":52.46585,"longitude":20.66405},{"id":87622,"name":"Powiat ostrołęcki","latitude":53.14001,"longitude":21.50699},{"id":87620,"name":"Powiat ostrowski","latitude":52.79495,"longitude":22.0325},{"id":87625,"name":"Powiat otwocki","latitude":52.04898,"longitude":21.37251},{"id":87631,"name":"Powiat piaseczyński","latitude":52.01634,"longitude":20.98319},{"id":87653,"name":"Powiat płocki","latitude":52.55465,"longitude":19.7857},{"id":87654,"name":"Powiat płoński","latitude":52.63894,"longitude":20.3471},{"id":87643,"name":"Powiat pruszkowski","latitude":52.10088,"longitude":20.80992},{"id":87644,"name":"Powiat przasnyski","latitude":53.1136,"longitude":20.9394},{"id":87647,"name":"Powiat przysuski","latitude":51.42366,"longitude":20.65098},{"id":87651,"name":"Powiat pułtuski","latitude":52.67207,"longitude":21.02401},{"id":87656,"name":"Powiat radomski","latitude":51.33582,"longitude":21.16193},{"id":87670,"name":"Powiat siedlecki","latitude":52.19186,"longitude":22.30406},{"id":87673,"name":"Powiat sierpecki","latitude":52.83353,"longitude":19.71216},{"id":87676,"name":"Powiat sochaczewski","latitude":52.26689,"longitude":20.21338},{"id":87677,"name":"Powiat sokołowski","latitude":52.49538,"longitude":22.26897},{"id":87695,"name":"Powiat szydłowiecki","latitude":51.256,"longitude":20.84256},{"id":87713,"name":"Powiat warszawski zachodni","latitude":52.26838,"longitude":20.61913},{"id":87732,"name":"Powiat węgrowski","latitude":52.45628,"longitude":21.87342},{"id":87722,"name":"Powiat wołomiński","latitude":52.40616,"longitude":21.40121},{"id":87728,"name":"Powiat wyszkowski","latitude":52.65137,"longitude":21.44537},{"id":87767,"name":"Powiat żuromiński","latitude":53.01658,"longitude":19.89102},{"id":87743,"name":"Powiat zwoleński","latitude":51.36079,"longitude":21.59279},{"id":87768,"name":"Powiat żyrardowski","latitude":52.00028,"longitude":20.43275},{"id":87786,"name":"Praga Północ","latitude":52.25443,"longitude":21.03472},{"id":87785,"name":"Praga Południe","latitude":52.24424,"longitude":21.08545},{"id":87788,"name":"Prażmów","latitude":51.9404,"longitude":20.95479},{"id":87790,"name":"Promna","latitude":51.68006,"longitude":20.95917},{"id":87799,"name":"Pruszków","latitude":52.17072,"longitude":20.81214},{"id":87800,"name":"Przasnysz","latitude":53.01907,"longitude":20.88029},{"id":87814,"name":"Przesmyki","latitude":52.26816,"longitude":22.58394},{"id":87835,"name":"Przyłęk","latitude":51.30856,"longitude":21.74744},{"id":87828,"name":"Przysucha","latitude":51.35858,"longitude":20.62889},{"id":87833,"name":"Przytyk","latitude":51.46567,"longitude":20.90587},{"id":87852,"name":"Pułtusk","latitude":52.7025,"longitude":21.08276},{"id":87849,"name":"Puszcza Mariańska","latitude":51.97901,"longitude":20.35037},{"id":87873,"name":"Raciąż","latitude":52.78152,"longitude":20.1177},{"id":87884,"name":"Radom","latitude":51.40253,"longitude":21.14714},{"id":87895,"name":"Radzanów","latitude":52.94238,"longitude":20.09219},{"id":87894,"name":"Radzanowo","latitude":52.57306,"longitude":19.89109},{"id":87897,"name":"Radziejowice","latitude":52.00834,"longitude":20.5477},{"id":87902,"name":"Radzymin","latitude":52.41592,"longitude":21.18415},{"id":87916,"name":"Raszyn","latitude":52.15603,"longitude":20.9226},{"id":87922,"name":"Regimin","latitude":52.94166,"longitude":20.55319},{"id":87936,"name":"Rembertów","latitude":52.26059,"longitude":21.16355},{"id":87937,"name":"Repki","latitude":52.38555,"longitude":22.39117},{"id":87968,"name":"Rościszewo","latitude":52.90331,"longitude":19.77419},{"id":88033,"name":"Różan","latitude":52.88757,"longitude":21.39105},{"id":87988,"name":"Rusinów","latitude":51.43678,"longitude":20.58701},{"id":87993,"name":"Rybie","latitude":52.15229,"longitude":20.93655},{"id":87995,"name":"Rybno","latitude":52.24278,"longitude":20.10301},{"id":88001,"name":"Ryczywół","latitude":51.69118,"longitude":21.42197},{"id":88032,"name":"Rząśnik","latitude":52.71332,"longitude":21.36772},{"id":88016,"name":"Rzeczniów","latitude":51.12804,"longitude":21.44008},{"id":88019,"name":"Rzekuń","latitude":53.04756,"longitude":21.62069},{"id":88025,"name":"Rzewnie","latitude":52.83508,"longitude":21.33682},{"id":88039,"name":"Sabnie","latitude":52.50097,"longitude":22.30697},{"id":88044,"name":"Sadowne","latitude":52.64124,"longitude":21.84563},{"id":88048,"name":"Sanniki","latitude":52.33046,"longitude":19.86766},{"id":88051,"name":"Sarnaki","latitude":52.31504,"longitude":22.89044},{"id":88057,"name":"Serock","latitude":52.51036,"longitude":21.0691},{"id":88064,"name":"Siedlce","latitude":52.16772,"longitude":22.29006},{"id":88075,"name":"Siemiątkowo","latitude":52.8811,"longitude":20.02893},{"id":88081,"name":"Siennica","latitude":52.09164,"longitude":21.61921},{"id":88083,"name":"Sienno","latitude":51.08773,"longitude":21.48325},{"id":88091,"name":"Sierpc","latitude":52.8568,"longitude":19.66913},{"id":88099,"name":"Skaryszew","latitude":51.31075,"longitude":21.25233},{"id":88122,"name":"Skórzec","latitude":52.10727,"longitude":22.13052},{"id":88346,"name":"Słubice","latitude":52.36942,"longitude":19.93881},{"id":88352,"name":"Słupno","latitude":52.38409,"longitude":21.15572},{"id":88130,"name":"Sobienie Jeziory","latitude":51.93273,"longitude":21.30335},{"id":88132,"name":"Sobolew","latitude":51.7366,"longitude":21.66349},{"id":88134,"name":"Sochaczew","latitude":52.22944,"longitude":20.23838},{"id":88135,"name":"Sochocin","latitude":52.68715,"longitude":20.47259},{"id":88140,"name":"Sokołów Podlaski","latitude":52.40677,"longitude":22.25307},{"id":88143,"name":"Solec Nad Wisłą","latitude":51.13633,"longitude":21.76563},{"id":88156,"name":"Sońsk","latitude":52.78164,"longitude":20.69901},{"id":88840,"name":"Śródmieście","latitude":52.22904,"longitude":21.01644},{"id":88169,"name":"Stanisławów","latitude":52.28937,"longitude":21.54848},{"id":88170,"name":"Stanisławów Pierwszy","latitude":52.37485,"longitude":21.05184},{"id":88173,"name":"Stara Błotnica","latitude":51.54676,"longitude":20.97479},{"id":88177,"name":"Stara Kornica","latitude":52.18183,"longitude":22.93752},{"id":88181,"name":"Stare Babice","latitude":52.26028,"longitude":20.83403},{"id":88193,"name":"Staroźreby","latitude":52.63265,"longitude":19.9855},{"id":88204,"name":"Sterdyń","latitude":52.58026,"longitude":22.29358},{"id":88205,"name":"Stoczek","latitude":52.54332,"longitude":21.90013},{"id":88211,"name":"Strachówka","latitude":52.42692,"longitude":21.635},{"id":88215,"name":"Stromiec","latitude":51.647,"longitude":21.09229},{"id":88225,"name":"Strzegowo","latitude":52.89394,"longitude":20.28548},{"id":88241,"name":"Stupsk","latitude":53.02258,"longitude":20.4368},{"id":88247,"name":"Sucha","latitude":51.61999,"longitude":20.94887},{"id":88252,"name":"Suchożebry","latitude":52.25948,"longitude":22.25289},{"id":88255,"name":"Sulbiny Górne","latitude":51.87321,"longitude":21.63174},{"id":88258,"name":"Sulejówek","latitude":52.25221,"longitude":21.26902},{"id":88270,"name":"Sułkowice","latitude":51.9231,"longitude":21.08929},{"id":88852,"name":"Świercze","latitude":52.67055,"longitude":20.7639},{"id":88279,"name":"Sypniewo","latitude":53.0058,"longitude":21.3073},{"id":88302,"name":"Szczutowo","latitude":52.94047,"longitude":19.57438},{"id":88306,"name":"Szelków","latitude":52.83487,"longitude":21.21769},{"id":88314,"name":"Szreńsk","latitude":53.01277,"longitude":20.12009},{"id":88319,"name":"Szydłowiec","latitude":51.22823,"longitude":20.86106},{"id":88320,"name":"Szydłowo","latitude":53.08062,"longitude":20.45071},{"id":88354,"name":"Tarczyn","latitude":51.98197,"longitude":20.83394},{"id":88357,"name":"Targówek","latitude":52.29185,"longitude":21.04845},{"id":88370,"name":"Tczów","latitude":51.326,"longitude":21.44677},{"id":88373,"name":"Teresin","latitude":52.19887,"longitude":20.41672},{"id":88445,"name":"Tłuszcz","latitude":52.43058,"longitude":21.43561},{"id":88415,"name":"Trąbki","latitude":51.94792,"longitude":21.59929},{"id":88387,"name":"Trablice","latitude":51.35249,"longitude":21.12877},{"id":88389,"name":"Trojanów","latitude":51.69225,"longitude":21.81112},{"id":88390,"name":"Troszyn","latitude":53.03115,"longitude":21.73083},{"id":88391,"name":"Truskaw","latitude":52.30124,"longitude":20.78244},{"id":88457,"name":"Ursus","latitude":52.19517,"longitude":20.88419},{"id":88458,"name":"Ursynów","latitude":52.15051,"longitude":21.05041},{"id":88477,"name":"Warka","latitude":51.7843,"longitude":21.19091},{"id":88480,"name":"Warsaw","latitude":52.22977,"longitude":21.01178},{"id":88481,"name":"Warszawa","latitude":52.23547,"longitude":21.04191},{"id":88485,"name":"Wawer","latitude":52.19656,"longitude":21.17752},{"id":88645,"name":"Węgrów","latitude":52.39954,"longitude":22.01634},{"id":88493,"name":"Wesoła","latitude":52.25451,"longitude":21.22407},{"id":88497,"name":"Wieczfnia Kościelna","latitude":53.19534,"longitude":20.47637},{"id":88503,"name":"Wieliszew","latitude":52.4513,"longitude":20.96827},{"id":88512,"name":"Wieniawa","latitude":51.36171,"longitude":20.79489},{"id":88517,"name":"Wierzbica","latitude":51.2494,"longitude":21.08259},{"id":88520,"name":"Wierzbno","latitude":52.31008,"longitude":21.85902},{"id":88531,"name":"Wilanów","latitude":52.16311,"longitude":21.08748},{"id":88537,"name":"Wilga","latitude":51.85211,"longitude":21.37751},{"id":88544,"name":"Winnica","latitude":52.64306,"longitude":20.94114},{"id":88545,"name":"Wiskitki","latitude":52.08831,"longitude":20.38708},{"id":88561,"name":"Wiśniew","latitude":52.07265,"longitude":22.29392},{"id":88562,"name":"Wiśniewo","latitude":53.06474,"longitude":20.34805},{"id":88648,"name":"Włochy","latitude":52.17941,"longitude":20.94612},{"id":88566,"name":"Wodynie","latitude":52.0404,"longitude":21.95575},{"id":88580,"name":"Wola","latitude":52.2401,"longitude":20.98869},{"id":88588,"name":"Wola Rębkowska","latitude":51.90181,"longitude":21.55818},{"id":88593,"name":"Wolanów","latitude":51.3803,"longitude":20.97702},{"id":88599,"name":"Wołomin","latitude":52.34006,"longitude":21.24207},{"id":88626,"name":"Wyśmierzyce","latitude":51.62494,"longitude":20.81394},{"id":88624,"name":"Wyszków","latitude":52.59278,"longitude":21.4584},{"id":88625,"name":"Wyszogród","latitude":52.38988,"longitude":20.19081},{"id":88868,"name":"Żabia Wola","latitude":52.03169,"longitude":20.69112},{"id":88869,"name":"Żabieniec","latitude":52.05856,"longitude":21.04817},{"id":88738,"name":"Ząbki","latitude":52.29271,"longitude":21.10539},{"id":88676,"name":"Zakroczym","latitude":52.43351,"longitude":20.61207},{"id":88677,"name":"Zakrzew","latitude":51.44095,"longitude":21.00105},{"id":88685,"name":"Zalesie Górne","latitude":52.02768,"longitude":21.03659},{"id":88707,"name":"Załuski","latitude":52.51152,"longitude":20.52864},{"id":88700,"name":"Zatory","latitude":52.59929,"longitude":21.18258},{"id":88703,"name":"Zawidz","latitude":52.82745,"longitude":19.87367},{"id":88710,"name":"Zbuczyn","latitude":52.08974,"longitude":22.43829},{"id":88882,"name":"Żelechów","latitude":51.81051,"longitude":21.89721},{"id":88729,"name":"Zielonka","latitude":52.30376,"longitude":21.16018},{"id":88889,"name":"Żoliborz","latitude":52.26896,"longitude":20.98644},{"id":88895,"name":"Żuromin","latitude":53.06611,"longitude":19.90894},{"id":88737,"name":"Zwoleń","latitude":51.35542,"longitude":21.58768},{"id":88899,"name":"Żyrardów","latitude":52.0488,"longitude":20.44599}]