[{"id":130237,"name":"Huyện Bắc Sơn","latitude":21.83801,"longitude":106.2769},{"id":130220,"name":"Huyện Bình Gia","latitude":22.07281,"longitude":106.3041},{"id":130244,"name":"Huyện Cao Lộc","latitude":21.89857,"longitude":106.85435},{"id":130246,"name":"Huyện Chi Lăng","latitude":21.67602,"longitude":106.62925},{"id":130531,"name":"Huyện Đình Lập","latitude":21.5421,"longitude":107.12925},{"id":130308,"name":"Huyện Hũu Lũng","latitude":21.54474,"longitude":106.34386},{"id":130507,"name":"Huyện Vặn Quan","latitude":21.83333,"longitude":106.54942},{"id":130572,"name":"Lạng Sơn","latitude":21.85264,"longitude":106.76101}]