[{"id":79928,"name":"Al Khābūrah","latitude":23.97144,"longitude":57.09313},{"id":79929,"name":"As Suwayq","latitude":23.84944,"longitude":57.43861},{"id":79939,"name":"Liwá","latitude":24.53077,"longitude":56.563},{"id":79952,"name":"Şaḩam","latitude":24.17222,"longitude":56.88861},{"id":79946,"name":"Shināş","latitude":24.7426,"longitude":56.46698},{"id":79947,"name":"Sohar","latitude":24.34745,"longitude":56.70937}]