[{"id":107307,"name":"Bayır","latitude":37.26774,"longitude":28.21677},{"id":107365,"name":"Bodrum","latitude":37.065,"longitude":27.49819},{"id":107379,"name":"Bozarmut","latitude":37.30917,"longitude":28.16972},{"id":107442,"name":"Dalaman","latitude":36.81691,"longitude":28.87815},{"id":107443,"name":"Dalyan","latitude":36.83429,"longitude":28.6446},{"id":107452,"name":"Datça","latitude":36.73778,"longitude":27.68417},{"id":107640,"name":"Fethiye","latitude":36.64038,"longitude":29.12758},{"id":107679,"name":"Göcek","latitude":36.75345,"longitude":28.94571},{"id":107759,"name":"Güvercinlik","latitude":37.13706,"longitude":27.58186},{"id":107923,"name":"Kargı","latitude":36.70132,"longitude":29.07557},{"id":107943,"name":"Kavaklıdere","latitude":37.43929,"longitude":28.38402},{"id":108083,"name":"Köyceğiz İlçesi","latitude":36.97798,"longitude":28.72418},{"id":108160,"name":"Marmaris","latitude":36.855,"longitude":28.27417},{"id":108174,"name":"Menteşe","latitude":37.21447,"longitude":28.36168},{"id":108211,"name":"Milas","latitude":37.31639,"longitude":27.78389},{"id":108235,"name":"Muğla","latitude":37.21807,"longitude":28.3665},{"id":108862,"name":"Ölüdeniz","latitude":36.56674,"longitude":29.14467},{"id":108279,"name":"Ortaca","latitude":36.83915,"longitude":28.76457},{"id":108396,"name":"Sarigerme","latitude":36.71549,"longitude":28.70436},{"id":108447,"name":"Seydikemer","latitude":36.64308,"longitude":29.34929},{"id":108599,"name":"Turgut","latitude":37.375,"longitude":28.03111},{"id":108601,"name":"Turgutreis","latitude":37.01667,"longitude":27.26667},{"id":108616,"name":"Ula","latitude":37.10491,"longitude":28.41667},{"id":108670,"name":"Yalıkavak","latitude":37.10528,"longitude":27.29722},{"id":108671,"name":"Yaniklar","latitude":36.70827,"longitude":29.05081},{"id":108676,"name":"Yatağan","latitude":37.35864,"longitude":28.11441}]