[{"id":134473,"name":"Abu Ghraib District","latitude":33.29194,"longitude":44.06919},{"id":134474,"name":"AbÅ« Ghurayb","latitude":33.30563,"longitude":44.18477},{"id":153202,"name":"Adamiyah","latitude":33.369178,"longitude":44.3395594},{"id":153203,"name":"Al Adel","latitude":33.3591283,"longitude":44.2813868},{"id":153204,"name":"Al Baladiyat","latitude":33.3493161,"longitude":44.4107153},{"id":153205,"name":"Al Jamaa","latitude":33.3411447,"longitude":44.3406269},{"id":153206,"name":"Al Saadoon Park","latitude":33.3248036,"longitude":44.4147098},{"id":153207,"name":"Al Salhiah","latitude":33.3225401,"longitude":44.3842505},{"id":153208,"name":"Al Za'franiya","latitude":33.3185775,"longitude":44.4868639},{"id":153209,"name":"Al-Ubaidi","latitude":33.3203603,"longitude":44.4595591},{"id":153210,"name":"Al-Wahda","latitude":33.3111582,"longitude":44.4335228},{"id":153211,"name":"Ameria","latitude":33.2967102,"longitude":44.2707679},{"id":153212,"name":"Amil District","latitude":33.2760609,"longitude":44.3103717},{"id":153213,"name":"Amin","latitude":33.3124874,"longitude":44.4863415},{"id":153214,"name":"Arasat AlHindiya","latitude":33.2933579,"longitude":44.4230245},{"id":153215,"name":"At Taifiya","latitude":33.3564394,"longitude":44.357911},{"id":153216,"name":"Bab Al Moatham","latitude":33.3601417,"longitude":44.365077},{"id":153217,"name":"Bab Al Sharqi","latitude":33.3324906,"longitude":44.4140791},{"id":134504,"name":"Baghdad","latitude":33.34058,"longitude":44.40088},{"id":153218,"name":"Baghdad Al Jadeeda","latitude":33.3133544,"longitude":44.4715792},{"id":153219,"name":"Baijai","latitude":33.33254,"longitude":44.3450955},{"id":153220,"name":"Bataween","latitude":33.3211235,"longitude":44.4085568},{"id":153221,"name":"Bayaa","latitude":33.2825544,"longitude":44.3752803},{"id":153222,"name":"Binouk","latitude":33.3927812,"longitude":44.4111448},{"id":153223,"name":"Bo'aitha","latitude":33.2419463,"longitude":44.4269509},{"id":153224,"name":"Camp Sarah","latitude":33.3011293,"longitude":44.444696},{"id":153225,"name":"Daoudi","latitude":33.3121403,"longitude":44.3258482},{"id":153226,"name":"Dora","latitude":33.2312686,"longitude":44.3619812},{"id":153227,"name":"Ghadeer","latitude":33.3374974,"longitude":44.4628184},{"id":153228,"name":"Ghazaliya","latitude":33.3414353,"longitude":44.2235442},{"id":153229,"name":"Gherai'at","latitude":33.3920837,"longitude":44.3044314},{"id":153230,"name":"Green Zone","latitude":33.313761,"longitude":44.3590056},{"id":153231,"name":"Habibiya","latitude":33.3392027,"longitude":44.4684612},{"id":153232,"name":"Harthiya","latitude":33.2262612,"longitude":44.3982675},{"id":153233,"name":"Hurriya","latitude":33.3424187,"longitude":44.306563},{"id":153234,"name":"Iskan","latitude":33.3340593,"longitude":44.323031},{"id":153235,"name":"Jadriyah","latitude":33.2607636,"longitude":44.411172},{"id":153236,"name":"Jamila","latitude":33.3510884,"longitude":44.414956},{"id":153237,"name":"Jihad","latitude":33.252892,"longitude":44.2923118},{"id":153238,"name":"Kadhimiya","latitude":33.3812961,"longitude":44.3513918},{"id":153239,"name":"Kamaliyah","latitude":33.3500848,"longitude":44.5089411},{"id":153240,"name":"Karada","latitude":33.2933661,"longitude":44.3964153},{"id":153241,"name":"Khadra","latitude":33.3197247,"longitude":44.287647},{"id":153242,"name":"Mansour","latitude":33.3142296,"longitude":44.3363123},{"id":153243,"name":"Mashtal","latitude":33.3244321,"longitude":44.4931483},{"id":153244,"name":"Mustansiriya","latitude":33.3629892,"longitude":44.3869543},{"id":153245,"name":"Qadisiyah","latitude":33.3271963,"longitude":44.3162384},{"id":153246,"name":"Sadr City","latitude":33.3769233,"longitude":44.4044638},{"id":153247,"name":"Saidiya","latitude":33.2650093,"longitude":44.3315934},{"id":153248,"name":"Sha'ab","latitude":33.413091,"longitude":44.3861103},{"id":153249,"name":"Sheik Maaruf","latitude":33.3389601,"longitude":44.3478958},{"id":153250,"name":"Shorjah","latitude":33.3461394,"longitude":44.3950442},{"id":153251,"name":"Suleikh","latitude":33.3934332,"longitude":44.361445},{"id":153252,"name":"Ur District","latitude":33.41694,"longitude":44.3906079},{"id":153253,"name":"Wazireya","latitude":33.3636617,"longitude":44.3819655},{"id":153254,"name":"Yarmouk","latitude":33.3393836,"longitude":44.3221252},{"id":153255,"name":"Ziyouna","latitude":33.3248434,"longitude":44.454546}]