[{"id":15653,"name":"Água Branca","latitude":-7.46957,"longitude":-37.661},{"id":10100,"name":"Aguiar","latitude":-7.0762,"longitude":-38.24255},{"id":10108,"name":"Alagoa Grande","latitude":-7.07831,"longitude":-35.59525},{"id":10109,"name":"Alagoa Nova","latitude":-7.04733,"longitude":-35.75397},{"id":10110,"name":"Alagoinha","latitude":-6.96256,"longitude":-35.51465},{"id":10116,"name":"Alcantil","latitude":-7.69816,"longitude":-36.06604},{"id":10135,"name":"Algodão de Jandaíra","latitude":-6.86987,"longitude":-35.97724},{"id":10136,"name":"Alhandra","latitude":-7.35043,"longitude":-34.92835},{"id":10219,"name":"Amparo","latitude":-7.55889,"longitude":-37.03372},{"id":10284,"name":"Aparecida","latitude":-6.80925,"longitude":-38.07182},{"id":10366,"name":"Araçagi","latitude":-6.85419,"longitude":-35.36047},{"id":10347,"name":"Arara","latitude":-6.82833,"longitude":-35.75833},{"id":10357,"name":"Araruna","latitude":-6.55833,"longitude":-35.74167},{"id":10383,"name":"Areia","latitude":-6.94723,"longitude":-35.66927},{"id":10386,"name":"Areia de Baraúnas","latitude":-7.11328,"longitude":-36.97177},{"id":10387,"name":"Areial","latitude":-7.04397,"longitude":-35.92622},{"id":10405,"name":"Aroeiras","latitude":-7.52057,"longitude":-35.69927},{"id":10430,"name":"Assunção","latitude":-7.07371,"longitude":-36.69894},{"id":10589,"name":"Baía da Traição","latitude":-6.66287,"longitude":-34.97272},{"id":10496,"name":"Bananeiras","latitude":-6.75,"longitude":-35.63333},{"id":10505,"name":"Baraúna","latitude":-6.61853,"longitude":-36.26964},{"id":10525,"name":"Barra de Santa Rosa","latitude":-6.79042,"longitude":-36.00175},{"id":10526,"name":"Barra de Santana","latitude":-7.59054,"longitude":-35.98824},{"id":10530,"name":"Barra de São Miguel","latitude":-7.7164,"longitude":-36.25481},{"id":10587,"name":"Bayeux","latitude":-7.12136,"longitude":-34.91725},{"id":10614,"name":"Belém","latitude":-6.69167,"longitude":-35.53333},{"id":10619,"name":"Belém do Brejo do Cruz","latitude":-6.18861,"longitude":-37.53583},{"id":10634,"name":"Bernardino Batista","latitude":-6.47656,"longitude":-38.56998},{"id":10664,"name":"Boa Ventura","latitude":-7.45676,"longitude":-38.17678},{"id":10667,"name":"Boa Vista","latitude":-7.26995,"longitude":-36.15741},{"id":10700,"name":"Bom Jesus","latitude":-6.81845,"longitude":-38.62549},{"id":10725,"name":"Bom Sucesso","latitude":-6.47349,"longitude":-37.9577},{"id":10741,"name":"Bonito de Santa Fé","latitude":-7.2894,"longitude":-38.47977},{"id":10743,"name":"Boqueirão","latitude":-7.48237,"longitude":-36.13422},{"id":10751,"name":"Borborema","latitude":-6.79913,"longitude":-35.62094},{"id":10795,"name":"Brejo do Cruz","latitude":-6.32578,"longitude":-37.49716},{"id":10797,"name":"Brejo dos Santos","latitude":-6.39546,"longitude":-37.8607},{"id":10842,"name":"Caaporã","latitude":-7.51556,"longitude":-34.90833},{"id":10845,"name":"Cabaceiras","latitude":-7.50856,"longitude":-36.33351},{"id":10850,"name":"Cabedelo","latitude":-6.98111,"longitude":-34.83389},{"id":10874,"name":"Cachoeira dos Índios","latitude":-6.94486,"longitude":-38.69902},{"id":10880,"name":"Cacimba de Areia","latitude":-7.13451,"longitude":-37.1537},{"id":10881,"name":"Cacimba de Dentro","latitude":-6.64167,"longitude":-35.79},{"id":10882,"name":"Cacimbas","latitude":-7.2318,"longitude":-37.09984},{"id":10907,"name":"Caiçara","latitude":-6.59631,"longitude":-35.39497},{"id":10915,"name":"Cajazeiras","latitude":-6.89028,"longitude":-38.55528},{"id":10917,"name":"Cajazeirinhas","latitude":-6.94633,"longitude":-37.81454},{"id":10924,"name":"Caldas Brandão","latitude":-7.15105,"longitude":-35.3487},{"id":10936,"name":"Camalaú","latitude":-7.92695,"longitude":-36.74211},{"id":10962,"name":"Campina Grande","latitude":-7.23056,"longitude":-35.88111},{"id":11073,"name":"Capim","latitude":-6.8915,"longitude":-35.183},{"id":11118,"name":"Caraúbas","latitude":-7.79092,"longitude":-36.50278},{"id":11164,"name":"Carrapateira","latitude":-7.02919,"longitude":-38.32951},{"id":11182,"name":"Casserengue","latitude":-6.7813,"longitude":-35.81676},{"id":11203,"name":"Catingueira","latitude":-7.13699,"longitude":-37.59654},{"id":11205,"name":"Catolé do Rocha","latitude":-6.34389,"longitude":-37.74667},{"id":11211,"name":"Caturité","latitude":-7.41991,"longitude":-36.04194},{"id":11344,"name":"Conceição","latitude":-7.49917,"longitude":-38.51375},{"id":11370,"name":"Condado","latitude":-6.85244,"longitude":-37.61864},{"id":11371,"name":"Conde","latitude":-7.25972,"longitude":-34.9075},{"id":11377,"name":"Congo","latitude":-7.79578,"longitude":-36.63487},{"id":11406,"name":"Coremas","latitude":-7.01444,"longitude":-37.94583},{"id":11459,"name":"Coxixola","latitude":-7.66749,"longitude":-36.61824},{"id":11492,"name":"Cruz do Espírito Santo","latitude":-7.14,"longitude":-35.08639},{"id":11505,"name":"Cubati","latitude":-6.86116,"longitude":-36.33415},{"id":11509,"name":"Cuité","latitude":-6.48361,"longitude":-36.15361},{"id":11510,"name":"Cuité de Mamanguape","latitude":-6.89788,"longitude":-35.26042},{"id":11508,"name":"Cuitegi","latitude":-6.90639,"longitude":-35.53423},{"id":11531,"name":"Curral de Cima","latitude":-6.72359,"longitude":-35.28596},{"id":11530,"name":"Curral Velho","latitude":-7.55796,"longitude":-38.19847},{"id":11560,"name":"Damião","latitude":-6.67843,"longitude":-35.92205},{"id":11579,"name":"Desterro","latitude":-7.29056,"longitude":-37.09389},{"id":11584,"name":"Diamante","latitude":-7.41004,"longitude":-38.30873},{"id":11642,"name":"Dona Inês","latitude":-6.61354,"longitude":-35.62654},{"id":11665,"name":"Duas Estradas","latitude":-6.71946,"longitude":-35.39737},{"id":11687,"name":"Emas","latitude":-7.1268,"longitude":-37.73881},{"id":11731,"name":"Esperança","latitude":-6.99864,"longitude":-35.90777},{"id":11770,"name":"Fagundes","latitude":-7.355,"longitude":-35.775},{"id":11894,"name":"Frei Martinho","latitude":-6.44605,"longitude":-36.48061},{"id":11911,"name":"Gado Bravo","latitude":-7.59984,"longitude":-35.81967},{"id":12034,"name":"Guarabira","latitude":-6.85472,"longitude":-35.49},{"id":12086,"name":"Gurinhém","latitude":-7.12389,"longitude":-35.42444},{"id":12087,"name":"Gurjão","latitude":-7.261,"longitude":-36.50008},{"id":12130,"name":"Ibiara","latitude":-7.48251,"longitude":-38.38051},{"id":12179,"name":"Igaracy","latitude":-7.13856,"longitude":-38.13526},{"id":12217,"name":"Imaculada","latitude":-7.38972,"longitude":-37.50917},{"id":12245,"name":"Ingá","latitude":-7.25441,"longitude":-35.62897},{"id":12325,"name":"Itabaiana","latitude":-7.32861,"longitude":-35.3325},{"id":12430,"name":"Itaporanga","latitude":-7.30035,"longitude":-38.25159},{"id":12432,"name":"Itapororoca","latitude":-6.81152,"longitude":-35.24478},{"id":12461,"name":"Itatuba","latitude":-7.375,"longitude":-35.62833},{"id":12518,"name":"Jacaraú","latitude":-6.61222,"longitude":-35.29278},{"id":12621,"name":"Jericó","latitude":-6.50746,"longitude":-37.80665},{"id":12665,"name":"João Pessoa","latitude":-7.115,"longitude":-34.86306},{"id":12643,"name":"Joca Claudino","latitude":-6.48432,"longitude":-38.46407},{"id":12669,"name":"Juarez Távora","latitude":-7.15975,"longitude":-35.5716},{"id":12672,"name":"Juazeirinho","latitude":-6.99463,"longitude":-36.60213},{"id":12683,"name":"Junco do Seridó","latitude":-6.97843,"longitude":-36.72769},{"id":12698,"name":"Juripiranga","latitude":-7.35,"longitude":-35.22087},{"id":12699,"name":"Juru","latitude":-7.49131,"longitude":-37.78854},{"id":12733,"name":"Lagoa","latitude":-6.59521,"longitude":-37.84991},{"id":12752,"name":"Lagoa de Dentro","latitude":-6.68308,"longitude":-35.35907},{"id":12746,"name":"Lagoa Seca","latitude":-7.17083,"longitude":-35.85361},{"id":12802,"name":"Lastro","latitude":-6.5374,"longitude":-38.18946},{"id":12842,"name":"Livramento","latitude":-7.34008,"longitude":-36.93209},{"id":12848,"name":"Logradouro","latitude":-6.55268,"longitude":-35.42864},{"id":12858,"name":"Lucena","latitude":-6.92461,"longitude":-34.90267},{"id":13292,"name":"Mãe d'Água","latitude":-7.2199,"longitude":-37.45284},{"id":12930,"name":"Malta","latitude":-6.904,"longitude":-37.51251},{"id":12931,"name":"Mamanguape","latitude":-6.83861,"longitude":-35.12611},{"id":12940,"name":"Manaíra","latitude":-7.70611,"longitude":-38.15444},{"id":12990,"name":"Marcação","latitude":-6.74717,"longitude":-34.99103},{"id":13003,"name":"Mari","latitude":-7.07138,"longitude":-35.30258},{"id":13023,"name":"Marizópolis","latitude":-6.82133,"longitude":-38.33496},{"id":13043,"name":"Massaranduba","latitude":-7.20476,"longitude":-35.78379},{"id":13050,"name":"Mataraca","latitude":-6.55476,"longitude":-35.0369},{"id":13061,"name":"Matinhas","latitude":-7.12428,"longitude":-35.7607},{"id":13065,"name":"Mato Grosso","latitude":-6.54728,"longitude":-37.75067},{"id":13075,"name":"Maturéia","latitude":-7.27175,"longitude":-37.3394},{"id":13164,"name":"Mogeiro","latitude":-7.29944,"longitude":-35.47944},{"id":13181,"name":"Montadas","latitude":-7.08947,"longitude":-35.903},{"id":13205,"name":"Monte Horebe","latitude":-7.20792,"longitude":-38.52503},{"id":13215,"name":"Monteiro","latitude":-7.91637,"longitude":-37.17496},{"id":13266,"name":"Mulungu","latitude":-7.02444,"longitude":-35.46194},{"id":13304,"name":"Natuba","latitude":-7.64139,"longitude":-35.55},{"id":13309,"name":"Nazarezinho","latitude":-6.91991,"longitude":-38.32592},{"id":13379,"name":"Nova Floresta","latitude":-6.48792,"longitude":-36.20101},{"id":13410,"name":"Nova Olinda","latitude":-7.45231,"longitude":-38.01122},{"id":13417,"name":"Nova Palmeira","latitude":-6.67346,"longitude":-36.44186},{"id":13494,"name":"Olho d'Água","latitude":-7.26106,"longitude":-37.73242},{"id":13505,"name":"Olivedos","latitude":-6.99403,"longitude":-36.23822},{"id":13544,"name":"Ouro Velho","latitude":-7.60554,"longitude":-37.13565},{"id":13652,"name":"Parari","latitude":-7.31136,"longitude":-36.67699},{"id":13692,"name":"Passagem","latitude":-7.11889,"longitude":-37.03671},{"id":13706,"name":"Patos","latitude":-7.02444,"longitude":-37.28},{"id":13726,"name":"Paulista","latitude":-6.59504,"longitude":-37.60966},{"id":13750,"name":"Pedra Branca","latitude":-7.46068,"longitude":-38.07996},{"id":13754,"name":"Pedra Lavrada","latitude":-6.78024,"longitude":-36.442},{"id":13764,"name":"Pedras de Fogo","latitude":-7.40194,"longitude":-35.11639},{"id":13781,"name":"Pedro Régis","latitude":-6.67047,"longitude":-35.31031},{"id":13824,"name":"Piancó","latitude":-7.19806,"longitude":-37.92917},{"id":13830,"name":"Picuí","latitude":-6.51056,"longitude":-36.34694},{"id":13836,"name":"Pilar","latitude":-7.25739,"longitude":-35.26971},{"id":13841,"name":"Pilões","latitude":-6.89446,"longitude":-35.59432},{"id":13843,"name":"Pilõezinhos","latitude":-6.85269,"longitude":-35.54455},{"id":13920,"name":"Pirpirituba","latitude":-6.78,"longitude":-35.49861},{"id":13925,"name":"Pitimbu","latitude":-7.41381,"longitude":-34.83686},{"id":13946,"name":"Pocinhos","latitude":-7.07667,"longitude":-36.06111},{"id":14046,"name":"Poço Dantas","latitude":-6.38792,"longitude":-38.53359},{"id":14052,"name":"Poço de José de Moura","latitude":-6.59957,"longitude":-38.50574},{"id":13951,"name":"Pombal","latitude":-6.77028,"longitude":-37.80167},{"id":14068,"name":"Prata","latitude":-7.7125,"longitude":-37.09411},{"id":14107,"name":"Princesa Isabel","latitude":-7.73667,"longitude":-37.99333},{"id":14118,"name":"Puxinanã","latitude":-7.16111,"longitude":-35.96056},{"id":14140,"name":"Queimadas","latitude":-7.42696,"longitude":-35.89774},{"id":14158,"name":"Quixaba","latitude":-7.05081,"longitude":-37.11783},{"id":14194,"name":"Remígio","latitude":-6.94646,"longitude":-35.78039},{"id":14221,"name":"Riachão","latitude":-6.55515,"longitude":-35.62324},{"id":14223,"name":"Riachão do Bacamarte","latitude":-7.26337,"longitude":-35.67518},{"id":14226,"name":"Riachão do Poço","latitude":-7.17041,"longitude":-35.303},{"id":14215,"name":"Riacho de Santo Antônio","latitude":-7.66143,"longitude":-36.13551},{"id":14216,"name":"Riacho dos Cavalos","latitude":-6.4714,"longitude":-37.64024},{"id":14299,"name":"Rio Tinto","latitude":-6.79673,"longitude":-35.03715},{"id":14382,"name":"Salgadinho","latitude":-7.08934,"longitude":-36.86318},{"id":14385,"name":"Salgado de São Félix","latitude":-7.35694,"longitude":-35.44056},{"id":14433,"name":"Santa Cecília","latitude":-7.72027,"longitude":-35.93681},{"id":14440,"name":"Santa Cruz","latitude":-6.54542,"longitude":-38.04968},{"id":14471,"name":"Santa Helena","latitude":-6.72745,"longitude":-38.59506},{"id":14478,"name":"Santa Inês","latitude":-7.68334,"longitude":-38.59346},{"id":14489,"name":"Santa Luzia","latitude":-6.87222,"longitude":-36.91861},{"id":14525,"name":"Santa Rita","latitude":-7.10437,"longitude":-34.97387},{"id":14552,"name":"Santa Teresinha","latitude":-7.12089,"longitude":-37.49654},{"id":14574,"name":"Santana de Mangueira","latitude":-7.66593,"longitude":-38.35848},{"id":14595,"name":"Santana dos Garrotes","latitude":-7.38163,"longitude":-37.95386},{"id":14608,"name":"Santo André","latitude":-7.24178,"longitude":-36.6146},{"id":14834,"name":"São Bentinho","latitude":-6.88452,"longitude":-37.75898},{"id":14836,"name":"São Bento","latitude":-6.47344,"longitude":-37.47144},{"id":14862,"name":"São Domingos","latitude":-6.80733,"longitude":-37.91657},{"id":14870,"name":"São Domingos do Cariri","latitude":-7.56749,"longitude":-36.36393},{"id":14879,"name":"São Francisco","latitude":-6.63302,"longitude":-38.0378},{"id":15027,"name":"São João do Cariri","latitude":-7.48465,"longitude":-36.48602},{"id":15042,"name":"São João do Rio do Peixe","latitude":-6.71851,"longitude":-38.42942},{"id":15046,"name":"São João do Tigre","latitude":-8.10906,"longitude":-36.79766},{"id":14943,"name":"São José da Lagoa Tapada","latitude":-6.94245,"longitude":-38.09393},{"id":14952,"name":"São José de Caiana","latitude":-7.25916,"longitude":-38.34483},{"id":14953,"name":"São José de Espinharas","latitude":-6.80244,"longitude":-37.38224},{"id":14955,"name":"São José de Piranhas","latitude":-7.12056,"longitude":-38.50194},{"id":14956,"name":"São José de Princesa","latitude":-7.70649,"longitude":-38.08465},{"id":14962,"name":"São José do Bonfim","latitude":-7.13715,"longitude":-37.31607},{"id":14963,"name":"São José do Brejo do Cruz","latitude":-6.23731,"longitude":-37.37932},{"id":14986,"name":"São José do Sabugi","latitude":-6.82784,"longitude":-36.80335},{"id":14994,"name":"São José dos Cordeiros","latitude":-7.41638,"longitude":-36.84773},{"id":14997,"name":"São José dos Ramos","latitude":-7.25103,"longitude":-35.3741},{"id":15068,"name":"São Mamede","latitude":-6.92111,"longitude":-37.09131},{"id":15084,"name":"São Miguel de Taipu","latitude":-7.21706,"longitude":-35.20175},{"id":15142,"name":"São Sebastião de Lagoa de Roça","latitude":-7.08497,"longitude":-35.84445},{"id":15154,"name":"São Sebastião do Umbuzeiro","latitude":-8.1569,"longitude":-37.0222},{"id":15173,"name":"São Vicente do Seridó","latitude":-6.88683,"longitude":-36.42652},{"id":14665,"name":"Sapé","latitude":-7.07937,"longitude":-35.21734},{"id":14725,"name":"Serra Branca","latitude":-6.53333,"longitude":-38.26667},{"id":14735,"name":"Serra da Raiz","latitude":-6.69703,"longitude":-35.43579},{"id":14728,"name":"Serra Grande","latitude":-7.2509,"longitude":-38.39588},{"id":14733,"name":"Serra Redonda","latitude":-7.15665,"longitude":-35.67628},{"id":14750,"name":"Serraria","latitude":-6.86365,"longitude":-35.66926},{"id":14763,"name":"Sertãozinho","latitude":-6.73939,"longitude":-35.41628},{"id":14797,"name":"Sobrado","latitude":-7.16887,"longitude":-35.23251},{"id":14807,"name":"Solânea","latitude":-6.73321,"longitude":-35.69495},{"id":14802,"name":"Soledade","latitude":-7.05722,"longitude":-36.36278},{"id":14813,"name":"Sossêgo","latitude":-6.67592,"longitude":-36.17875},{"id":14815,"name":"Sousa","latitude":-6.73098,"longitude":-38.18614},{"id":14825,"name":"Sumé","latitude":-7.67167,"longitude":-36.88},{"id":15196,"name":"Tacima","latitude":-6.53805,"longitude":-35.52277},{"id":15230,"name":"Taperoá","latitude":-7.1687,"longitude":-36.79197},{"id":15262,"name":"Tavares","latitude":-7.61418,"longitude":-37.87959},{"id":15265,"name":"Teixeira","latitude":-7.24821,"longitude":-37.27523},{"id":15277,"name":"Tenório","latitude":-6.97568,"longitude":-36.62216},{"id":15362,"name":"Triunfo","latitude":-6.58475,"longitude":-38.57827},{"id":15442,"name":"Uiraúna","latitude":-6.4965,"longitude":-38.38015},{"id":15449,"name":"Umbuzeiro","latitude":-7.67111,"longitude":-35.73927},{"id":15613,"name":"Várzea","latitude":-6.80276,"longitude":-37.03707},{"id":15563,"name":"Vieirópolis","latitude":-6.55838,"longitude":-38.27091},{"id":15593,"name":"Vista Serrana","latitude":-6.74167,"longitude":-37.57597},{"id":15644,"name":"Zabelê","latitude":-8.07634,"longitude":-37.05635}]