[{"id":97518,"name":"Aginskoye","latitude":51.1,"longitude":114.53},{"id":97543,"name":"Aksha","latitude":50.28139,"longitude":113.28667},{"id":97544,"name":"Akshinskiy Rayon","latitude":50.25,"longitude":113.25},{"id":97567,"name":"Aleksandrovo-Zavodskiy Rayon","latitude":50.91667,"longitude":117.95},{"id":97573,"name":"Aleksandrovskiy Zavod","latitude":50.92525,"longitude":117.93773},{"id":97611,"name":"Amazar","latitude":53.86033,"longitude":120.87925},{"id":97707,"name":"Atamanovka","latitude":51.93333,"longitude":113.63333},{"id":97750,"name":"Bada","latitude":51.391,"longitude":109.86145},{"id":97776,"name":"Baley","latitude":51.58166,"longitude":116.63395},{"id":97777,"name":"Baleyskiy Rayon","latitude":51.5,"longitude":117.0},{"id":97785,"name":"Balyaga","latitude":51.15293,"longitude":108.92767},{"id":98001,"name":"Bol’shaya Tura","latitude":51.61642,"longitude":114.11242},{"id":98044,"name":"Borzinskiy Rayon","latitude":50.16667,"longitude":117.33333},{"id":98046,"name":"Borzya","latitude":50.38333,"longitude":116.51667},{"id":98073,"name":"Bukachacha","latitude":52.98333,"longitude":116.91667},{"id":98118,"name":"Chara","latitude":56.90639,"longitude":118.26306},{"id":98180,"name":"Chernyshevsk","latitude":52.52209,"longitude":117.01712},{"id":98204,"name":"Chita","latitude":52.03171,"longitude":113.50087},{"id":98205,"name":"Chitinskiy Rayon","latitude":52.0,"longitude":113.50024},{"id":98246,"name":"Darasun","latitude":51.6594,"longitude":113.97515},{"id":98248,"name":"Dauriya","latitude":49.93333,"longitude":116.86667},{"id":98306,"name":"Domna","latitude":51.89712,"longitude":113.1573},{"id":98326,"name":"Drovyanaya","latitude":51.5762,"longitude":113.04078},{"id":98353,"name":"Dul’durga","latitude":50.67611,"longitude":113.59306},{"id":98468,"name":"Gazimuro-Zavodskiy Rayon","latitude":51.55,"longitude":118.36667},{"id":98469,"name":"Gazimurskiy Zavod","latitude":51.55352,"longitude":118.3446},{"id":98767,"name":"Kadaya","latitude":50.93254,"longitude":119.29468},{"id":98780,"name":"Kalanguy","latitude":51.01667,"longitude":116.51667},{"id":98783,"name":"Kalga","latitude":50.92538,"longitude":118.89958},{"id":98889,"name":"Karymskoye","latitude":51.61667,"longitude":114.35},{"id":98979,"name":"Khilok","latitude":51.36777,"longitude":110.46804},{"id":98991,"name":"Kholbon","latitude":51.88333,"longitude":116.25},{"id":99100,"name":"Klichka","latitude":50.4457,"longitude":117.996},{"id":99110,"name":"Klyuchevskiy","latitude":53.5336,"longitude":119.45269},{"id":99135,"name":"Kokuy","latitude":52.20634,"longitude":117.55412},{"id":99320,"name":"Krasnokamensk","latitude":50.0979,"longitude":118.0369},{"id":99361,"name":"Krasnyy Chikoy","latitude":50.36321,"longitude":108.75445},{"id":99412,"name":"Kuanda","latitude":56.31611,"longitude":116.08056},{"id":99468,"name":"Kurort-Darasun","latitude":51.19905,"longitude":113.71599},{"id":99518,"name":"Kyra","latitude":49.57903,"longitude":111.97638},{"id":99745,"name":"Makkaveyevo","latitude":51.75325,"longitude":113.9454},{"id":99939,"name":"Mogocha","latitude":53.73417,"longitude":119.76515},{"id":99940,"name":"Mogoytuy","latitude":51.28333,"longitude":114.91667},{"id":99941,"name":"Mogzon","latitude":51.7406,"longitude":111.96555},{"id":100104,"name":"Nerchinsk","latitude":51.98333,"longitude":116.58333},{"id":100105,"name":"Nerchinskiy Zavod","latitude":51.30829,"longitude":119.61597},{"id":100106,"name":"Nerchinsko-Zavodskiy Rayon","latitude":51.31667,"longitude":119.6},{"id":100176,"name":"Nizhniy Tsasuchey","latitude":50.51667,"longitude":115.13333},{"id":100201,"name":"Novaya Chara","latitude":56.81639,"longitude":118.29861},{"id":100253,"name":"Novokruchininskiy","latitude":51.7836,"longitude":113.77591},{"id":100273,"name":"Novoorlovsk","latitude":51.07549,"longitude":114.7261},{"id":100277,"name":"Novopavlovka","latitude":51.21724,"longitude":109.21305},{"id":100425,"name":"Olovyannaya","latitude":50.95,"longitude":115.56667},{"id":100426,"name":"Olovyanninskiy Rayon","latitude":51.0,"longitude":116.16667},{"id":100474,"name":"Orlovskiy","latitude":51.03333,"longitude":114.83333},{"id":100621,"name":"Pervomayskiy","latitude":51.67013,"longitude":115.62543},{"id":100660,"name":"Petrovsk-Zabaykal’skiy","latitude":51.2753,"longitude":108.84301},{"id":100814,"name":"Priargunsk","latitude":50.3691,"longitude":119.1012},{"id":100815,"name":"Priargunskiy Rayon","latitude":50.75,"longitude":118.5},{"id":100823,"name":"Priiskovyy","latitude":51.93333,"longitude":116.63333},{"id":101293,"name":"Shelopugino","latitude":51.65286,"longitude":117.56303},{"id":101313,"name":"Shilka","latitude":51.85,"longitude":116.03333},{"id":101314,"name":"Shilkinskiy Rayon","latitude":52.0,"longitude":115.66667},{"id":101414,"name":"Smolenka","latitude":52.13523,"longitude":113.4974},{"id":101548,"name":"Sretensk","latitude":52.2478,"longitude":117.70835},{"id":101549,"name":"Sretenskiy Rayon","latitude":52.33333,"longitude":117.83333},{"id":101771,"name":"Tarbagatay","latitude":51.17559,"longitude":109.09484},{"id":102045,"name":"Uletovskiy Rayon","latitude":51.0,"longitude":112.0},{"id":102046,"name":"Ulety","latitude":51.35589,"longitude":112.4843},{"id":102128,"name":"Ust’-Karsk","latitude":52.70206,"longitude":118.80163},{"id":102235,"name":"Verkh-Usugli","latitude":52.7,"longitude":115.16667},{"id":102285,"name":"Vershino-Darasunskiy","latitude":52.36604,"longitude":115.52661},{"id":102286,"name":"Vershino-Shakhtaminskiy","latitude":51.30024,"longitude":117.88762},{"id":102624,"name":"Zabaykal’sk","latitude":49.6513,"longitude":117.32557},{"id":102733,"name":"Zhireken","latitude":52.82657,"longitude":117.30725}]