[{"id":143783,"name":"Albeck","latitude":46.81666667,"longitude":14.1},{"id":1646,"name":"Althofen","latitude":46.87298,"longitude":14.47449},{"id":1668,"name":"Annabichl","latitude":46.65,"longitude":14.31667},{"id":1679,"name":"Arnoldstein","latitude":46.54611,"longitude":13.71},{"id":1681,"name":"Arriach","latitude":46.72921,"longitude":13.85046},{"id":1706,"name":"Auen","latitude":46.59963,"longitude":13.84389},{"id":143785,"name":"Bad Bleiberg","latitude":46.62416667,"longitude":13.68777778},{"id":143786,"name":"Bad Eisenkappel","latitude":46.48333333,"longitude":14.6},{"id":143787,"name":"Bad Kleinkirchheim","latitude":46.81361111,"longitude":13.79277778},{"id":1733,"name":"Bad Sankt Leonhard im Lavanttal","latitude":46.96278,"longitude":14.79167},{"id":1746,"name":"Baldramsdorf","latitude":46.80111,"longitude":13.45333},{"id":1755,"name":"Berg im Drautal","latitude":46.74915,"longitude":13.13536},{"id":1781,"name":"Bleiburg","latitude":46.59,"longitude":14.79889},{"id":1788,"name":"Bodensdorf","latitude":46.69111,"longitude":13.97111},{"id":1816,"name":"Brückl","latitude":46.75167,"longitude":14.53667},{"id":1833,"name":"Dellach","latitude":46.66175,"longitude":13.07965},{"id":1834,"name":"Dellach im Drautal","latitude":46.7375,"longitude":13.07833},{"id":1838,"name":"Deutsch Griffen","latitude":46.85606,"longitude":14.07501},{"id":143791,"name":"Deutsch-Griffen","latitude":46.855,"longitude":14.07388889},{"id":1854,"name":"Diex","latitude":46.75,"longitude":14.6},{"id":1871,"name":"Döbriach","latitude":46.78049,"longitude":13.65738},{"id":1866,"name":"Draschen","latitude":46.76909,"longitude":14.06758},{"id":1886,"name":"Ebenthal","latitude":46.60806,"longitude":14.36417},{"id":1890,"name":"Eberndorf","latitude":46.59139,"longitude":14.64361},{"id":1894,"name":"Eberstein","latitude":46.80806,"longitude":14.56},{"id":143792,"name":"Ebriach","latitude":46.46667,"longitude":14.51667},{"id":143793,"name":"Eisenkappel-Vellach","latitude":46.48638889,"longitude":14.59611111},{"id":1957,"name":"Faak am See","latitude":46.56806,"longitude":13.90972},{"id":143794,"name":"Feffernitz","latitude":46.68333333,"longitude":13.7},{"id":1966,"name":"Feistritz an der Drau","latitude":46.70157,"longitude":13.66479},{"id":1967,"name":"Feistritz an der Gail","latitude":46.5775,"longitude":13.60667},{"id":1969,"name":"Feistritz im Rosental","latitude":46.51667,"longitude":14.16667},{"id":1970,"name":"Feistritz ob Bleiburg","latitude":46.55,"longitude":14.76667},{"id":1971,"name":"Feld am See","latitude":46.77639,"longitude":13.74778},{"id":2998,"name":"Feldkirchen District","latitude":46.72127,"longitude":14.09683},{"id":1976,"name":"Feldkirchen in Kärnten","latitude":46.72368,"longitude":14.0958},{"id":1980,"name":"Ferlach","latitude":46.52694,"longitude":14.30194},{"id":1981,"name":"Ferndorf","latitude":46.73651,"longitude":13.62661},{"id":1988,"name":"Finkenstein","latitude":46.56155,"longitude":13.87086},{"id":1989,"name":"Finkenstein am Faaker See","latitude":46.57904,"longitude":13.93496},{"id":1997,"name":"Flattach","latitude":46.93861,"longitude":13.13444},{"id":2033,"name":"Föderlach I","latitude":46.59998,"longitude":13.96128},{"id":143797,"name":"Frantschach-Sankt Gertraud","latitude":46.86111111,"longitude":14.86027778},{"id":2015,"name":"Frauenstein","latitude":46.81417,"longitude":14.29417},{"id":2021,"name":"Fresach","latitude":46.71556,"longitude":13.69083},{"id":2022,"name":"Fresen","latitude":46.70516,"longitude":14.04513},{"id":2024,"name":"Friesach","latitude":46.95528,"longitude":14.40583},{"id":2036,"name":"Fürnitz","latitude":46.56188,"longitude":13.81732},{"id":2043,"name":"Gailitz","latitude":46.56083,"longitude":13.70444},{"id":2046,"name":"Gallizien","latitude":46.55,"longitude":14.51667},{"id":143800,"name":"Gemmersdorf","latitude":46.7574,"longitude":14.9022},{"id":143801,"name":"Gerlamoos","latitude":46.76391,"longitude":13.272},{"id":143802,"name":"Gitschtal","latitude":46.67972222,"longitude":13.26055556},{"id":2083,"name":"Glanegg","latitude":46.72259,"longitude":14.19893},{"id":2088,"name":"Globasnitz","latitude":46.55694,"longitude":14.70278},{"id":2091,"name":"Glödnitz","latitude":46.87398,"longitude":14.11915},{"id":2093,"name":"Gmünd","latitude":46.90722,"longitude":13.52944},{"id":143803,"name":"Gmünd in Kärnten","latitude":46.91472,"longitude":13.5467},{"id":2099,"name":"Gnesau","latitude":46.77544,"longitude":13.96251},{"id":143806,"name":"Görtschach","latitude":46.61278,"longitude":13.465},{"id":2113,"name":"Grafenstein","latitude":46.61393,"longitude":14.46719},{"id":2124,"name":"Greifenburg","latitude":46.75027,"longitude":13.17982},{"id":2130,"name":"Gries","latitude":46.8316,"longitude":14.85103},{"id":2135,"name":"Griffen","latitude":46.70444,"longitude":14.73278},{"id":2155,"name":"Großkirchheim","latitude":46.9727,"longitude":12.89589},{"id":2178,"name":"Gurk","latitude":46.87389,"longitude":14.29167},{"id":2182,"name":"Guttaring","latitude":46.88536,"longitude":14.51071},{"id":2258,"name":"Heiligenblut","latitude":47.03979,"longitude":12.84345},{"id":2271,"name":"Hermagor","latitude":46.62722,"longitude":13.36722},{"id":3008,"name":"Hermagor District","latitude":46.63137,"longitude":13.13246},{"id":143807,"name":"Hermagor-Pressegger See","latitude":46.62722222,"longitude":13.36722222},{"id":2282,"name":"Himmelberg","latitude":46.75667,"longitude":14.03056},{"id":2319,"name":"Hohenthurn","latitude":46.55774,"longitude":13.66038},{"id":2344,"name":"Hörtendorf","latitude":46.63333,"longitude":14.4},{"id":2348,"name":"Hüttenberg","latitude":46.94139,"longitude":14.55},{"id":2367,"name":"Irschen","latitude":46.75694,"longitude":13.02528},{"id":2402,"name":"Kappel am Krappfeld","latitude":46.83861,"longitude":14.48639},{"id":2420,"name":"Keutschach am See","latitude":46.59306,"longitude":14.18889},{"id":2424,"name":"Kirchbach","latitude":46.6416,"longitude":13.18454},{"id":143810,"name":"Klagenfurt","latitude":46.63873,"longitude":14.2973},{"id":2446,"name":"Klagenfurt am Wörthersee","latitude":46.63333,"longitude":14.3},{"id":3016,"name":"Klagenfurt-Land District","latitude":46.56722,"longitude":14.29295},{"id":143811,"name":"Kleblach-Lind","latitude":46.76722222,"longitude":13.35805556},{"id":2449,"name":"Klein Sankt Paul","latitude":46.83611,"longitude":14.54139},{"id":2453,"name":"Kleinedling","latitude":46.81417,"longitude":14.82778},{"id":2514,"name":"Kötschach","latitude":46.68167,"longitude":13.00694},{"id":143813,"name":"Kötschach-Mauthen","latitude":46.66666667,"longitude":13.0},{"id":2515,"name":"Köttmannsdorf","latitude":46.56139,"longitude":14.23389},{"id":143812,"name":"Krems","latitude":46.9225,"longitude":13.5675},{"id":2500,"name":"Krumpendorf","latitude":46.63333,"longitude":14.21667},{"id":2516,"name":"Kühnsdorf","latitude":46.62194,"longitude":14.63639},{"id":143814,"name":"Lamnitz","latitude":46.86666667,"longitude":12.98333333},{"id":2533,"name":"Landskron","latitude":46.61667,"longitude":13.88333},{"id":2553,"name":"Launsdorf","latitude":46.77056,"longitude":14.45194},{"id":2556,"name":"Lavamünd","latitude":46.64019,"longitude":14.94733},{"id":2561,"name":"Ledenitzen","latitude":46.56639,"longitude":13.96139},{"id":2574,"name":"Lendorf","latitude":46.83528,"longitude":13.43028},{"id":143816,"name":"Leppen","latitude":46.48333,"longitude":14.63333},{"id":143817,"name":"Lesachtal","latitude":46.69388889,"longitude":12.81583333},{"id":2594,"name":"Liebenfels","latitude":46.73778,"longitude":14.28667},{"id":2601,"name":"Lind","latitude":46.62244,"longitude":13.84715},{"id":143818,"name":"Lobersberg","latitude":46.865,"longitude":12.91111111},{"id":2618,"name":"Ludmannsdorf","latitude":46.54139,"longitude":14.13425},{"id":143819,"name":"Lurnfeld","latitude":46.83333333,"longitude":13.36666667},{"id":143820,"name":"Magdalensberg","latitude":46.70111111,"longitude":14.43111111},{"id":143821,"name":"Mallnitz","latitude":46.98972222,"longitude":13.17},{"id":143822,"name":"Malta","latitude":46.96666667,"longitude":13.51666667},{"id":2646,"name":"Maria Rain","latitude":46.55389,"longitude":14.29556},{"id":2647,"name":"Maria Saal","latitude":46.68083,"longitude":14.34861},{"id":2650,"name":"Maria Wörth","latitude":46.61639,"longitude":14.16306},{"id":2678,"name":"Mautbrücken","latitude":46.72037,"longitude":14.19399},{"id":2692,"name":"Metnitz","latitude":46.98056,"longitude":14.21667},{"id":2696,"name":"Micheldorf","latitude":46.91667,"longitude":14.41667},{"id":2702,"name":"Millstatt","latitude":46.80417,"longitude":13.58056},{"id":2742,"name":"Mölbling","latitude":46.85,"longitude":14.43333},{"id":2743,"name":"Möllbrücke","latitude":46.83639,"longitude":13.37278},{"id":2726,"name":"Moosburg","latitude":46.6575,"longitude":14.17472},{"id":2749,"name":"Mörtschach","latitude":46.92389,"longitude":12.91778},{"id":2755,"name":"Mühldorf","latitude":46.86028,"longitude":13.35361},{"id":2782,"name":"Neu-Feffernitz","latitude":46.68772,"longitude":13.67914},{"id":2794,"name":"Neuhaus","latitude":46.63333,"longitude":14.88333},{"id":2823,"name":"Niederdorf","latitude":46.61667,"longitude":14.4},{"id":143829,"name":"Nötsch im Gailtal","latitude":46.59,"longitude":13.62277778},{"id":143830,"name":"Oberdörfl","latitude":46.55528,"longitude":14.10806},{"id":2849,"name":"Oberdrauburg","latitude":46.74306,"longitude":12.97028},{"id":143831,"name":"Obermillstatt","latitude":46.8106,"longitude":13.5908},{"id":2879,"name":"Obervellach","latitude":46.93667,"longitude":13.20417},{"id":2906,"name":"Ossiach","latitude":46.67435,"longitude":13.98358},{"id":2928,"name":"Paternion","latitude":46.71417,"longitude":13.63611},{"id":143832,"name":"Pischeldorf","latitude":46.68333,"longitude":14.45},{"id":143834,"name":"Pöckau","latitude":46.55,"longitude":13.7333},{"id":2986,"name":"Poggersdorf","latitude":46.65,"longitude":14.45},{"id":3108,"name":"Pörtschach am Wörthersee","latitude":46.63639,"longitude":14.14639},{"id":3078,"name":"Preitenegg","latitude":46.94,"longitude":14.92583},{"id":3081,"name":"Priel","latitude":46.82758,"longitude":14.8333},{"id":143833,"name":"Pusarnitz","latitude":46.83333,"longitude":13.4},{"id":3123,"name":"Radenthein","latitude":46.80056,"longitude":13.71167},{"id":3130,"name":"Rain","latitude":46.60528,"longitude":14.38611},{"id":3137,"name":"Rangersdorf","latitude":46.86001,"longitude":12.94923},{"id":3157,"name":"Reding","latitude":46.81667,"longitude":14.85},{"id":143835,"name":"Reichenau","latitude":46.85416667,"longitude":13.89305556},{"id":3165,"name":"Reichenfels","latitude":47.00718,"longitude":14.74425},{"id":143836,"name":"Reißeck","latitude":46.87694444,"longitude":13.30555556},{"id":3178,"name":"Rennweg am Katschberg","latitude":47.01667,"longitude":13.61667},{"id":143837,"name":"Rittersdorf","latitude":46.75111,"longitude":13.03444},{"id":3210,"name":"Rosegg","latitude":46.58833,"longitude":14.01718},{"id":3215,"name":"Ruden","latitude":46.65833,"longitude":14.77639},{"id":3231,"name":"Sachsenburg","latitude":46.82917,"longitude":13.355},{"id":3239,"name":"Sankt Andrä","latitude":46.76829,"longitude":14.81991},{"id":143839,"name":"Sankt Egyden an der Drau","latitude":46.57722,"longitude":14.06167},{"id":3484,"name":"Sankt Georgen am Längsee","latitude":46.78061,"longitude":14.43033},{"id":143840,"name":"Sankt Georgen im Lavanttal","latitude":46.71666667,"longitude":14.91666667},{"id":143841,"name":"Sankt Jakob","latitude":46.54777778,"longitude":14.05722222},{"id":143842,"name":"Sankt Jakob im Rosental","latitude":46.54777778,"longitude":14.05722222},{"id":143843,"name":"Sankt Kanzian am Klopeiner See","latitude":46.61444444,"longitude":14.57583333},{"id":3279,"name":"Sankt Leonhard","latitude":46.62528,"longitude":13.85865},{"id":3288,"name":"Sankt Magdalen","latitude":46.61667,"longitude":13.88333},{"id":3293,"name":"Sankt Margareten im Rosental","latitude":46.54417,"longitude":14.42444},{"id":3301,"name":"Sankt Martin","latitude":46.61667,"longitude":14.28333},{"id":3319,"name":"Sankt Paul im Lavanttal","latitude":46.70056,"longitude":14.87556},{"id":3320,"name":"Sankt Peter","latitude":46.62978,"longitude":14.34016},{"id":3332,"name":"Sankt Ruprecht","latitude":46.6,"longitude":14.31667},{"id":3334,"name":"Sankt Stefan","latitude":46.8075,"longitude":14.85167},{"id":143844,"name":"Sankt Stefan im Gailtal","latitude":46.61666667,"longitude":13.51666667},{"id":143845,"name":"Sankt Urban","latitude":46.75027778,"longitude":14.16916667},{"id":3343,"name":"Sankt Veit an der Glan","latitude":46.76806,"longitude":14.36028},{"id":3044,"name":"Sankt Veit an der Glan District","latitude":46.83333,"longitude":14.4},{"id":3369,"name":"Schiefling am See","latitude":46.60444,"longitude":14.0975},{"id":3374,"name":"Schleben","latitude":46.62039,"longitude":13.93301},{"id":3428,"name":"Seebach","latitude":46.61667,"longitude":13.86667},{"id":3430,"name":"Seeboden","latitude":46.81909,"longitude":13.5143},{"id":3439,"name":"Seitenberg","latitude":46.74801,"longitude":14.08825},{"id":143848,"name":"Sirnitz","latitude":46.82361,"longitude":14.05944},{"id":3464,"name":"Sittersdorf","latitude":46.54444,"longitude":14.60583},{"id":3479,"name":"Spittal an der Drau","latitude":46.8,"longitude":13.5},{"id":3048,"name":"Spittal an der Drau District","latitude":46.85,"longitude":13.33333},{"id":3483,"name":"St. Agathen und Perau","latitude":46.60627,"longitude":13.85615},{"id":143849,"name":"St. Andrä","latitude":46.76473,"longitude":14.82442},{"id":143850,"name":"St. Margareten im Rosental","latitude":46.52498,"longitude":14.416},{"id":143851,"name":"St. Paul im Lavanttal","latitude":46.69869,"longitude":14.84877},{"id":143852,"name":"St. Stefan im Gailtal","latitude":46.60796,"longitude":13.50973},{"id":143853,"name":"St. Urban","latitude":46.76128,"longitude":14.16658},{"id":143854,"name":"St. Veit an der Glan","latitude":46.73536,"longitude":14.35404},{"id":3486,"name":"St. Veiter Vorstadt","latitude":46.6317,"longitude":14.30579},{"id":3496,"name":"Stall","latitude":46.89056,"longitude":13.03694},{"id":3517,"name":"Steindorf am Ossiacher See","latitude":46.69833,"longitude":14.00917},{"id":3519,"name":"Steinfeld","latitude":46.75812,"longitude":13.24934},{"id":3526,"name":"Steuerberg","latitude":46.78804,"longitude":14.1129},{"id":3532,"name":"Stockenboi","latitude":46.72611,"longitude":13.52306},{"id":143857,"name":"Straßburg","latitude":46.89555556,"longitude":14.33083333},{"id":3548,"name":"Straßburg-Stadt","latitude":46.89444,"longitude":14.32861},{"id":143858,"name":"Suetschach","latitude":46.52694444,"longitude":14.15638889},{"id":143859,"name":"Techelsberg","latitude":46.65861111,"longitude":14.10194444},{"id":143860,"name":"Timenitz","latitude":46.68333,"longitude":14.41667},{"id":3618,"name":"Trebesing","latitude":46.88639,"longitude":13.51028},{"id":143862,"name":"Treffen","latitude":46.66833333,"longitude":13.85555556},{"id":3620,"name":"Treibach","latitude":46.86667,"longitude":14.46667},{"id":143863,"name":"Tschachoritsch","latitude":46.55352,"longitude":14.21461},{"id":143864,"name":"Umberg","latitude":46.64833,"longitude":13.9575},{"id":3649,"name":"Untere Fellach","latitude":46.62504,"longitude":13.82681},{"id":143865,"name":"Velden am Wörther See","latitude":46.6125,"longitude":14.04194444},{"id":3675,"name":"Velden am Wörthersee","latitude":46.61301,"longitude":14.0413},{"id":3684,"name":"Viktring","latitude":46.59194,"longitude":14.26917},{"id":3685,"name":"Viktringer Vorstadt","latitude":46.61773,"longitude":14.30931},{"id":3686,"name":"Villach","latitude":46.61028,"longitude":13.85583},{"id":3688,"name":"Villach-Innere Stadt","latitude":46.61275,"longitude":13.84638},{"id":3054,"name":"Villach-Land District","latitude":46.65308,"longitude":13.77287},{"id":3689,"name":"Villacher Vorstadt","latitude":46.62368,"longitude":14.28892},{"id":3705,"name":"Völkendorf","latitude":46.60806,"longitude":13.83153},{"id":3706,"name":"Völkermarkt","latitude":46.66222,"longitude":14.63444},{"id":3057,"name":"Völkermarkt District","latitude":46.59641,"longitude":14.66664},{"id":3707,"name":"Völkermarkter Vorstadt","latitude":46.62418,"longitude":14.32081},{"id":3721,"name":"Waiern","latitude":46.73028,"longitude":14.08194},{"id":3744,"name":"Warmbad-Judendorf","latitude":46.60126,"longitude":13.82241},{"id":143867,"name":"Weißensee","latitude":46.71666667,"longitude":13.3},{"id":143868,"name":"Weißenstein","latitude":46.68222222,"longitude":13.72361111},{"id":3776,"name":"Weitensfeld","latitude":46.84743,"longitude":14.19213},{"id":143866,"name":"Weitensfeld im Gurktal","latitude":46.84861111,"longitude":14.19166667},{"id":3794,"name":"Wernberg","latitude":46.61667,"longitude":13.93333},{"id":3833,"name":"Winklern","latitude":46.87361,"longitude":12.87472},{"id":3854,"name":"Wölfnitz","latitude":46.66639,"longitude":14.25806},{"id":3842,"name":"Wolfsberg","latitude":46.84056,"longitude":14.84417},{"id":3061,"name":"Wolfsberg District","latitude":46.83333,"longitude":14.83333},{"id":3849,"name":"Wudmath","latitude":46.59634,"longitude":13.98067},{"id":143871,"name":"Zell","latitude":46.47222222,"longitude":14.38888889}]