[{"id":97729,"name":"Aykino","latitude":62.22481,"longitude":49.99222},{"id":97952,"name":"Blagoyevo","latitude":63.4231,"longitude":47.9646},{"id":98037,"name":"Borovoy","latitude":63.23005,"longitude":52.89031},{"id":98410,"name":"Ezhva","latitude":61.81281,"longitude":50.72834},{"id":98678,"name":"Inta","latitude":66.03169,"longitude":60.16594},{"id":98748,"name":"Izhma","latitude":65.00833,"longitude":53.91128},{"id":99116,"name":"Knyazhpogostskiy Rayon","latitude":62.58333,"longitude":50.91667},{"id":99220,"name":"Kortkeros","latitude":61.81056,"longitude":51.58056},{"id":99234,"name":"Koslan","latitude":63.45641,"longitude":48.89891},{"id":99258,"name":"Koygorodok","latitude":60.44498,"longitude":50.9968},{"id":99259,"name":"Koygorodskiy Rayon","latitude":60.41667,"longitude":51.0},{"id":99265,"name":"Kozhva","latitude":65.10727,"longitude":57.0459},{"id":99606,"name":"Letka","latitude":59.60111,"longitude":49.42321},{"id":99878,"name":"Mezhdurechensk","latitude":63.24556,"longitude":48.55333},{"id":99909,"name":"Mikun’","latitude":62.35472,"longitude":50.07714},{"id":99960,"name":"Mordino","latitude":61.35327,"longitude":51.89574},{"id":100174,"name":"Nizhniy Odes","latitude":63.64451,"longitude":54.85598},{"id":100552,"name":"Parma","latitude":66.0,"longitude":57.7},{"id":100587,"name":"Pechora","latitude":65.14717,"longitude":57.22439},{"id":100827,"name":"Priluzskiy Rayon","latitude":60.33333,"longitude":49.33333},{"id":100868,"name":"Promyshlennyy","latitude":67.58333,"longitude":63.91667},{"id":100904,"name":"Puteyets","latitude":65.17157,"longitude":57.09101},{"id":101148,"name":"Sedkyrkeshch","latitude":61.75,"longitude":50.91667},{"id":101343,"name":"Shudayag","latitude":63.52665,"longitude":53.60582},{"id":101371,"name":"Sindor","latitude":62.86286,"longitude":51.89051},{"id":101484,"name":"Sosnogorsk","latitude":63.60229,"longitude":53.88175},{"id":101512,"name":"Sovetskiy","latitude":67.48333,"longitude":64.41667},{"id":101724,"name":"Syktyvkar","latitude":61.664,"longitude":50.815},{"id":101728,"name":"Synya","latitude":65.37185,"longitude":58.03874},{"id":101919,"name":"Troitsko-Pechorsk","latitude":62.70836,"longitude":56.19643},{"id":101920,"name":"Troitsko-Pechorskiy Rayon","latitude":62.66667,"longitude":56.25},{"id":101941,"name":"Tsementnozavodskiy","latitude":67.62834,"longitude":64.08965},{"id":102043,"name":"Ukhta","latitude":63.56705,"longitude":53.68348},{"id":102096,"name":"Usinsk","latitude":65.99389,"longitude":57.52806},{"id":102100,"name":"Usogorsk","latitude":63.41064,"longitude":48.68722},{"id":102110,"name":"Ust-Tsilma","latitude":65.44104,"longitude":52.14978},{"id":102134,"name":"Ust’-Kulom","latitude":61.68636,"longitude":53.6902},{"id":102140,"name":"Ust’-Tsilemskiy Rayon","latitude":65.41667,"longitude":52.16667},{"id":102266,"name":"Verkhnyaya Inta","latitude":65.98115,"longitude":60.30945},{"id":102268,"name":"Verkhnyaya Maksakovka","latitude":61.63504,"longitude":50.9674},{"id":102323,"name":"Vizinga","latitude":61.07493,"longitude":50.10311},{"id":102334,"name":"Vodnyy","latitude":63.50464,"longitude":53.40947},{"id":102376,"name":"Vorgashor","latitude":67.58355,"longitude":63.79399},{"id":102377,"name":"Vorkuta","latitude":67.49884,"longitude":64.05253},{"id":102405,"name":"Voyvozh","latitude":62.89198,"longitude":54.96346},{"id":102415,"name":"Vuktyl","latitude":63.85667,"longitude":57.30944},{"id":102493,"name":"Yarega","latitude":63.43543,"longitude":53.5765},{"id":102559,"name":"Yemva","latitude":62.58999,"longitude":50.85939},{"id":102648,"name":"Zapolyarnyy","latitude":67.49552,"longitude":63.73275},{"id":102690,"name":"Zelenets","latitude":61.88485,"longitude":50.74892},{"id":102726,"name":"Zheshart","latitude":62.07314,"longitude":49.57335}]