[{"id":17383,"name":"Aire-la-Ville","latitude":46.19057,"longitude":6.04287},{"id":17399,"name":"Anières","latitude":46.27673,"longitude":6.22204},{"id":17451,"name":"Bellevue","latitude":46.25739,"longitude":6.15475},{"id":17464,"name":"Bernex","latitude":46.1765,"longitude":6.07544},{"id":17612,"name":"Carouge","latitude":46.18096,"longitude":6.13921},{"id":17625,"name":"Chancy","latitude":46.15003,"longitude":5.97153},{"id":17643,"name":"Chêne-Bougeries","latitude":46.19843,"longitude":6.18642},{"id":17644,"name":"Chêne-Bourg","latitude":46.19534,"longitude":6.19406},{"id":17649,"name":"Confignon","latitude":46.17341,"longitude":6.08437},{"id":17656,"name":"Corsier","latitude":46.26297,"longitude":6.22461},{"id":17676,"name":"Dardagny","latitude":46.19564,"longitude":5.99497},{"id":17827,"name":"Genève","latitude":46.20222,"longitude":6.14569},{"id":17965,"name":"Jussy","latitude":46.2359,"longitude":6.26701},{"id":18032,"name":"Lancy","latitude":46.18981,"longitude":6.11441},{"id":18055,"name":"Le Grand-Saconnex","latitude":46.23188,"longitude":6.12091},{"id":18068,"name":"Les Avanchets","latitude":46.22168,"longitude":6.10814},{"id":18141,"name":"Meinier","latitude":46.24706,"longitude":6.23423},{"id":18158,"name":"Meyrin","latitude":46.23424,"longitude":6.08025},{"id":18284,"name":"Onex","latitude":46.18396,"longitude":6.10237},{"id":18316,"name":"Plan-les-Ouates","latitude":46.16789,"longitude":6.11664},{"id":18330,"name":"Puplinge","latitude":46.21043,"longitude":6.23114},{"id":18448,"name":"Satigny","latitude":46.21462,"longitude":6.03553},{"id":18595,"name":"Thônex","latitude":46.18815,"longitude":6.19904},{"id":18606,"name":"Troinex","latitude":46.16313,"longitude":6.14745},{"id":18661,"name":"Vandœuvres","latitude":46.22179,"longitude":6.20285},{"id":18670,"name":"Vernier","latitude":46.21702,"longitude":6.08497},{"id":18672,"name":"Versoix","latitude":46.28382,"longitude":6.16214},{"id":18676,"name":"Veyrier","latitude":46.16699,"longitude":6.18436}]