[{"id":31784,"name":"Al Ḩāmūl","latitude":31.31146,"longitude":31.14766},{"id":31810,"name":"Disūq","latitude":31.13259,"longitude":30.64784},{"id":31814,"name":"Fuwwah","latitude":31.20365,"longitude":30.54908},{"id":31827,"name":"Kafr ash Shaykh","latitude":31.11174,"longitude":30.93991},{"id":31837,"name":"Markaz Disūq","latitude":31.1459,"longitude":30.71609},{"id":31845,"name":"Munshāt ‘Alī Āghā","latitude":31.15791,"longitude":30.70177},{"id":31870,"name":"Sīdī Sālim","latitude":31.27133,"longitude":30.78617}]