[{"id":130199,"name":"Dương Đông","latitude":10.21716,"longitude":103.95929},{"id":130556,"name":"Hà Tiên","latitude":10.3831,"longitude":104.48753},{"id":130208,"name":"Huyện An Biên","latitude":9.81291,"longitude":105.0523},{"id":130210,"name":"Huyện An Minh","latitude":9.66704,"longitude":104.94848},{"id":130249,"name":"Huyện Châu Thành","latitude":9.94372,"longitude":105.16868},{"id":130290,"name":"Huyện Giồng Riềng","latitude":9.91224,"longitude":105.37311},{"id":130295,"name":"Huyện Gò Quao","latitude":9.74027,"longitude":105.29766},{"id":130307,"name":"Huyện Hòn Đất","latitude":10.22908,"longitude":104.9528},{"id":130330,"name":"Huyện Kiên Hải","latitude":9.83971,"longitude":104.6156},{"id":130400,"name":"Huyện Phú Quốc","latitude":10.25516,"longitude":104.01455},{"id":130481,"name":"Huyện Tân Hiệp","latitude":10.0954,"longitude":105.25936},{"id":130502,"name":"Huyện Vĩnh Thuận","latitude":9.53306,"longitude":105.2449},{"id":130564,"name":"Kien Luong Town","latitude":10.24892,"longitude":104.59},{"id":130588,"name":"Rạch Giá","latitude":10.01245,"longitude":105.08091}]