[{"id":31917,"name":"Abrera","latitude":41.51682,"longitude":1.901},{"id":31963,"name":"Aguilar de Segarra","latitude":41.74822,"longitude":1.62919},{"id":31980,"name":"Aiguafreda","latitude":41.76807,"longitude":2.25051},{"id":32183,"name":"Alella","latitude":41.49379,"longitude":2.29451},{"id":32328,"name":"Alpens","latitude":42.1193,"longitude":2.10135},{"id":151479,"name":"Ametlla del Vallès L","latitude":0.0,"longitude":0.0},{"id":32451,"name":"Arenys de Mar","latitude":41.5819,"longitude":2.54936},{"id":32452,"name":"Arenys de Munt","latitude":41.61424,"longitude":2.53972},{"id":151480,"name":"Argençola","latitude":0.0,"longitude":0.0},{"id":32471,"name":"Argentona","latitude":41.55336,"longitude":2.40114},{"id":32527,"name":"Artés","latitude":41.798,"longitude":1.95428},{"id":151481,"name":"Avià","latitude":0.0,"longitude":0.0},{"id":32568,"name":"Avinyó","latitude":41.86367,"longitude":1.97095},{"id":151482,"name":"Avinyonet del Penedès","latitude":0.0,"longitude":0.0},{"id":32602,"name":"Badalona","latitude":41.45004,"longitude":2.24741},{"id":151629,"name":"Badia del Vallès","latitude":0.0,"longitude":0.0},{"id":32609,"name":"Bagà","latitude":42.25289,"longitude":1.86098},{"id":151483,"name":"Balenyà","latitude":0.0,"longitude":0.0},{"id":32628,"name":"Balsareny","latitude":41.86311,"longitude":1.87356},{"id":32647,"name":"Barberà del Vallès","latitude":41.5159,"longitude":2.12457},{"id":32653,"name":"Barcelona","latitude":41.38879,"longitude":2.15899},{"id":32728,"name":"Begues","latitude":41.33333,"longitude":1.93333},{"id":32742,"name":"Bellprat","latitude":41.51695,"longitude":1.43333},{"id":32846,"name":"Berga","latitude":42.10429,"longitude":1.84628},{"id":32893,"name":"Bigues i Riells","latitude":41.68333,"longitude":2.23333},{"id":151484,"name":"Borredà","latitude":0.0,"longitude":0.0},{"id":151485,"name":"Bruc El","latitude":0.0,"longitude":0.0},{"id":151486,"name":"Brull El","latitude":0.0,"longitude":0.0},{"id":151487,"name":"Cabanyes Les","latitude":0.0,"longitude":0.0},{"id":151488,"name":"Cabrera dAnoia","latitude":0.0,"longitude":0.0},{"id":33104,"name":"Cabrera de Mar","latitude":41.51667,"longitude":2.4},{"id":33111,"name":"Cabrils","latitude":41.5276,"longitude":2.36996},{"id":33124,"name":"Calaf","latitude":41.73289,"longitude":1.51375},{"id":151490,"name":"Calders","latitude":0.0,"longitude":0.0},{"id":33138,"name":"Caldes de Montbui","latitude":41.63333,"longitude":2.16667},{"id":151489,"name":"Caldes dEstrac","latitude":0.0,"longitude":0.0},{"id":33139,"name":"Calella","latitude":41.61381,"longitude":2.65423},{"id":151492,"name":"Calldetenes","latitude":0.0,"longitude":0.0},{"id":151493,"name":"Callús","latitude":0.0,"longitude":0.0},{"id":151491,"name":"Calonge de Segarra","latitude":0.0,"longitude":0.0},{"id":33198,"name":"Campins","latitude":41.71667,"longitude":2.46667},{"id":33234,"name":"Canet de Mar","latitude":41.59054,"longitude":2.58116},{"id":33246,"name":"Canovelles","latitude":41.61667,"longitude":2.28333},{"id":33890,"name":"Cànoves i Samalús","latitude":41.68333,"longitude":2.35},{"id":33261,"name":"Canyelles","latitude":41.44509,"longitude":2.16346},{"id":33267,"name":"Capellades","latitude":41.53005,"longitude":1.68651},{"id":151494,"name":"Capolat","latitude":0.0,"longitude":0.0},{"id":33296,"name":"Cardedeu","latitude":41.63976,"longitude":2.35739},{"id":33304,"name":"Cardona","latitude":41.91371,"longitude":1.67855},{"id":151495,"name":"Carme","latitude":0.0,"longitude":0.0},{"id":151496,"name":"Casserres","latitude":0.0,"longitude":0.0},{"id":151500,"name":"Castell de lAreny","latitude":0.0,"longitude":0.0},{"id":151498,"name":"Castellar de nHug","latitude":0.0,"longitude":0.0},{"id":151497,"name":"Castellar del Riu","latitude":0.0,"longitude":0.0},{"id":33422,"name":"Castellar del Vallès","latitude":41.61667,"longitude":2.08333},{"id":151499,"name":"Castellbell i el Vilar","latitude":0.0,"longitude":0.0},{"id":33423,"name":"Castellbisbal","latitude":41.47534,"longitude":1.98174},{"id":33424,"name":"Castellcir","latitude":41.76074,"longitude":2.16128},{"id":33425,"name":"Castelldefels","latitude":41.27794,"longitude":1.97033},{"id":151501,"name":"Castellet i la Gornal","latitude":0.0,"longitude":0.0},{"id":33427,"name":"Castellfollit de Riubregós","latitude":41.76667,"longitude":1.43333},{"id":151502,"name":"Castellfollit del Boix","latitude":0.0,"longitude":0.0},{"id":151503,"name":"Castellgalí","latitude":0.0,"longitude":0.0},{"id":151504,"name":"Castellnou de Bages","latitude":0.0,"longitude":0.0},{"id":33431,"name":"Castellolí","latitude":41.59829,"longitude":1.70057},{"id":151505,"name":"Castellterçol","latitude":0.0,"longitude":0.0},{"id":151506,"name":"Castellví de la Marca","latitude":0.0,"longitude":0.0},{"id":33435,"name":"Castellví de Rosanes","latitude":41.45,"longitude":1.9},{"id":33573,"name":"Centelles","latitude":41.79746,"longitude":2.21902},{"id":151610,"name":"Cercs","latitude":0.0,"longitude":0.0},{"id":33580,"name":"Cerdanyola del Vallès","latitude":41.49109,"longitude":2.14079},{"id":33594,"name":"Cervelló","latitude":41.39587,"longitude":1.95917},{"id":33738,"name":"Collbató","latitude":41.57009,"longitude":1.82712},{"id":33740,"name":"Collsuspina","latitude":41.8258,"longitude":2.17546},{"id":151507,"name":"Copons","latitude":0.0,"longitude":0.0},{"id":33775,"name":"Corbera de Llobregat","latitude":41.41702,"longitude":1.9197},{"id":33794,"name":"Cornellà de Llobregat","latitude":41.35,"longitude":2.08333},{"id":33847,"name":"Cubelles","latitude":41.20772,"longitude":1.67267},{"id":33952,"name":"Dosrius","latitude":41.58333,"longitude":2.41667},{"id":34108,"name":"Esparreguera","latitude":41.53809,"longitude":1.87025},{"id":34127,"name":"Esplugues de Llobregat","latitude":41.37732,"longitude":2.08809},{"id":151508,"name":"Espunyola L","latitude":0.0,"longitude":0.0},{"id":151509,"name":"Estany L","latitude":0.0,"longitude":0.0},{"id":151539,"name":"Figaró-Montmany","latitude":0.0,"longitude":0.0},{"id":151510,"name":"Fígols","latitude":0.0,"longitude":0.0},{"id":151512,"name":"Fogars de la Selva","latitude":0.0,"longitude":0.0},{"id":151511,"name":"Fogars de Montclús","latitude":0.0,"longitude":0.0},{"id":151513,"name":"Folgueroles","latitude":0.0,"longitude":0.0},{"id":34209,"name":"Fonollosa","latitude":41.76303,"longitude":1.66867},{"id":151514,"name":"Font-rubí","latitude":0.0,"longitude":0.0},{"id":151515,"name":"Franqueses del Vallès Les","latitude":0.0,"longitude":0.0},{"id":151517,"name":"Gaià","latitude":0.0,"longitude":0.0},{"id":34392,"name":"Gallifa","latitude":41.69243,"longitude":2.11346},{"id":151516,"name":"Garriga La","latitude":0.0,"longitude":0.0},{"id":34441,"name":"Gavà","latitude":41.30605,"longitude":2.00123},{"id":34446,"name":"Gelida","latitude":41.43333,"longitude":1.86667},{"id":34471,"name":"Gironella","latitude":42.03433,"longitude":1.88019},{"id":151518,"name":"Gisclareny","latitude":0.0,"longitude":0.0},{"id":151519,"name":"Granada La","latitude":0.0,"longitude":0.0},{"id":34499,"name":"Granera","latitude":41.72741,"longitude":2.05924},{"id":34503,"name":"Granollers","latitude":41.60797,"longitude":2.28773},{"id":151520,"name":"Gualba","latitude":0.0,"longitude":0.0},{"id":151521,"name":"Guardiola de Berguedà","latitude":0.0,"longitude":0.0},{"id":34553,"name":"Gurb","latitude":41.95419,"longitude":2.23537},{"id":151522,"name":"Hospitalet de Llobregat L","latitude":0.0,"longitude":0.0},{"id":151549,"name":"Hostalets de Pierola Els","latitude":0.0,"longitude":0.0},{"id":34739,"name":"Igualada","latitude":41.58098,"longitude":1.6172},{"id":34821,"name":"Jorba","latitude":41.60193,"longitude":1.5475},{"id":151523,"name":"Llacuna La","latitude":0.0,"longitude":0.0},{"id":151524,"name":"Llagosta La","latitude":0.0,"longitude":0.0},{"id":151525,"name":"Lliçà dAmunt","latitude":0.0,"longitude":0.0},{"id":151526,"name":"Lliçà de Vall","latitude":0.0,"longitude":0.0},{"id":35080,"name":"Llinars del Vallès","latitude":41.63333,"longitude":2.4},{"id":151527,"name":"Lluçà","latitude":0.0,"longitude":0.0},{"id":35223,"name":"Malgrat de Mar","latitude":41.64662,"longitude":2.74135},{"id":151528,"name":"Malla","latitude":0.0,"longitude":0.0},{"id":35254,"name":"Manlleu","latitude":42.00228,"longitude":2.28476},{"id":35256,"name":"Manresa","latitude":41.72815,"longitude":1.82399},{"id":151599,"name":"Marganell","latitude":0.0,"longitude":0.0},{"id":35301,"name":"Martorell","latitude":41.47402,"longitude":1.93062},{"id":151529,"name":"Martorelles","latitude":0.0,"longitude":0.0},{"id":151530,"name":"Masies de Roda Les","latitude":0.0,"longitude":0.0},{"id":151531,"name":"Masies de Voltregà Les","latitude":0.0,"longitude":0.0},{"id":151532,"name":"Masnou El","latitude":0.0,"longitude":0.0},{"id":35325,"name":"Masquefa","latitude":41.50353,"longitude":1.81136},{"id":35332,"name":"Matadepera","latitude":41.59886,"longitude":2.02648},{"id":35340,"name":"Mataró","latitude":41.54211,"longitude":2.4445},{"id":35376,"name":"Mediona","latitude":41.47798,"longitude":1.61222},{"id":35472,"name":"Moià","latitude":41.81112,"longitude":2.09839},{"id":35484,"name":"Molins de Rei","latitude":41.41667,"longitude":2.01667},{"id":35488,"name":"Mollet del Vallès","latitude":41.54026,"longitude":2.21306},{"id":151533,"name":"Monistrol de Calders","latitude":0.0,"longitude":0.0},{"id":35517,"name":"Monistrol de Montserrat","latitude":41.61667,"longitude":1.85},{"id":35540,"name":"Montcada i Reixac","latitude":41.48333,"longitude":2.18333},{"id":151535,"name":"Montclar","latitude":0.0,"longitude":0.0},{"id":151536,"name":"Montesquiu","latitude":0.0,"longitude":0.0},{"id":35573,"name":"Montgat","latitude":41.46859,"longitude":2.28001},{"id":151537,"name":"Montmajor","latitude":0.0,"longitude":0.0},{"id":151538,"name":"Montmaneu","latitude":0.0,"longitude":0.0},{"id":35580,"name":"Montmeló","latitude":41.55002,"longitude":2.2419},{"id":35582,"name":"Montornès del Vallès","latitude":41.54206,"longitude":2.26748},{"id":151540,"name":"Montseny","latitude":0.0,"longitude":0.0},{"id":151534,"name":"Muntanyola","latitude":0.0,"longitude":0.0},{"id":35668,"name":"Mura","latitude":41.69943,"longitude":1.97612},{"id":35765,"name":"Navarcles","latitude":41.75171,"longitude":1.90357},{"id":35776,"name":"Navas","latitude":41.41803,"longitude":2.18596},{"id":151541,"name":"Nou de Berguedà La","latitude":0.0,"longitude":0.0},{"id":38581,"name":"Òdena","latitude":41.6,"longitude":1.65},{"id":151543,"name":"Olèrdola","latitude":0.0,"longitude":0.0},{"id":35878,"name":"Olesa de Bonesvalls","latitude":41.35435,"longitude":1.84907},{"id":35879,"name":"Olesa de Montserrat","latitude":41.54372,"longitude":1.89407},{"id":35891,"name":"Olivella","latitude":41.31667,"longitude":1.81667},{"id":35911,"name":"Olost","latitude":41.9854,"longitude":2.09457},{"id":151542,"name":"Olvan","latitude":0.0,"longitude":0.0},{"id":35966,"name":"Orís","latitude":42.05967,"longitude":2.22066},{"id":35953,"name":"Oristà","latitude":41.93333,"longitude":2.06667},{"id":35960,"name":"Orpí","latitude":41.5187,"longitude":1.57536},{"id":38582,"name":"Òrrius","latitude":41.55,"longitude":2.35},{"id":151544,"name":"Pacs del Penedès","latitude":0.0,"longitude":0.0},{"id":151545,"name":"Palafolls","latitude":0.0,"longitude":0.0},{"id":151546,"name":"Palau-solità i Plegamans","latitude":0.0,"longitude":0.0},{"id":36026,"name":"Pallejà","latitude":41.42394,"longitude":1.99505},{"id":151630,"name":"Palma de Cervelló La","latitude":0.0,"longitude":0.0},{"id":151547,"name":"Papiol El","latitude":0.0,"longitude":0.0},{"id":36069,"name":"Parets del Vallès","latitude":41.57481,"longitude":2.23306},{"id":151548,"name":"Perafita","latitude":0.0,"longitude":0.0},{"id":36186,"name":"Piera","latitude":41.52232,"longitude":1.75076},{"id":36197,"name":"Pineda de Mar","latitude":41.62763,"longitude":2.6889},{"id":151550,"name":"Pla del Penedès El","latitude":0.0,"longitude":0.0},{"id":151551,"name":"Pobla de Claramunt La","latitude":0.0,"longitude":0.0},{"id":151552,"name":"Pobla de Lillet La","latitude":0.0,"longitude":0.0},{"id":36260,"name":"Polinyà","latitude":41.55,"longitude":2.15},{"id":151562,"name":"Pont de Vilomara i Rocafort El","latitude":0.0,"longitude":0.0},{"id":151553,"name":"Pontons","latitude":0.0,"longitude":0.0},{"id":151554,"name":"Prat de Llobregat El","latitude":0.0,"longitude":0.0},{"id":151556,"name":"Prats de Lluçanès","latitude":0.0,"longitude":0.0},{"id":151555,"name":"Prats de Rei Els","latitude":0.0,"longitude":0.0},{"id":151591,"name":"Premià de Dalt","latitude":0.0,"longitude":0.0},{"id":36350,"name":"Premià de Mar","latitude":41.49206,"longitude":2.36524},{"id":151558,"name":"Puig-reig","latitude":0.0,"longitude":0.0},{"id":151557,"name":"Puigdàlber","latitude":0.0,"longitude":0.0},{"id":36465,"name":"Pujalt","latitude":41.7171,"longitude":1.42088},{"id":151559,"name":"Quar La","latitude":0.0,"longitude":0.0},{"id":36543,"name":"Rajadell","latitude":41.72802,"longitude":1.70621},{"id":151560,"name":"Rellinars","latitude":0.0,"longitude":0.0},{"id":36633,"name":"Ripollet","latitude":41.49686,"longitude":2.15739},{"id":151561,"name":"Roca del Vallès La","latitude":0.0,"longitude":0.0},{"id":151563,"name":"Roda de Ter","latitude":0.0,"longitude":0.0},{"id":36694,"name":"Rubí","latitude":41.49226,"longitude":2.03305},{"id":151564,"name":"Rubió","latitude":0.0,"longitude":0.0},{"id":151627,"name":"Rupit i Pruit","latitude":0.0,"longitude":0.0},{"id":36722,"name":"Sabadell","latitude":41.54329,"longitude":2.10942},{"id":36740,"name":"Sagàs","latitude":42.05,"longitude":1.96667},{"id":151566,"name":"Saldes","latitude":0.0,"longitude":0.0},{"id":36768,"name":"Sallent","latitude":41.82602,"longitude":1.8955},{"id":36951,"name":"Sant Adrià de Besòs","latitude":41.43073,"longitude":2.21855},{"id":151569,"name":"Sant Agustí de Lluçanès","latitude":0.0,"longitude":0.0},{"id":36955,"name":"Sant Andreu de la Barca","latitude":41.44659,"longitude":1.97187},{"id":36954,"name":"Sant Andreu de Llavaneres","latitude":41.56667,"longitude":2.48333},{"id":151570,"name":"Sant Antoni de Vilamajor","latitude":0.0,"longitude":0.0},{"id":151571,"name":"Sant Bartomeu del Grau","latitude":0.0,"longitude":0.0},{"id":36958,"name":"Sant Boi de Llobregat","latitude":41.34357,"longitude":2.03659},{"id":151572,"name":"Sant Boi de Lluçanès","latitude":0.0,"longitude":0.0},{"id":151573,"name":"Sant Cebrià de Vallalta","latitude":0.0,"longitude":0.0},{"id":36960,"name":"Sant Celoni","latitude":41.68921,"longitude":2.48965},{"id":151574,"name":"Sant Climent de Llobregat","latitude":0.0,"longitude":0.0},{"id":36962,"name":"Sant Cugat del Vallès","latitude":41.47063,"longitude":2.08611},{"id":151575,"name":"Sant Cugat Sesgarrigues","latitude":0.0,"longitude":0.0},{"id":151576,"name":"Sant Esteve de Palautordera","latitude":0.0,"longitude":0.0},{"id":151577,"name":"Sant Esteve Sesrovires","latitude":0.0,"longitude":0.0},{"id":151579,"name":"Sant Feliu de Codines","latitude":0.0,"longitude":0.0},{"id":36965,"name":"Sant Feliu de Llobregat","latitude":41.38333,"longitude":2.05},{"id":151580,"name":"Sant Feliu Sasserra","latitude":0.0,"longitude":0.0},{"id":151578,"name":"Sant Fost de Campsentelles","latitude":0.0,"longitude":0.0},{"id":151581,"name":"Sant Fruitós de Bages","latitude":0.0,"longitude":0.0},{"id":151583,"name":"Sant Hipòlit de Voltregà","latitude":0.0,"longitude":0.0},{"id":151568,"name":"Sant Iscle de Vallalta","latitude":0.0,"longitude":0.0},{"id":151584,"name":"Sant Jaume de Frontanyà","latitude":0.0,"longitude":0.0},{"id":36975,"name":"Sant Joan de Vilatorrada","latitude":41.74549,"longitude":1.80476},{"id":36972,"name":"Sant Joan Despí","latitude":41.36718,"longitude":2.0574},{"id":36981,"name":"Sant Julià de Cerdanyola","latitude":42.2235,"longitude":1.89308},{"id":151585,"name":"Sant Julià de Vilatorta","latitude":0.0,"longitude":0.0},{"id":36982,"name":"Sant Just Desvern","latitude":41.38389,"longitude":2.06758},{"id":151586,"name":"Sant Llorenç dHortons","latitude":0.0,"longitude":0.0},{"id":151587,"name":"Sant Llorenç Savall","latitude":0.0,"longitude":0.0},{"id":151588,"name":"Sant Martí dAlbars","latitude":0.0,"longitude":0.0},{"id":36988,"name":"Sant Martí de Centelles","latitude":41.76617,"longitude":2.20566},{"id":36990,"name":"Sant Martí de Tous","latitude":41.55,"longitude":1.51667},{"id":36986,"name":"Sant Martí Sarroca","latitude":41.38576,"longitude":1.61121},{"id":151589,"name":"Sant Martí Sesgueioles","latitude":0.0,"longitude":0.0},{"id":151590,"name":"Sant Mateu de Bages","latitude":0.0,"longitude":0.0},{"id":36993,"name":"Sant Pere de Ribes","latitude":41.26045,"longitude":1.77391},{"id":36994,"name":"Sant Pere de Riudebitlles","latitude":41.45,"longitude":1.7},{"id":151592,"name":"Sant Pere de Torelló","latitude":0.0,"longitude":0.0},{"id":151593,"name":"Sant Pere de Vilamajor","latitude":0.0,"longitude":0.0},{"id":151565,"name":"Sant Pere Sallavinera","latitude":0.0,"longitude":0.0},{"id":36996,"name":"Sant Pol de Mar","latitude":41.60177,"longitude":2.61741},{"id":151594,"name":"Sant Quintí de Mediona","latitude":0.0,"longitude":0.0},{"id":151595,"name":"Sant Quirze de Besora","latitude":0.0,"longitude":0.0},{"id":36997,"name":"Sant Quirze del Vallès","latitude":41.53333,"longitude":2.08333},{"id":151596,"name":"Sant Quirze Safaja","latitude":0.0,"longitude":0.0},{"id":151597,"name":"Sant Sadurní dAnoia","latitude":0.0,"longitude":0.0},{"id":151598,"name":"Sant Sadurní dOsormort","latitude":0.0,"longitude":0.0},{"id":36999,"name":"Sant Salvador de Guardiola","latitude":41.68333,"longitude":1.76667},{"id":37000,"name":"Sant Vicenç de Castellet","latitude":41.66667,"longitude":1.86667},{"id":37001,"name":"Sant Vicenç de Montalt","latitude":41.57853,"longitude":2.50879},{"id":151609,"name":"Sant Vicenç de Torelló","latitude":0.0,"longitude":0.0},{"id":37002,"name":"Sant Vicenç dels Horts","latitude":41.39317,"longitude":2.00689},{"id":37012,"name":"Santa Cecília de Voltregà","latitude":42.0,"longitude":2.23333},{"id":37015,"name":"Santa Coloma de Cervelló","latitude":41.36736,"longitude":2.01426},{"id":37017,"name":"Santa Coloma de Gramenet","latitude":41.45152,"longitude":2.2081},{"id":37053,"name":"Santa Eugènia de Berga","latitude":41.9,"longitude":2.28333},{"id":151600,"name":"Santa Eulàlia de Riuprimer","latitude":0.0,"longitude":0.0},{"id":37057,"name":"Santa Eulàlia de Ronçana","latitude":41.65,"longitude":2.23333},{"id":151601,"name":"Santa Fe del Penedès","latitude":0.0,"longitude":0.0},{"id":151602,"name":"Santa Margarida de Montbui","latitude":0.0,"longitude":0.0},{"id":151603,"name":"Santa Margarida i els Monjos","latitude":0.0,"longitude":0.0},{"id":151604,"name":"Santa Maria de Besora","latitude":0.0,"longitude":0.0},{"id":37066,"name":"Santa Maria de Corcó","latitude":42.03333,"longitude":2.36667},{"id":151606,"name":"Santa Maria de Martorelles","latitude":0.0,"longitude":0.0},{"id":151605,"name":"Santa Maria de Merlès","latitude":0.0,"longitude":0.0},{"id":151607,"name":"Santa Maria de Miralles","latitude":0.0,"longitude":0.0},{"id":37067,"name":"Santa Maria de Palautordera","latitude":41.69417,"longitude":2.44566},{"id":151608,"name":"Santa Maria dOló","latitude":0.0,"longitude":0.0},{"id":37097,"name":"Santa Perpètua de Mogoda","latitude":41.53333,"longitude":2.18333},{"id":37100,"name":"Santa Susanna","latitude":41.63333,"longitude":2.71667},{"id":151567,"name":"Santpedor","latitude":0.0,"longitude":0.0},{"id":37212,"name":"Sentmenat","latitude":41.60862,"longitude":2.13532},{"id":37238,"name":"Seva","latitude":41.83831,"longitude":2.28007},{"id":37267,"name":"Sitges","latitude":41.23506,"longitude":1.81193},{"id":151611,"name":"Sobremunt","latitude":0.0,"longitude":0.0},{"id":151612,"name":"Sora","latitude":0.0,"longitude":0.0},{"id":37328,"name":"Subirats","latitude":41.4,"longitude":1.83333},{"id":37338,"name":"Súria","latitude":41.83333,"longitude":1.75},{"id":37349,"name":"Tagamanent","latitude":41.73747,"longitude":2.2672},{"id":37353,"name":"Talamanca","latitude":41.7374,"longitude":1.97791},{"id":37370,"name":"Taradell","latitude":41.87495,"longitude":2.28662},{"id":151613,"name":"Tavèrnoles","latitude":0.0,"longitude":0.0},{"id":37388,"name":"Tavertet","latitude":41.99572,"longitude":2.41859},{"id":37393,"name":"Teià","latitude":41.49804,"longitude":2.32206},{"id":37409,"name":"Terrassa","latitude":41.56667,"longitude":2.01667},{"id":37419,"name":"Tiana","latitude":41.48201,"longitude":2.26702},{"id":37452,"name":"Tona","latitude":41.84789,"longitude":2.22808},{"id":37458,"name":"Tordera","latitude":41.69914,"longitude":2.71888},{"id":37463,"name":"Torelló","latitude":42.04627,"longitude":2.26679},{"id":151614,"name":"Torre de Claramunt La","latitude":0.0,"longitude":0.0},{"id":151615,"name":"Torrelavit","latitude":0.0,"longitude":0.0},{"id":151616,"name":"Torrelles de Foix","latitude":0.0,"longitude":0.0},{"id":37549,"name":"Torrelles de Llobregat","latitude":41.35,"longitude":1.98333},{"id":37680,"name":"Ullastrell","latitude":41.52643,"longitude":1.95537},{"id":151617,"name":"Vacarisses","latitude":0.0,"longitude":0.0},{"id":151618,"name":"Vallbona dAnoia","latitude":0.0,"longitude":0.0},{"id":151619,"name":"Vallcebre","latitude":0.0,"longitude":0.0},{"id":37859,"name":"Vallgorguina","latitude":41.64822,"longitude":2.50996},{"id":37861,"name":"Vallirana","latitude":41.38676,"longitude":1.93205},{"id":151620,"name":"Vallromanes","latitude":0.0,"longitude":0.0},{"id":151621,"name":"Veciana","latitude":0.0,"longitude":0.0},{"id":37962,"name":"Vic","latitude":41.93012,"longitude":2.25486},{"id":151622,"name":"Vilada","latitude":0.0,"longitude":0.0},{"id":37978,"name":"Viladecans","latitude":41.31405,"longitude":2.01427},{"id":151623,"name":"Viladecavalls","latitude":0.0,"longitude":0.0},{"id":37984,"name":"Vilafranca del Penedès","latitude":41.34618,"longitude":1.69713},{"id":151625,"name":"Vilalba Sasserra","latitude":0.0,"longitude":0.0},{"id":37997,"name":"Vilanova de Sau","latitude":41.947,"longitude":2.3844},{"id":37998,"name":"Vilanova del Camí","latitude":41.57165,"longitude":1.63751},{"id":151628,"name":"Vilanova del Vallès","latitude":0.0,"longitude":0.0},{"id":37999,"name":"Vilanova i la Geltrú","latitude":41.22392,"longitude":1.72511},{"id":151582,"name":"Vilassar de Dalt","latitude":0.0,"longitude":0.0},{"id":38004,"name":"Vilassar de Mar","latitude":41.50507,"longitude":2.39227},{"id":151624,"name":"Vilobí del Penedès","latitude":0.0,"longitude":0.0},{"id":151626,"name":"Viver i Serrateix","latitude":0.0,"longitude":0.0}]