[{"id":135335,"name":"Airole","latitude":43.87092,"longitude":7.55414},{"id":135344,"name":"Alassio","latitude":44.00393,"longitude":8.16713},{"id":135362,"name":"Albenga","latitude":44.04997,"longitude":8.21829},{"id":135381,"name":"Albisola Marina","latitude":44.33079,"longitude":8.5096},{"id":135382,"name":"Albisola Superiore","latitude":44.33889,"longitude":8.51046},{"id":135431,"name":"Altare","latitude":44.33566,"longitude":8.33411},{"id":135467,"name":"Ameglia","latitude":44.07089,"longitude":9.966},{"id":135484,"name":"Andora","latitude":43.95514,"longitude":8.14121},{"id":135539,"name":"Apricale","latitude":43.88033,"longitude":7.65993},{"id":135544,"name":"Aquila di Arroscia","latitude":44.08593,"longitude":8.00525},{"id":135571,"name":"Arcola","latitude":44.11778,"longitude":9.91175},{"id":135588,"name":"Arenzano","latitude":44.40521,"longitude":8.68315},{"id":135616,"name":"Armo","latitude":44.08773,"longitude":7.91545},{"id":135620,"name":"Arnasco","latitude":44.07823,"longitude":8.10745},{"id":135690,"name":"Aurigo","latitude":43.98281,"longitude":7.92342},{"id":135697,"name":"Avegno","latitude":44.38285,"longitude":9.15797},{"id":135732,"name":"Badalucco","latitude":43.91683,"longitude":7.84584},{"id":135781,"name":"Bajardo","latitude":43.90402,"longitude":7.72534},{"id":135788,"name":"Balestrino","latitude":44.12426,"longitude":8.17064},{"id":135841,"name":"Bardineto","latitude":44.18972,"longitude":8.13529},{"id":135849,"name":"Bargagli","latitude":44.4475,"longitude":9.09372},{"id":135989,"name":"Bergeggi","latitude":44.24833,"longitude":8.44402},{"id":136025,"name":"Beverino","latitude":44.19766,"longitude":9.78537},{"id":136090,"name":"Bocco","latitude":44.35111,"longitude":9.30333},{"id":136096,"name":"Bogliasco","latitude":44.3807,"longitude":9.06926},{"id":136098,"name":"Boissano","latitude":44.13583,"longitude":8.22155},{"id":136101,"name":"Bolano","latitude":44.1877,"longitude":9.89488},{"id":136124,"name":"Bonassola","latitude":44.18323,"longitude":9.58422},{"id":136148,"name":"Bordighera","latitude":43.78064,"longitude":7.66451},{"id":136161,"name":"Borghetto d'Arroscia","latitude":44.05672,"longitude":7.98076},{"id":136163,"name":"Borghetto di Vara","latitude":44.22368,"longitude":9.72118},{"id":136160,"name":"Borghetto Santo Spirito","latitude":44.11187,"longitude":8.24129},{"id":136168,"name":"Borgio","latitude":44.15906,"longitude":8.30832},{"id":136200,"name":"Borgo di Ranzo","latitude":44.05963,"longitude":8.01495},{"id":136171,"name":"Borgo Fornari-Pieve","latitude":44.58933,"longitude":8.93671},{"id":136208,"name":"Borgomaro","latitude":43.9753,"longitude":7.94408},{"id":136219,"name":"Bormida","latitude":44.27813,"longitude":8.23235},{"id":136220,"name":"Bormida-Genepro","latitude":44.39051,"longitude":8.19952},{"id":136235,"name":"Borzonasca","latitude":44.42002,"longitude":9.38851},{"id":136364,"name":"Brugnato","latitude":44.23671,"longitude":9.72496},{"id":136418,"name":"Busalla","latitude":44.5706,"longitude":8.94545},{"id":136483,"name":"Cairo Montenotte","latitude":44.3979,"longitude":8.27775},{"id":136527,"name":"Calice al Cornoviglio","latitude":44.24326,"longitude":9.83671},{"id":136526,"name":"Calice Ligure","latitude":44.20493,"longitude":8.29535},{"id":136530,"name":"Calizzano","latitude":44.23612,"longitude":8.11817},{"id":136597,"name":"Camogli","latitude":44.34945,"longitude":9.15487},{"id":136629,"name":"Campo Ligure","latitude":44.53658,"longitude":8.69896},{"id":136643,"name":"Campochiesa","latitude":44.07069,"longitude":8.19712},{"id":136670,"name":"Campomorone","latitude":44.50954,"longitude":8.88502},{"id":136676,"name":"Camporosso","latitude":43.8131,"longitude":7.62829},{"id":136836,"name":"Carasco","latitude":44.34975,"longitude":9.34567},{"id":136843,"name":"Caravonica","latitude":43.99303,"longitude":7.95805},{"id":136853,"name":"Carcare","latitude":44.35465,"longitude":8.29039},{"id":136908,"name":"Carpasio","latitude":43.96024,"longitude":7.86631},{"id":136928,"name":"Carro","latitude":44.27215,"longitude":9.60888},{"id":136929,"name":"Carrodano","latitude":44.24155,"longitude":9.65578},{"id":137020,"name":"Casano-Dogana-Isola","latitude":44.07565,"longitude":10.03381},{"id":137023,"name":"Casanova Lerrone","latitude":44.03213,"longitude":8.04715},{"id":137035,"name":"Casarza Ligure","latitude":44.27188,"longitude":9.44704},{"id":137042,"name":"Casavecchia","latitude":44.52756,"longitude":8.62157},{"id":137058,"name":"Casella","latitude":44.53523,"longitude":9.0008},{"id":137160,"name":"Castel Vittorio","latitude":43.92752,"longitude":7.67471},{"id":137181,"name":"Castelbianco","latitude":44.11423,"longitude":8.07515},{"id":137223,"name":"Castellaro","latitude":43.86436,"longitude":7.86881},{"id":137290,"name":"Castelnuovo Magra","latitude":44.09957,"longitude":10.01715},{"id":137323,"name":"Castelvecchio di Rocca Barbena","latitude":44.12983,"longitude":8.11665},{"id":137339,"name":"Castiglione","latitude":44.27539,"longitude":9.51687},{"id":137474,"name":"Celle Ligure","latitude":44.34509,"longitude":8.54685},{"id":137493,"name":"Cengio Alto","latitude":44.38443,"longitude":8.19758},{"id":137506,"name":"Ceparana-Carpena","latitude":44.16667,"longitude":9.88333},{"id":137513,"name":"Ceranesi","latitude":44.50563,"longitude":8.89343},{"id":137546,"name":"Ceriale","latitude":44.09128,"longitude":8.22893},{"id":137547,"name":"Ceriana","latitude":43.88091,"longitude":7.77476},{"id":137597,"name":"Cervo","latitude":43.92572,"longitude":8.11529},{"id":137614,"name":"Cesio","latitude":44.00803,"longitude":7.97515},{"id":137659,"name":"Chiavari","latitude":44.31771,"longitude":9.32241},{"id":137665,"name":"Chiesa","latitude":44.07787,"longitude":8.10891},{"id":137666,"name":"Chiesa Nuova","latitude":44.36976,"longitude":9.31161},{"id":137691,"name":"Chiusanico","latitude":43.97303,"longitude":7.99185},{"id":137694,"name":"Chiusavecchia","latitude":43.96726,"longitude":7.98443},{"id":137707,"name":"Cicagna","latitude":44.40714,"longitude":9.23917},{"id":137745,"name":"Cipressa","latitude":43.85205,"longitude":7.93144},{"id":137753,"name":"Cisano","latitude":44.08565,"longitude":8.14829},{"id":137779,"name":"Civezza","latitude":43.87982,"longitude":7.95165},{"id":137842,"name":"Cogoleto","latitude":44.38996,"longitude":8.64692},{"id":137845,"name":"Cogorno","latitude":44.32074,"longitude":9.37117},{"id":137921,"name":"Colombiera-Molicciara","latitude":44.0875,"longitude":10.01037},{"id":137972,"name":"Conscenti","latitude":44.34491,"longitude":9.39537},{"id":138006,"name":"Coreglia Ligure","latitude":44.38775,"longitude":9.26097},{"id":138080,"name":"Cosio di Arroscia","latitude":44.07743,"longitude":7.83244},{"id":138086,"name":"Cosseria","latitude":44.36774,"longitude":8.23485},{"id":138106,"name":"Costarainera","latitude":43.85477,"longitude":7.94106},{"id":138159,"name":"Crocefieschi","latitude":44.58077,"longitude":9.0236},{"id":138231,"name":"Davagna","latitude":44.46585,"longitude":9.08666},{"id":138239,"name":"Dego","latitude":44.44455,"longitude":8.30761},{"id":138240,"name":"Deiva Marina","latitude":44.21931,"longitude":9.52064},{"id":138260,"name":"Diano Arentino","latitude":43.94962,"longitude":8.04155},{"id":138261,"name":"Diano Castello","latitude":43.92423,"longitude":8.06602},{"id":138262,"name":"Diano Marina","latitude":43.91088,"longitude":8.08029},{"id":138263,"name":"Diano San Pietro","latitude":43.92953,"longitude":8.07249},{"id":138279,"name":"Dolceacqua","latitude":43.84975,"longitude":7.62373},{"id":138280,"name":"Dolcedo","latitude":43.90735,"longitude":7.94943},{"id":138375,"name":"Erli","latitude":44.13719,"longitude":8.1043},{"id":138455,"name":"Fascia","latitude":44.58255,"longitude":9.22136},{"id":138458,"name":"Favale di Malvaro","latitude":44.45163,"longitude":9.26},{"id":138464,"name":"Feglino","latitude":44.21849,"longitude":8.32436},{"id":138487,"name":"Ferrada","latitude":44.42008,"longitude":9.21016},{"id":138497,"name":"Ferriere","latitude":44.44302,"longitude":9.13675},{"id":138536,"name":"Finale Ligure","latitude":44.16952,"longitude":8.3436},{"id":138604,"name":"Fontanigorda","latitude":44.5454,"longitude":9.30548},{"id":138691,"name":"Framura","latitude":44.20946,"longitude":9.55399},{"id":138860,"name":"Garlenda","latitude":44.03325,"longitude":8.09546},{"id":138899,"name":"Genoa","latitude":44.40478,"longitude":8.94439},{"id":138999,"name":"Giustenice","latitude":44.17293,"longitude":8.24305},{"id":139001,"name":"Giusvalla","latitude":44.44794,"longitude":8.39415},{"id":139040,"name":"Gorreto","latitude":44.60485,"longitude":9.29126},{"id":139200,"name":"Imperia","latitude":43.88917,"longitude":8.03933},{"id":139243,"name":"Isola del Cantone","latitude":44.64783,"longitude":8.95746},{"id":139253,"name":"Isolabona","latitude":43.88076,"longitude":7.63993},{"id":139257,"name":"Isoverde","latitude":44.52941,"longitude":8.86049},{"id":139305,"name":"La Spezia","latitude":44.103,"longitude":9.82375},{"id":139330,"name":"Laigueglia","latitude":43.9759,"longitude":8.15823},{"id":139408,"name":"Lavagna","latitude":44.3062,"longitude":9.35383},{"id":139427,"name":"Le Grazie","latitude":44.06699,"longitude":9.83392},{"id":139440,"name":"Leivi","latitude":44.35344,"longitude":9.31074},{"id":139464,"name":"Lerici","latitude":44.07587,"longitude":9.91121},{"id":139483,"name":"Levanto","latitude":44.17424,"longitude":9.6167},{"id":139557,"name":"Loano","latitude":44.12777,"longitude":8.25743},{"id":139615,"name":"Lorsica","latitude":44.43415,"longitude":9.27677},{"id":139633,"name":"Lucinasco","latitude":43.96602,"longitude":7.96005},{"id":139732,"name":"Magliolo","latitude":44.19253,"longitude":8.24935},{"id":139752,"name":"Maissana","latitude":44.33675,"longitude":9.53588},{"id":139768,"name":"Mallare","latitude":44.28934,"longitude":8.29695},{"id":139795,"name":"Manesseno","latitude":44.47816,"longitude":8.92784},{"id":139876,"name":"Marina di Andora","latitude":43.95353,"longitude":8.1546},{"id":139965,"name":"Masone","latitude":44.50162,"longitude":8.71891},{"id":139988,"name":"Massimino","latitude":44.29953,"longitude":8.07134},{"id":140038,"name":"Mele","latitude":44.44573,"longitude":8.74889},{"id":140062,"name":"Mendatica","latitude":44.07713,"longitude":7.80564},{"id":140110,"name":"Mezzanego","latitude":44.38275,"longitude":9.37667},{"id":140140,"name":"Mignanego","latitude":44.52748,"longitude":8.91412},{"id":140152,"name":"Millesimo","latitude":44.36695,"longitude":8.20354},{"id":140164,"name":"Mioglia","latitude":44.49214,"longitude":8.41435},{"id":140187,"name":"Moconesi","latitude":44.42065,"longitude":9.20977},{"id":140219,"name":"Molini","latitude":43.92594,"longitude":7.93835},{"id":140220,"name":"Molini di Triora","latitude":43.98905,"longitude":7.77463},{"id":140221,"name":"Molino Vecchio-Scapitola-Baio","latitude":44.55555,"longitude":9.06816},{"id":140226,"name":"Molino-Pera","latitude":44.48803,"longitude":8.30899},{"id":140277,"name":"Moneglia","latitude":44.23905,"longitude":9.49081},{"id":140332,"name":"Montalto Ligure","latitude":43.92868,"longitude":7.84491},{"id":140393,"name":"Montebruno","latitude":44.52577,"longitude":9.24831},{"id":140460,"name":"Montegrosso Pian Latte","latitude":44.06631,"longitude":7.81602},{"id":140525,"name":"Monterosso al Mare","latitude":44.14666,"longitude":9.65494},{"id":140578,"name":"Montoggio","latitude":44.51699,"longitude":9.04923},{"id":140690,"name":"Murialdo","latitude":44.31693,"longitude":8.16815},{"id":140723,"name":"Nasino-Borgo","latitude":44.11363,"longitude":8.03205},{"id":140737,"name":"Neirone","latitude":44.45482,"longitude":9.19133},{"id":140799,"name":"Noli","latitude":44.20608,"longitude":8.41458},{"id":140903,"name":"Olivetta San Michele","latitude":43.87872,"longitude":7.51504},{"id":140929,"name":"Onzo","latitude":44.07013,"longitude":8.05225},{"id":140945,"name":"Orco Feglino","latitude":44.22023,"longitude":8.32455},{"id":140948,"name":"Orero","latitude":44.40835,"longitude":9.26707},{"id":140989,"name":"Ortovero","latitude":44.05385,"longitude":8.0995},{"id":141004,"name":"Osiglia","latitude":44.28145,"longitude":8.20096},{"id":141014,"name":"Ospedaletti","latitude":43.80221,"longitude":7.7183},{"id":141038,"name":"Osteria dei Cacciatori-Stella","latitude":44.43044,"longitude":8.4712},{"id":141084,"name":"Padivarma","latitude":44.19648,"longitude":9.76753},{"id":58251,"name":"Pallare","latitude":44.3277,"longitude":8.27864},{"id":58379,"name":"Pedemonte","latitude":44.50307,"longitude":8.92614},{"id":58425,"name":"Perinaldo","latitude":43.86689,"longitude":7.67194},{"id":58511,"name":"Piana Battolla","latitude":44.19322,"longitude":9.85345},{"id":58512,"name":"Piana Crixia","latitude":44.48504,"longitude":8.30805},{"id":58538,"name":"Piano","latitude":44.3168,"longitude":8.16639},{"id":58543,"name":"Piano di Follo","latitude":44.16375,"longitude":9.86188},{"id":58578,"name":"Piccarello","latitude":44.48392,"longitude":8.96595},{"id":58601,"name":"Pietra Ligure","latitude":44.1492,"longitude":8.28206},{"id":58606,"name":"Pietrabruna","latitude":43.88927,"longitude":7.90319},{"id":58654,"name":"Pieve di Teco","latitude":44.04706,"longitude":7.91564},{"id":58655,"name":"Pieve di Zignago","latitude":44.2779,"longitude":9.74573},{"id":58636,"name":"Pieve Ligure","latitude":44.37494,"longitude":9.0941},{"id":58660,"name":"Pigna","latitude":43.93205,"longitude":7.66123},{"id":58664,"name":"Pignone","latitude":44.1778,"longitude":9.72327},{"id":58717,"name":"Pitelli","latitude":44.09458,"longitude":9.8849},{"id":58740,"name":"Plodio","latitude":44.35394,"longitude":8.24725},{"id":58818,"name":"Pompeiana","latitude":43.85297,"longitude":7.88836},{"id":58868,"name":"Pontedassio","latitude":43.9383,"longitude":8.01464},{"id":58889,"name":"Pontinvrea","latitude":44.44205,"longitude":8.43623},{"id":58908,"name":"Pornassio","latitude":44.07053,"longitude":7.86954},{"id":58945,"name":"Portofino","latitude":44.30349,"longitude":9.20942},{"id":58950,"name":"Portovenere","latitude":44.05083,"longitude":9.83431},{"id":59021,"name":"Prati","latitude":44.3829,"longitude":9.37567},{"id":59051,"name":"Prelà Castello","latitude":43.94006,"longitude":7.94409},{"id":59091,"name":"Propata","latitude":44.56487,"longitude":9.18587},{"id":59134,"name":"Provincia di Genova","latitude":44.5,"longitude":9.06667},{"id":59137,"name":"Provincia di Imperia","latitude":43.96667,"longitude":7.78333},{"id":59139,"name":"Provincia di La Spezia","latitude":44.25,"longitude":9.7},{"id":59174,"name":"Provincia di Savona","latitude":44.3,"longitude":8.26667},{"id":59242,"name":"Quiliano","latitude":44.29215,"longitude":8.41406},{"id":59284,"name":"Rapallo","latitude":44.3496,"longitude":9.22796},{"id":59311,"name":"Recco","latitude":44.36227,"longitude":9.14354},{"id":59348,"name":"Rezzo","latitude":44.02101,"longitude":7.87199},{"id":59349,"name":"Rezzoaglio","latitude":44.52625,"longitude":9.38827},{"id":59356,"name":"Rialto","latitude":44.22653,"longitude":8.26135},{"id":59368,"name":"Riccò del Golfo","latitude":44.1541,"longitude":9.76414},{"id":59395,"name":"Riomaggiore","latitude":44.09979,"longitude":9.73869},{"id":59416,"name":"Riva Ligure","latitude":43.83883,"longitude":7.87935},{"id":59528,"name":"Roccavignale","latitude":44.36124,"longitude":8.19055},{"id":59544,"name":"Rocchetta di Vara","latitude":44.25059,"longitude":9.75791},{"id":59538,"name":"Rocchetta Nervina","latitude":43.88988,"longitude":7.60071},{"id":59587,"name":"Romito Magra","latitude":44.09838,"longitude":9.9318},{"id":59605,"name":"Ronco Scrivia","latitude":44.61357,"longitude":8.95042},{"id":59614,"name":"Rondanina","latitude":44.56325,"longitude":9.21806},{"id":59650,"name":"Rossi","latitude":44.00029,"longitude":8.05884},{"id":59651,"name":"Rossiglione","latitude":44.56358,"longitude":8.66956},{"id":59670,"name":"Rovegno","latitude":44.57675,"longitude":9.27917},{"id":59821,"name":"San Bartolomeo al Mare","latitude":43.92312,"longitude":8.10482},{"id":59843,"name":"San Biagio della Cima","latitude":43.81784,"longitude":7.65133},{"id":59904,"name":"San Fedele-Lusignano","latitude":44.04559,"longitude":8.18078},{"id":59980,"name":"San Giovanni","latitude":44.39367,"longitude":8.49701},{"id":60039,"name":"San Lorenzo","latitude":44.17302,"longitude":8.24424},{"id":60044,"name":"San Lorenzo al Mare","latitude":43.85378,"longitude":7.96406},{"id":60190,"name":"San Pietro d'Olba","latitude":44.48762,"longitude":8.58951},{"id":60220,"name":"San Remo","latitude":43.81725,"longitude":7.7772},{"id":60230,"name":"San Salvatore","latitude":44.33098,"longitude":9.35479},{"id":60255,"name":"San Terenzo","latitude":44.08543,"longitude":9.89662},{"id":60451,"name":"Santa Margherita Ligure","latitude":44.33456,"longitude":9.21204},{"id":60485,"name":"Santa Marta","latitude":44.50401,"longitude":8.89268},{"id":60517,"name":"Santo Stefano al Mare","latitude":43.83855,"longitude":7.89728},{"id":60518,"name":"Santo Stefano d'Aveto","latitude":44.54677,"longitude":9.45325},{"id":60522,"name":"Santo Stefano di Magra","latitude":44.14891,"longitude":9.92185},{"id":60563,"name":"Sarzana","latitude":44.11178,"longitude":9.9622},{"id":60569,"name":"Sassello","latitude":44.48036,"longitude":8.49375},{"id":60592,"name":"Savignone","latitude":44.56435,"longitude":8.98726},{"id":60599,"name":"Savona","latitude":44.30905,"longitude":8.47715},{"id":60651,"name":"Sciarborasca","latitude":44.40182,"longitude":8.61541},{"id":60674,"name":"Seborga","latitude":43.8273,"longitude":7.69585},{"id":60751,"name":"Serra Riccò","latitude":44.51071,"longitude":8.93806},{"id":60792,"name":"Sesta Godano","latitude":44.29375,"longitude":9.67535},{"id":60803,"name":"Sestri Levante","latitude":44.27317,"longitude":9.39683},{"id":60912,"name":"Soldano","latitude":43.82954,"longitude":7.65627},{"id":60957,"name":"Sori","latitude":44.37301,"longitude":9.1047},{"id":61031,"name":"Spotorno","latitude":44.22638,"longitude":8.41647},{"id":61057,"name":"Stazione-Fornola","latitude":44.12984,"longitude":9.89159},{"id":61064,"name":"Stellanello","latitude":43.99993,"longitude":8.06025},{"id":61140,"name":"Taggia","latitude":43.84612,"longitude":7.85223},{"id":61259,"name":"Terzorio","latitude":43.85232,"longitude":7.89835},{"id":61264,"name":"Testico","latitude":44.00553,"longitude":8.02639},{"id":61277,"name":"Tiglieto","latitude":44.52324,"longitude":8.61925},{"id":61297,"name":"Toirano","latitude":44.12732,"longitude":8.20725},{"id":61405,"name":"Torriglia","latitude":44.51755,"longitude":9.15811},{"id":61425,"name":"Tovo San Giacomo","latitude":44.17593,"longitude":8.27045},{"id":61517,"name":"Tribogna","latitude":44.41655,"longitude":9.19557},{"id":61533,"name":"Triora","latitude":43.99309,"longitude":7.76369},{"id":61603,"name":"Urbe","latitude":44.48714,"longitude":8.58615},{"id":61610,"name":"Uscio","latitude":44.41233,"longitude":9.16227},{"id":61630,"name":"Vado Centro","latitude":44.26857,"longitude":8.43225},{"id":61631,"name":"Vado Ligure","latitude":44.26913,"longitude":8.43375},{"id":61699,"name":"Valle di Vado","latitude":44.26183,"longitude":8.41397},{"id":61701,"name":"Vallebona","latitude":43.8122,"longitude":7.66535},{"id":61703,"name":"Vallecrosia","latitude":43.78671,"longitude":7.63902},{"id":61708,"name":"Valleggia","latitude":44.2808,"longitude":8.42967},{"id":61749,"name":"Valzemola","latitude":44.36393,"longitude":8.17376},{"id":61764,"name":"Varazze","latitude":44.36412,"longitude":8.5963},{"id":61770,"name":"Varese Ligure","latitude":44.37687,"longitude":9.59372},{"id":61779,"name":"Vasia","latitude":43.93268,"longitude":7.95389},{"id":61813,"name":"Vendone","latitude":44.07693,"longitude":8.07115},{"id":61825,"name":"Ventimiglia","latitude":43.78956,"longitude":7.60872},{"id":61856,"name":"Vernazza","latitude":44.13501,"longitude":9.68346},{"id":61884,"name":"Vessalico","latitude":44.04559,"longitude":7.96013},{"id":61895,"name":"Vezzano Ligure","latitude":44.14144,"longitude":9.88692},{"id":61897,"name":"Vezzi Portio","latitude":44.22933,"longitude":8.36505},{"id":61997,"name":"Villa Faraldi","latitude":43.96843,"longitude":8.08965},{"id":62055,"name":"Villafranca","latitude":44.03297,"longitude":8.10525},{"id":62105,"name":"Villanova d'Albenga","latitude":44.04725,"longitude":8.14336},{"id":62198,"name":"Vobbia","latitude":44.60125,"longitude":9.03866},{"id":62263,"name":"Zoagli","latitude":44.33668,"longitude":9.2668},{"id":62279,"name":"Zuccarello","latitude":44.10973,"longitude":8.11814}]