[{"id":19278,"name":"Anbu","latitude":23.44895,"longitude":116.68092},{"id":19383,"name":"Chaozhou","latitude":23.65396,"longitude":116.62262},{"id":19389,"name":"Chenghua","latitude":23.46132,"longitude":116.77007},{"id":19422,"name":"Daliang","latitude":22.84067,"longitude":113.2503},{"id":19426,"name":"Danshui","latitude":22.7984,"longitude":114.46716},{"id":19432,"name":"Dasha","latitude":23.11037,"longitude":113.4418},{"id":19467,"name":"Dongguan","latitude":23.01797,"longitude":113.74866},{"id":19468,"name":"Donghai","latitude":22.94593,"longitude":115.64204},{"id":19483,"name":"Ducheng","latitude":23.24212,"longitude":111.5284},{"id":19490,"name":"Encheng","latitude":22.18659,"longitude":112.30424},{"id":19514,"name":"Foshan","latitude":23.02677,"longitude":113.13148},{"id":19515,"name":"Foshan Shi","latitude":23.02264,"longitude":112.96302},{"id":19546,"name":"Gaoyao","latitude":23.02432,"longitude":112.44555},{"id":19550,"name":"Gaozhou","latitude":21.93924,"longitude":110.84607},{"id":19562,"name":"Guangzhou","latitude":23.11667,"longitude":113.25},{"id":19563,"name":"Guangzhou Shi","latitude":23.37327,"longitude":113.51219},{"id":19586,"name":"Haikuotiankong","latitude":22.52881,"longitude":113.9399},{"id":19590,"name":"Haimen","latitude":23.19346,"longitude":116.61219},{"id":19617,"name":"Hepo","latitude":23.43077,"longitude":115.82991},{"id":19620,"name":"Heyuan","latitude":23.73333,"longitude":114.68333},{"id":19637,"name":"Huaicheng","latitude":23.91952,"longitude":112.17629},{"id":19646,"name":"Huanggang","latitude":23.67704,"longitude":116.99961},{"id":19669,"name":"Huazhou","latitude":21.63333,"longitude":110.58333},{"id":19672,"name":"Huicheng","latitude":23.03845,"longitude":116.28988},{"id":19675,"name":"Huizhou","latitude":23.11147,"longitude":114.41523},{"id":19681,"name":"Humen","latitude":22.81899,"longitude":113.67306},{"id":19699,"name":"Jiangmen","latitude":22.58333,"longitude":113.08333},{"id":19717,"name":"Jiazi","latitude":22.87932,"longitude":116.07318},{"id":19720,"name":"Jieshi","latitude":22.81027,"longitude":115.83058},{"id":19723,"name":"Jieyang","latitude":23.5418,"longitude":116.36581},{"id":19807,"name":"Lecheng","latitude":25.128,"longitude":113.35041},{"id":19821,"name":"Lianjiang","latitude":21.64673,"longitude":110.28172},{"id":19826,"name":"Lianzhou","latitude":24.78186,"longitude":112.3712},{"id":19833,"name":"Licheng","latitude":23.29549,"longitude":113.82465},{"id":19879,"name":"Lubu","latitude":23.17233,"longitude":112.28298},{"id":19881,"name":"Luocheng","latitude":22.76953,"longitude":111.56882},{"id":19888,"name":"Luoyang","latitude":23.16244,"longitude":114.27342},{"id":19898,"name":"Maba","latitude":24.68413,"longitude":113.59839},{"id":19904,"name":"Maoming","latitude":21.65,"longitude":110.9},{"id":19913,"name":"Meizhou","latitude":24.28859,"longitude":116.11768},{"id":19939,"name":"Nanfeng","latitude":23.72695,"longitude":111.79723},{"id":19982,"name":"Pingshan","latitude":22.99376,"longitude":114.71311},{"id":19996,"name":"Puning","latitude":23.31072,"longitude":116.16869},{"id":20027,"name":"Qingyuan","latitude":23.7,"longitude":113.03333},{"id":20057,"name":"Sanshui","latitude":23.15486,"longitude":112.89161},{"id":20076,"name":"Shantou","latitude":23.36814,"longitude":116.71479},{"id":20077,"name":"Shanwei","latitude":22.78199,"longitude":115.3475},{"id":20080,"name":"Shaoguan","latitude":24.8,"longitude":113.58333},{"id":20083,"name":"Shaping","latitude":22.77019,"longitude":112.95776},{"id":20091,"name":"Shenzhen","latitude":22.55653,"longitude":113.9859},{"id":20101,"name":"Shilong","latitude":23.11444,"longitude":113.84722},{"id":20103,"name":"Shiqi","latitude":22.51682,"longitude":113.38521},{"id":20105,"name":"Shiqiao","latitude":22.9464,"longitude":113.35769},{"id":20107,"name":"Shiwan","latitude":23.00107,"longitude":113.077},{"id":20108,"name":"Shixing","latitude":24.94824,"longitude":114.06572},{"id":20160,"name":"Taishan","latitude":22.25135,"longitude":112.7799},{"id":20170,"name":"Tangping","latitude":22.03177,"longitude":111.93537},{"id":20230,"name":"Wuchuan","latitude":21.45713,"longitude":110.76591},{"id":20296,"name":"Xingning","latitude":24.1483,"longitude":115.72272},{"id":20299,"name":"Xinhui","latitude":22.456,"longitude":113.0482},{"id":20312,"name":"Xinyi","latitude":22.37303,"longitude":110.94746},{"id":20319,"name":"Xiongzhou","latitude":25.11667,"longitude":114.3},{"id":20333,"name":"Xucheng","latitude":20.32917,"longitude":110.16712},{"id":20341,"name":"Yangchun","latitude":22.16667,"longitude":111.78333},{"id":20344,"name":"Yangjiang","latitude":21.85563,"longitude":111.96272},{"id":20375,"name":"Yingcheng","latitude":24.16588,"longitude":113.41267},{"id":20401,"name":"Yunfu","latitude":22.92833,"longitude":112.03954},{"id":20429,"name":"Zhanjiang","latitude":21.28145,"longitude":110.34271},{"id":20433,"name":"Zhaoqing","latitude":23.04893,"longitude":112.46091},{"id":20451,"name":"Zhongshan","latitude":21.31992,"longitude":110.5723},{"id":20452,"name":"Zhongshan Prefecture","latitude":22.55358,"longitude":113.3755},{"id":20466,"name":"Zhuhai","latitude":22.27694,"longitude":113.56778}]