[{"id":19319,"name":"Baoying","latitude":33.22917,"longitude":119.30917},{"id":19376,"name":"Changshu City","latitude":31.64615,"longitude":120.74221},{"id":19379,"name":"Changzhou","latitude":31.77359,"longitude":119.95401},{"id":19394,"name":"Chengxiang","latitude":31.44778,"longitude":121.09389},{"id":19442,"name":"Dazhong","latitude":33.19973,"longitude":120.4578},{"id":19470,"name":"Dongkan","latitude":33.99972,"longitude":119.83083},{"id":19477,"name":"Dongtai","latitude":32.85231,"longitude":120.30947},{"id":19510,"name":"Fengxian","latitude":34.70388,"longitude":116.58717},{"id":19540,"name":"Gaogou","latitude":34.0175,"longitude":119.18861},{"id":19548,"name":"Gaoyou","latitude":32.78933,"longitude":119.44182},{"id":19573,"name":"Guiren","latitude":33.66972,"longitude":118.18889},{"id":19592,"name":"Haizhou","latitude":34.58167,"longitude":119.12889},{"id":19606,"name":"Hede","latitude":33.7722,"longitude":120.26176},{"id":19635,"name":"Huai'an","latitude":33.58861,"longitude":119.01917},{"id":19644,"name":"Huai’an Shi","latitude":33.31162,"longitude":119.04559},{"id":19673,"name":"Huilong","latitude":31.81111,"longitude":121.655},{"id":19688,"name":"Hutang","latitude":31.53429,"longitude":119.49},{"id":19702,"name":"Jiangyan","latitude":32.50611,"longitude":120.14278},{"id":19703,"name":"Jiangyin","latitude":31.91102,"longitude":120.26302},{"id":19734,"name":"Jingjiang","latitude":32.01417,"longitude":120.2625},{"id":19747,"name":"Jinsha","latitude":32.08982,"longitude":121.07355},{"id":19764,"name":"Juegang","latitude":32.31737,"longitude":121.18552},{"id":19784,"name":"Kunshan","latitude":31.37762,"longitude":120.95431},{"id":19825,"name":"Lianyungang Shi","latitude":34.54844,"longitude":119.11228},{"id":19832,"name":"Licheng","latitude":31.42813,"longitude":119.48353},{"id":19930,"name":"Mudu","latitude":31.25597,"longitude":120.51857},{"id":19941,"name":"Nanjing","latitude":32.06167,"longitude":118.77778},{"id":19949,"name":"Nantong","latitude":32.03028,"longitude":120.87472},{"id":19987,"name":"Pizhou","latitude":34.31139,"longitude":117.95028},{"id":20030,"name":"Qinnan","latitude":33.25306,"longitude":119.91333},{"id":20044,"name":"Rucheng","latitude":32.38833,"longitude":120.55528},{"id":20054,"name":"Sanmao","latitude":32.23931,"longitude":119.81536},{"id":20136,"name":"Songling","latitude":31.1933,"longitude":120.71758},{"id":20139,"name":"Suicheng","latitude":33.8963,"longitude":117.93307},{"id":20150,"name":"Suzhou","latitude":31.30408,"longitude":120.59538},{"id":20161,"name":"Taixing","latitude":32.16667,"longitude":120.01361},{"id":20163,"name":"Taizhou","latitude":32.49069,"longitude":119.90812},{"id":20195,"name":"Tongshan","latitude":34.18045,"longitude":117.15707},{"id":20239,"name":"Wuxi","latitude":31.56887,"longitude":120.28857},{"id":20263,"name":"Xiannü","latitude":32.42806,"longitude":119.56048},{"id":20271,"name":"Xiaolingwei","latitude":32.03244,"longitude":118.854},{"id":20294,"name":"Xinghua","latitude":32.93917,"longitude":119.83417},{"id":20303,"name":"Xinpu","latitude":34.59972,"longitude":119.15944},{"id":20340,"name":"Yancheng","latitude":33.3575,"longitude":120.1573},{"id":20349,"name":"Yangzhou","latitude":32.39722,"longitude":119.43583},{"id":20368,"name":"Yicheng","latitude":31.36059,"longitude":119.82016},{"id":20405,"name":"Yushan","latitude":31.67748,"longitude":120.80134},{"id":20420,"name":"Zhangjiagang","latitude":31.865,"longitude":120.53889},{"id":20441,"name":"Zhenjiang","latitude":32.21086,"longitude":119.45508},{"id":20443,"name":"Zhenzhou","latitude":32.28034,"longitude":119.16999},{"id":20456,"name":"Zhongxing","latitude":33.70389,"longitude":118.67917},{"id":20462,"name":"Zhouzhuang","latitude":31.11788,"longitude":120.84427}]