[{"id":63222,"name":"Aira Shi","latitude":31.7846,"longitude":130.60668},{"id":63235,"name":"Akune","latitude":32.01667,"longitude":130.2},{"id":63236,"name":"Akune Shi","latitude":32.02516,"longitude":130.19768},{"id":63242,"name":"Amami","latitude":28.3769,"longitude":129.49379},{"id":63243,"name":"Amami Shi","latitude":28.34542,"longitude":129.50221},{"id":63428,"name":"Hamanoichi","latitude":31.71667,"longitude":130.73333},{"id":63485,"name":"Hioki","latitude":31.58333,"longitude":130.35},{"id":63486,"name":"Hioki Shi","latitude":31.59929,"longitude":130.38208},{"id":63535,"name":"Ibusuki","latitude":31.23333,"longitude":130.65},{"id":63536,"name":"Ibusuki Shi","latitude":31.22962,"longitude":130.5806},{"id":63540,"name":"Ichikikushikino Shi","latitude":31.73281,"longitude":130.28893},{"id":63553,"name":"Ijūin","latitude":31.61667,"longitude":130.4},{"id":63580,"name":"Isa Shi","latitude":32.05835,"longitude":130.60104},{"id":63641,"name":"Izumi","latitude":32.08333,"longitude":130.36667},{"id":63642,"name":"Izumi Shi","latitude":32.06412,"longitude":130.36097},{"id":63658,"name":"Kagoshima","latitude":31.56667,"longitude":130.55},{"id":63659,"name":"Kagoshima Shi","latitude":31.58003,"longitude":130.52806},{"id":63667,"name":"Kajiki","latitude":31.73333,"longitude":130.66667},{"id":63713,"name":"Kanoya","latitude":31.38333,"longitude":130.85},{"id":63714,"name":"Kanoya Shi","latitude":31.42664,"longitude":130.86735},{"id":63732,"name":"Kaseda-shirakame","latitude":31.41667,"longitude":130.31667},{"id":63789,"name":"Kirishima Shi","latitude":31.80558,"longitude":130.78164},{"id":63829,"name":"Kokubu-matsuki","latitude":31.73333,"longitude":130.76667},{"id":63847,"name":"Koseda","latitude":30.38796,"longitude":130.64924},{"id":63849,"name":"Koshima","latitude":30.23461,"longitude":130.53517},{"id":63873,"name":"Kurio","latitude":30.27123,"longitude":130.4236},{"id":63883,"name":"Kushikino","latitude":31.71667,"longitude":130.26667},{"id":63918,"name":"Makurazaki","latitude":31.26667,"longitude":130.31667},{"id":63919,"name":"Makurazaki Shi","latitude":31.29139,"longitude":130.30681},{"id":63967,"name":"Minamikyushu Shi","latitude":31.34038,"longitude":130.43677},{"id":63969,"name":"Minamisatsuma Shi","latitude":31.38793,"longitude":130.26961},{"id":64006,"name":"Miyanoura","latitude":30.4269,"longitude":130.57151},{"id":64073,"name":"Nagata","latitude":30.39516,"longitude":130.42548},{"id":64119,"name":"Naze","latitude":28.36667,"longitude":129.48333},{"id":64150,"name":"Nishinoomote","latitude":30.73333,"longitude":131.0},{"id":64151,"name":"Nishinoomote Shi","latitude":30.70536,"longitude":131.01521},{"id":64733,"name":"Ōkuchi-shinohara","latitude":32.06779,"longitude":130.62439},{"id":64291,"name":"Satsumasendai","latitude":31.81667,"longitude":130.3},{"id":64292,"name":"Satsumasendai Shi","latitude":31.82376,"longitude":130.25899},{"id":64314,"name":"Shibushi","latitude":31.476,"longitude":131.10114},{"id":64315,"name":"Shibushi-shi","latitude":31.48333,"longitude":131.1},{"id":64374,"name":"Soo Shi","latitude":31.65615,"longitude":130.9747},{"id":64375,"name":"Sueyoshichō-ninokata","latitude":31.65,"longitude":131.01667},{"id":64470,"name":"Tarumizu","latitude":31.48333,"longitude":130.7},{"id":64471,"name":"Tarumizu Shi","latitude":31.51583,"longitude":130.76046},{"id":64693,"name":"Yudomari","latitude":30.2347,"longitude":130.47942}]