[{"id":135245,"name":"Abriola","latitude":40.50748,"longitude":15.8131},{"id":135249,"name":"Accettura","latitude":40.49102,"longitude":16.15798},{"id":135253,"name":"Acerenza","latitude":40.79386,"longitude":15.93808},{"id":135354,"name":"Albano di Lucania","latitude":40.58614,"longitude":16.03712},{"id":135407,"name":"Aliano","latitude":40.31359,"longitude":16.22984},{"id":135526,"name":"Anzi","latitude":40.51662,"longitude":15.92457},{"id":135614,"name":"Armento","latitude":40.3066,"longitude":16.0655},{"id":135673,"name":"Atella","latitude":40.87855,"longitude":15.65226},{"id":135709,"name":"Avigliano","latitude":40.73291,"longitude":15.72004},{"id":135797,"name":"Balvano","latitude":40.64953,"longitude":15.51345},{"id":135806,"name":"Banzi","latitude":40.86063,"longitude":16.00976},{"id":135810,"name":"Baragiano","latitude":40.68001,"longitude":15.59398},{"id":135857,"name":"Barile","latitude":40.94327,"longitude":15.67167},{"id":135934,"name":"Bella","latitude":40.76059,"longitude":15.54101},{"id":135992,"name":"Bernalda","latitude":40.41261,"longitude":16.68919},{"id":136329,"name":"Brienza","latitude":40.47751,"longitude":15.62927},{"id":136335,"name":"Brindisi Montagna","latitude":40.60952,"longitude":15.93977},{"id":136504,"name":"Calciano","latitude":40.58802,"longitude":16.19238},{"id":136553,"name":"Calvello","latitude":40.47482,"longitude":15.85092},{"id":136556,"name":"Calvera","latitude":40.14871,"longitude":16.14362},{"id":136667,"name":"Campomaggiore","latitude":40.5659,"longitude":16.0725},{"id":136694,"name":"Cancellara","latitude":40.73068,"longitude":15.9247},{"id":136850,"name":"Carbone","latitude":40.14227,"longitude":16.08846},{"id":137203,"name":"Castelgrande","latitude":40.78639,"longitude":15.43109},{"id":137264,"name":"Castelluccio Inferiore","latitude":40.00151,"longitude":15.98149},{"id":137265,"name":"Castelluccio Superiore","latitude":40.01003,"longitude":15.97184},{"id":137273,"name":"Castelmezzano","latitude":40.52832,"longitude":16.04585},{"id":137313,"name":"Castelsaraceno","latitude":40.16213,"longitude":15.99281},{"id":137384,"name":"Castronuovo di Sant'Andrea","latitude":40.18903,"longitude":16.18559},{"id":137577,"name":"Cersosimo","latitude":40.04703,"longitude":16.35059},{"id":137655,"name":"Chiaromonte","latitude":40.12323,"longitude":16.2144},{"id":137747,"name":"Cirigliano","latitude":40.39376,"longitude":16.17194},{"id":137910,"name":"Colobraro","latitude":40.18841,"longitude":16.4248},{"id":138019,"name":"Corleto Perticara","latitude":40.38214,"longitude":16.03917},{"id":138121,"name":"Craco-Sant'Angelo","latitude":40.37992,"longitude":16.43708},{"id":138364,"name":"Episcopia","latitude":40.07481,"longitude":16.09818},{"id":138445,"name":"Fardella","latitude":40.11381,"longitude":16.16978},{"id":138488,"name":"Ferrandina","latitude":40.50084,"longitude":16.45258},{"id":138529,"name":"Filiano","latitude":40.81042,"longitude":15.70984},{"id":138624,"name":"Forenza","latitude":40.86041,"longitude":15.85457},{"id":138699,"name":"Francavilla in Sinni","latitude":40.08142,"longitude":16.20417},{"id":138809,"name":"Gallicchio","latitude":40.29232,"longitude":16.13561},{"id":138843,"name":"Garaguso","latitude":40.54866,"longitude":16.22827},{"id":138903,"name":"Genzano di Lucania","latitude":40.84589,"longitude":16.03124},{"id":138963,"name":"Ginestra","latitude":40.93092,"longitude":15.73497},{"id":139029,"name":"Gorgoglione","latitude":40.39532,"longitude":16.14456},{"id":139072,"name":"Grassano","latitude":40.63457,"longitude":16.27792},{"id":139130,"name":"Grottole","latitude":40.60333,"longitude":16.37831},{"id":139137,"name":"Grumento Nova","latitude":40.28281,"longitude":15.88877},{"id":139160,"name":"Guardia Perticara","latitude":40.36167,"longitude":16.09845},{"id":139223,"name":"Irsina","latitude":40.75015,"longitude":16.23816},{"id":139295,"name":"La Martella","latitude":40.66251,"longitude":16.53551},{"id":139327,"name":"Lagonegro","latitude":40.12785,"longitude":15.76212},{"id":139393,"name":"Latronico","latitude":40.08909,"longitude":16.00947},{"id":139400,"name":"Laurenzana","latitude":40.45908,"longitude":15.97075},{"id":139401,"name":"Lauria","latitude":40.04702,"longitude":15.83812},{"id":139410,"name":"Lavello","latitude":41.04769,"longitude":15.78915},{"id":139501,"name":"Lido","latitude":40.19128,"longitude":16.70692},{"id":139832,"name":"Maratea","latitude":39.99932,"longitude":15.71539},{"id":139855,"name":"Marconia","latitude":40.36355,"longitude":16.68823},{"id":139922,"name":"Marsico Nuovo","latitude":40.42359,"longitude":15.73462},{"id":139923,"name":"Marsicovetere","latitude":40.37591,"longitude":15.82569},{"id":139954,"name":"Maschito","latitude":40.90892,"longitude":15.82946},{"id":139993,"name":"Matera","latitude":40.66599,"longitude":16.60463},{"id":140043,"name":"Melfi","latitude":40.99571,"longitude":15.65578},{"id":140138,"name":"Miglionico","latitude":40.56763,"longitude":16.49964},{"id":140183,"name":"Missanello","latitude":40.28311,"longitude":16.1665},{"id":140228,"name":"Moliterno","latitude":40.24394,"longitude":15.86544},{"id":140318,"name":"Montalbano Jonico","latitude":40.28591,"longitude":16.5696},{"id":140495,"name":"Montemilone","latitude":41.02742,"longitude":15.96661},{"id":140499,"name":"Montemurro","latitude":40.29765,"longitude":15.99182},{"id":140534,"name":"Montescaglioso","latitude":40.55024,"longitude":16.66541},{"id":140694,"name":"Muro Lucano","latitude":40.75379,"longitude":15.48808},{"id":140741,"name":"Nemoli","latitude":40.06765,"longitude":15.79962},{"id":140790,"name":"Noepoli","latitude":40.08705,"longitude":16.32834},{"id":140816,"name":"Nova Siri","latitude":40.14823,"longitude":16.53976},{"id":140817,"name":"Nova Siri Scalo","latitude":40.13177,"longitude":16.63593},{"id":140902,"name":"Oliveto Lucano","latitude":40.53554,"longitude":16.18547},{"id":140934,"name":"Oppido Lucano","latitude":40.76174,"longitude":15.98818},{"id":58231,"name":"Palazzo San Gervasio","latitude":40.93156,"longitude":15.98149},{"id":58343,"name":"Paterno","latitude":40.37507,"longitude":15.7351},{"id":58463,"name":"Pescopagano","latitude":40.83494,"longitude":15.39946},{"id":58580,"name":"Picerno","latitude":40.63975,"longitude":15.64232},{"id":58614,"name":"Pietragalla","latitude":40.74572,"longitude":15.87398},{"id":58621,"name":"Pietrapertosa","latitude":40.51731,"longitude":16.06244},{"id":58663,"name":"Pignola","latitude":40.57412,"longitude":15.78295},{"id":58713,"name":"Pisticci","latitude":40.39017,"longitude":16.55919},{"id":58789,"name":"Policoro","latitude":40.2128,"longitude":16.67795},{"id":58810,"name":"Pomarico","latitude":40.52804,"longitude":16.52708},{"id":58965,"name":"Potenza","latitude":40.64175,"longitude":15.80794},{"id":59149,"name":"Provincia di Matera","latitude":40.5,"longitude":16.41667},{"id":59164,"name":"Provincia di Potenza","latitude":40.46442,"longitude":15.89938},{"id":59287,"name":"Rapolla","latitude":40.97499,"longitude":15.67201},{"id":59288,"name":"Rapone","latitude":40.8471,"longitude":15.49818},{"id":59397,"name":"Rionero in Vulture","latitude":40.92328,"longitude":15.6711},{"id":59402,"name":"Ripacandida","latitude":40.91256,"longitude":15.72597},{"id":59436,"name":"Rivello","latitude":40.07821,"longitude":15.75798},{"id":59511,"name":"Roccanova","latitude":40.2125,"longitude":16.20429},{"id":59659,"name":"Rotonda","latitude":39.95215,"longitude":16.03904},{"id":59660,"name":"Rotondella","latitude":40.17136,"longitude":16.52491},{"id":59703,"name":"Ruoti","latitude":40.7166,"longitude":15.68369},{"id":59708,"name":"Ruvo del Monte","latitude":40.84951,"longitude":15.54217},{"id":59746,"name":"Salandra","latitude":40.52668,"longitude":16.32037},{"id":59848,"name":"San Brancato","latitude":40.25822,"longitude":16.25661},{"id":59866,"name":"San Chirico Nuovo","latitude":40.67764,"longitude":16.07892},{"id":59867,"name":"San Chirico Raparo","latitude":40.19242,"longitude":16.07618},{"id":59880,"name":"San Costantino Albanese","latitude":40.03679,"longitude":16.30475},{"id":59905,"name":"San Fele","latitude":40.81647,"longitude":15.54043},{"id":59957,"name":"San Giorgio Lucano","latitude":40.11132,"longitude":16.3893},{"id":60081,"name":"San Martino d'Agri","latitude":40.23913,"longitude":16.05216},{"id":60107,"name":"San Mauro Forte","latitude":40.48333,"longitude":16.25155},{"id":60157,"name":"San Paolo Albanese","latitude":40.03567,"longitude":16.33498},{"id":60242,"name":"San Severino Lucano","latitude":40.02021,"longitude":16.1386},{"id":60372,"name":"Sant'Angelo le Fratte","latitude":40.5449,"longitude":15.56156},{"id":60387,"name":"Sant'Arcangelo","latitude":40.24852,"longitude":16.27046},{"id":60542,"name":"Sarconi","latitude":40.248,"longitude":15.88837},{"id":60573,"name":"Sasso di Castalda","latitude":40.48525,"longitude":15.67569},{"id":60579,"name":"Satriano di Lucania","latitude":40.54296,"longitude":15.64024},{"id":60598,"name":"Savoia di Lucania","latitude":40.56949,"longitude":15.55132},{"id":60611,"name":"Scalo di Baragiano","latitude":40.695,"longitude":15.57508},{"id":60626,"name":"Scanzano Jonico","latitude":40.25085,"longitude":16.69824},{"id":60726,"name":"Senise","latitude":40.14616,"longitude":16.28867},{"id":61024,"name":"Spinoso","latitude":40.26921,"longitude":15.96658},{"id":61072,"name":"Stigliano","latitude":40.40237,"longitude":16.22983},{"id":61198,"name":"Teana","latitude":40.12586,"longitude":16.15281},{"id":61242,"name":"Terranova di Pollino","latitude":39.97765,"longitude":16.29583},{"id":61287,"name":"Tito","latitude":40.5837,"longitude":15.67621},{"id":61303,"name":"Tolve","latitude":40.69422,"longitude":16.01627},{"id":61435,"name":"Tramutola","latitude":40.31858,"longitude":15.78753},{"id":61467,"name":"Trecchina","latitude":40.02611,"longitude":15.77585},{"id":61518,"name":"Tricarico","latitude":40.61458,"longitude":16.14259},{"id":61544,"name":"Trivigno","latitude":40.58015,"longitude":15.98857},{"id":61579,"name":"Tursi","latitude":40.24651,"longitude":16.4714},{"id":61634,"name":"Vaglio Basilicata","latitude":40.66643,"longitude":15.91434},{"id":61739,"name":"Valsinni","latitude":40.17098,"longitude":16.44388},{"id":61823,"name":"Venosa","latitude":40.96283,"longitude":15.81285},{"id":61934,"name":"Vietri di Potenza","latitude":40.60027,"longitude":15.50787},{"id":61945,"name":"Viggianello","latitude":39.97227,"longitude":16.08521},{"id":61946,"name":"Viggiano","latitude":40.34213,"longitude":15.89964},{"id":62033,"name":"Villa d'Agri","latitude":40.35426,"longitude":15.8277},{"id":62270,"name":"Zona 179","latitude":41.00313,"longitude":15.61868}]