[{"id":63240,"name":"Amakusa Gun","latitude":32.48513,"longitude":130.0724},{"id":63241,"name":"Amakusa Shi","latitude":32.38515,"longitude":130.15014},{"id":63253,"name":"Arao Shi","latitude":32.97619,"longitude":130.47562},{"id":63269,"name":"Aso-shi","latitude":32.95608,"longitude":131.09458},{"id":63511,"name":"Hitoyoshi","latitude":32.21667,"longitude":130.75},{"id":63512,"name":"Hitoyoshi Shi","latitude":32.17298,"longitude":130.74013},{"id":63522,"name":"Hondomachi-hondo","latitude":32.45993,"longitude":130.16713},{"id":63525,"name":"Honmachi","latitude":32.50439,"longitude":130.59952},{"id":63687,"name":"Kamiamakusa Shi","latitude":32.4955,"longitude":130.40816},{"id":63784,"name":"Kikuchi","latitude":32.98333,"longitude":130.81667},{"id":63785,"name":"Kikuchi Shi","latitude":32.99107,"longitude":130.85523},{"id":63901,"name":"Kōshi Shi","latitude":32.89305,"longitude":130.76867},{"id":63859,"name":"Kumamoto","latitude":32.80589,"longitude":130.69181},{"id":63860,"name":"Kumamoto Shi","latitude":32.79733,"longitude":130.69171},{"id":63931,"name":"Matsubase","latitude":32.65,"longitude":130.66667},{"id":63959,"name":"Minamata","latitude":32.21667,"longitude":130.4},{"id":63960,"name":"Minamata Shi","latitude":32.17055,"longitude":130.46211},{"id":64769,"name":"Ōzu","latitude":32.8804,"longitude":130.87161},{"id":64457,"name":"Tamana","latitude":32.94716,"longitude":130.57446},{"id":64458,"name":"Tamana Shi","latitude":32.9155,"longitude":130.56018},{"id":64580,"name":"Uekimachi-mōno","latitude":32.89964,"longitude":130.68898},{"id":64587,"name":"Uki Shi","latitude":32.62669,"longitude":130.65491},{"id":64602,"name":"Ushibukamachi","latitude":32.20142,"longitude":130.02171},{"id":64609,"name":"Uto","latitude":32.68333,"longitude":130.66667},{"id":64610,"name":"Uto Shi","latitude":32.68092,"longitude":130.61308},{"id":64637,"name":"Yamaga Shi","latitude":33.05587,"longitude":130.72309},{"id":64664,"name":"Yatsushiro Shi","latitude":32.49063,"longitude":130.74972}]