[{"id":149582,"name":"Badr","latitude":30.136,"longitude":31.715},{"id":149583,"name":"Bulaq","latitude":30.053,"longitude":31.23},{"id":31802,"name":"Cairo","latitude":30.06263,"longitude":31.24967},{"id":149584,"name":"El Mataria","latitude":30.1295,"longitude":31.2889},{"id":149585,"name":"Fustat","latitude":30.0,"longitude":31.23333333},{"id":149586,"name":"Hadayek El Kobba","latitude":30.0967,"longitude":31.3103},{"id":149587,"name":"Heliopolis","latitude":30.13333333,"longitude":31.3},{"id":149588,"name":"Helwan","latitude":29.84194444,"longitude":31.33416667},{"id":149589,"name":"Maadi","latitude":29.9667,"longitude":31.25},{"id":149590,"name":"Musturud","latitude":30.13881944,"longitude":31.29241111},{"id":149591,"name":"New Administrative Capital of Egypt","latitude":30.0275,"longitude":31.765},{"id":149592,"name":"Shubra","latitude":30.0725,"longitude":31.2408},{"id":149593,"name":"Tura","latitude":29.939279,"longitude":31.290007}]