[{"id":76763,"name":"Akko","latitude":10.28899,"longitude":10.9732},{"id":76794,"name":"Bara","latitude":10.37444,"longitude":10.72884},{"id":76802,"name":"Billiri","latitude":9.86545,"longitude":11.22624},{"id":76823,"name":"Dadiya","latitude":9.61667,"longitude":11.43333},{"id":76839,"name":"Deba","latitude":10.21187,"longitude":11.3871},{"id":76846,"name":"Dukku","latitude":10.82379,"longitude":10.77221},{"id":76877,"name":"Garko","latitude":10.17506,"longitude":11.16458},{"id":76884,"name":"Gombe","latitude":10.28969,"longitude":11.16729},{"id":76903,"name":"Hinna","latitude":10.30426,"longitude":11.49905},{"id":76968,"name":"Kafarati","latitude":10.38304,"longitude":11.09567},{"id":76973,"name":"Kaltungo","latitude":9.81998,"longitude":11.30871},{"id":76993,"name":"Kumo","latitude":10.04807,"longitude":11.21055},{"id":77037,"name":"Nafada","latitude":11.09596,"longitude":11.33261},{"id":77088,"name":"Pindiga","latitude":9.98433,"longitude":10.95229}]