[{"id":106917,"name":"As Sars","latitude":36.0764,"longitude":9.02117},{"id":106947,"name":"El Kef","latitude":36.17424,"longitude":8.70486},{"id":106948,"name":"El Ksour","latitude":35.89607,"longitude":8.88493},{"id":106992,"name":"Menzel Salem","latitude":35.85673,"longitude":8.47654},{"id":107002,"name":"Nibbar","latitude":36.29411,"longitude":8.76657},{"id":107013,"name":"Sakiet Sidi Youssef","latitude":36.22292,"longitude":8.35547},{"id":107032,"name":"Tajerouine","latitude":35.89174,"longitude":8.55276}]