[{"id":22017,"name":"Argáka","latitude":35.06646,"longitude":32.49446},{"id":22022,"name":"Chlórakas","latitude":34.79768,"longitude":32.41207},{"id":22026,"name":"Emba","latitude":34.807,"longitude":32.42406},{"id":22032,"name":"Geroskipou","latitude":34.75498,"longitude":32.45155},{"id":22033,"name":"Geroskípou (quarter)","latitude":34.7619,"longitude":32.45135},{"id":22034,"name":"Geroskípou Municipality","latitude":34.75142,"longitude":32.45449},{"id":22037,"name":"Kissonerga","latitude":34.82279,"longitude":32.40131},{"id":22041,"name":"Koloni","latitude":34.75228,"longitude":32.46487},{"id":22043,"name":"Konia","latitude":34.78516,"longitude":32.459},{"id":22063,"name":"Mesógi","latitude":34.81577,"longitude":32.45542},{"id":22071,"name":"Paphos","latitude":34.77679,"longitude":32.42451},{"id":22085,"name":"Pégeia","latitude":34.88341,"longitude":32.38166},{"id":22088,"name":"Pólis","latitude":35.03534,"longitude":32.42575},{"id":22098,"name":"Tála","latitude":34.83745,"longitude":32.43272},{"id":22096,"name":"Tsáda","latitude":34.83801,"longitude":32.47547}]