[{"id":107105,"name":"Akçadağ","latitude":38.33899,"longitude":37.97021},{"id":107175,"name":"Arapgir","latitude":39.04117,"longitude":38.49516},{"id":107183,"name":"Arguvan","latitude":38.78172,"longitude":38.26349},{"id":107292,"name":"Battalgazi","latitude":38.43932,"longitude":38.45764},{"id":107447,"name":"Darende","latitude":38.54583,"longitude":37.50583},{"id":107525,"name":"Doğanşehir","latitude":38.08574,"longitude":37.87116},{"id":107520,"name":"Doğanyol","latitude":38.30746,"longitude":39.03431},{"id":107819,"name":"Hekimhan","latitude":38.81622,"longitude":37.92882},{"id":107870,"name":"Kale","latitude":39.03333,"longitude":38.0},{"id":108044,"name":"Kuluncak","latitude":38.87656,"longitude":37.66279},{"id":108141,"name":"Malatya","latitude":38.35018,"longitude":38.31667},{"id":108354,"name":"Pütürge","latitude":38.1963,"longitude":38.87418},{"id":108684,"name":"Yazıhan","latitude":38.59292,"longitude":38.17327},{"id":108728,"name":"Yeşilyurt","latitude":38.29602,"longitude":38.24526}]