[{"id":109535,"name":"Demydivs’kyy Rayon","latitude":50.44302,"longitude":25.29061},{"id":109584,"name":"Dubno","latitude":50.41694,"longitude":25.73432},{"id":109586,"name":"Dubrovytsya","latitude":51.57438,"longitude":26.56503},{"id":109652,"name":"Horodyshche","latitude":50.63965,"longitude":26.36573},{"id":109654,"name":"Hoshcha","latitude":50.6003,"longitude":26.67435},{"id":109762,"name":"Klevan","latitude":50.74305,"longitude":25.97628},{"id":109773,"name":"Kolodenka","latitude":50.58561,"longitude":26.31601},{"id":109778,"name":"Koloniya Zastav’ye","latitude":50.81667,"longitude":27.03333},{"id":109795,"name":"Korets","latitude":50.61655,"longitude":27.16055},{"id":109813,"name":"Kostopil’","latitude":50.87841,"longitude":26.45192},{"id":110041,"name":"Mizoch","latitude":50.4,"longitude":26.15},{"id":110043,"name":"Mlyniv","latitude":50.509,"longitude":25.61675},{"id":110044,"name":"Mlynivs’kyy Rayon","latitude":50.55726,"longitude":25.57715},{"id":110205,"name":"Orzhiv","latitude":50.8,"longitude":26.12},{"id":110208,"name":"Ostroh","latitude":50.32942,"longitude":26.51425},{"id":110210,"name":"Ostroz’ka Mis’krada","latitude":50.32726,"longitude":26.51765},{"id":110339,"name":"Radyvyliv","latitude":50.12994,"longitude":25.25576},{"id":110354,"name":"Rivne","latitude":50.62308,"longitude":26.22743},{"id":110356,"name":"Rivnens’ka Mis’krada","latitude":50.613,"longitude":26.24588},{"id":110364,"name":"Rokytne","latitude":51.2796,"longitude":27.214},{"id":110407,"name":"Sarny","latitude":51.33795,"longitude":26.60191},{"id":110589,"name":"Tarakaniv","latitude":50.37961,"longitude":25.70843},{"id":110642,"name":"Tynne","latitude":50.60145,"longitude":26.18486},{"id":110672,"name":"Varash","latitude":51.3509,"longitude":25.84738},{"id":110691,"name":"Velyki Mezhyrichi","latitude":50.65431,"longitude":26.86626},{"id":110735,"name":"Volodymyrets’","latitude":51.4213,"longitude":26.14469},{"id":110824,"name":"Zarichne","latitude":51.8126,"longitude":26.12902},{"id":110833,"name":"Zdolbuniv","latitude":50.5206,"longitude":26.24251},{"id":110834,"name":"Zdovbytsya","latitude":50.49607,"longitude":26.24111}]