[{"id":152,"name":"Ballsh","latitude":40.59889,"longitude":19.73472},{"id":157,"name":"Bashkia Divjakë","latitude":40.95716,"longitude":19.52364},{"id":160,"name":"Bashkia Fier","latitude":40.72937,"longitude":19.4869},{"id":174,"name":"Bashkia Mallakastër","latitude":40.55669,"longitude":19.77347},{"id":179,"name":"Bashkia Patos","latitude":40.67793,"longitude":19.65591},{"id":196,"name":"Divjakë","latitude":40.99667,"longitude":19.52944},{"id":200,"name":"Fier","latitude":40.72389,"longitude":19.55611},{"id":201,"name":"Fier-Çifçi","latitude":40.71667,"longitude":19.56667},{"id":227,"name":"Lushnjë","latitude":40.94194,"longitude":19.705},{"id":234,"name":"Patos","latitude":40.68333,"longitude":19.61944},{"id":235,"name":"Patos Fshat","latitude":40.64278,"longitude":19.65083},{"id":241,"name":"Roskovec","latitude":40.7375,"longitude":19.70222},{"id":254,"name":"Rrethi i Mallakastrës","latitude":40.55,"longitude":19.78333}]