[{"id":62297,"name":"Albert Town","latitude":18.29434,"longitude":-77.54239},{"id":62306,"name":"Alps","latitude":18.35498,"longitude":-77.50897},{"id":62379,"name":"Bounty Hall","latitude":18.45801,"longitude":-77.71663},{"id":62384,"name":"Brampton","latitude":18.44262,"longitude":-77.46424},{"id":62403,"name":"Bunkers Hill","latitude":18.36198,"longitude":-77.68612},{"id":62457,"name":"Clarks Town","latitude":18.42244,"longitude":-77.53328},{"id":62501,"name":"Daniel Town","latitude":18.46395,"longitude":-77.61592},{"id":62505,"name":"Deeside","latitude":18.35976,"longitude":-77.73721},{"id":62521,"name":"Duanvale","latitude":18.40267,"longitude":-77.59615},{"id":62526,"name":"Duncans","latitude":18.468,"longitude":-77.53633},{"id":62550,"name":"Falmouth","latitude":18.49358,"longitude":-77.65587},{"id":62569,"name":"Freemans Hall","latitude":18.28384,"longitude":-77.5018},{"id":62605,"name":"Granville","latitude":18.45053,"longitude":-77.68847},{"id":62625,"name":"Hampden","latitude":18.44217,"longitude":-77.73203},{"id":62669,"name":"Jackson Town","latitude":18.41781,"longitude":-77.48458},{"id":62674,"name":"Joe Hut","latitude":18.26742,"longitude":-77.49616},{"id":62694,"name":"Kinloss","latitude":18.39641,"longitude":-77.56968},{"id":62729,"name":"Lorrimers","latitude":18.23026,"longitude":-77.49207},{"id":62755,"name":"Martha Brae","latitude":18.4696,"longitude":-77.65909},{"id":62878,"name":"Perth Town","latitude":18.43106,"longitude":-77.62583},{"id":62921,"name":"Refuge","latitude":18.45101,"longitude":-77.57751},{"id":62933,"name":"Rio Bueno","latitude":18.46406,"longitude":-77.48042},{"id":62963,"name":"Salt Marsh","latitude":18.48423,"longitude":-77.71184},{"id":62966,"name":"Samuels Prospect","latitude":18.45103,"longitude":-77.5144},{"id":62975,"name":"Sawyers","latitude":18.3788,"longitude":-77.49689},{"id":62988,"name":"Sherwood Content","latitude":18.38227,"longitude":-77.63643},{"id":63009,"name":"Spicy Hill","latitude":18.45763,"longitude":-77.54751},{"id":63013,"name":"Spring Garden","latitude":18.29368,"longitude":-77.56698},{"id":63027,"name":"St. Vincent","latitude":18.33424,"longitude":-77.5479},{"id":63030,"name":"Stettin","latitude":18.28224,"longitude":-77.54095},{"id":63031,"name":"Stewart Town","latitude":18.39887,"longitude":-77.45187},{"id":63068,"name":"Troy","latitude":18.24924,"longitude":-77.60978},{"id":63072,"name":"Ulster Spring","latitude":18.32113,"longitude":-77.49681},{"id":63078,"name":"Wait-A-Bit","latitude":18.25332,"longitude":-77.50837},{"id":63079,"name":"Wakefield","latitude":18.4146,"longitude":-77.70908},{"id":63084,"name":"Warsop","latitude":18.26178,"longitude":-77.56774},{"id":63110,"name":"Wilson's Run","latitude":18.28468,"longitude":-77.69323},{"id":63116,"name":"Wirefence","latitude":18.2531,"longitude":-77.53276}]