[{"id":9271,"name":"Belogradchik","latitude":43.62722,"longitude":22.68361},{"id":9284,"name":"Boynitsa","latitude":43.9565,"longitude":22.53255},{"id":9287,"name":"Bregovo","latitude":44.15167,"longitude":22.6425},{"id":9303,"name":"Chuprene","latitude":43.51806,"longitude":22.66611},{"id":9309,"name":"Dimovo","latitude":43.74167,"longitude":22.72694},{"id":9317,"name":"Drenovets","latitude":43.69134,"longitude":22.97365},{"id":9320,"name":"Dunavtsi","latitude":43.92111,"longitude":22.82111},{"id":9336,"name":"Gramada","latitude":43.83738,"longitude":22.65279},{"id":9380,"name":"Kula","latitude":43.88833,"longitude":22.52139},{"id":9396,"name":"Makresh","latitude":43.76794,"longitude":22.66406},{"id":9411,"name":"Novo Selo","latitude":44.16214,"longitude":22.78376},{"id":9426,"name":"Obshtina Belogradchik","latitude":43.65,"longitude":22.6},{"id":9438,"name":"Obshtina Boynitsa","latitude":44.0,"longitude":22.55},{"id":9456,"name":"Obshtina Dimovo","latitude":43.75,"longitude":22.81667},{"id":9483,"name":"Obshtina Gramada","latitude":43.83333,"longitude":22.65},{"id":9517,"name":"Obshtina Kula","latitude":43.9,"longitude":22.56667},{"id":9577,"name":"Obshtina Ruzhintsi","latitude":43.65,"longitude":22.9},{"id":9630,"name":"Obshtina Vidin","latitude":44.0,"longitude":22.83333},{"id":9676,"name":"Ruzhintsi","latitude":43.62179,"longitude":22.83286},{"id":9741,"name":"Vidin","latitude":43.99159,"longitude":22.88236}]