[{"id":107136,"name":"Altunhisar","latitude":37.99159,"longitude":34.37334},{"id":107369,"name":"Bor","latitude":37.89056,"longitude":34.55889},{"id":108764,"name":"Çamardı İlçesi","latitude":37.84157,"longitude":34.99005},{"id":108829,"name":"Çiftlik","latitude":38.1758,"longitude":34.48535},{"id":108252,"name":"Niğde","latitude":37.96583,"longitude":34.67935},{"id":108628,"name":"Ulukisla","latitude":37.54592,"longitude":34.58737}]