[{"id":105265,"name":"Amphoe Buntharik","latitude":14.70495,"longitude":105.40444},{"id":105322,"name":"Amphoe Det Udom","latitude":14.85153,"longitude":105.07511},{"id":105331,"name":"Amphoe Don Mot Daeng","latitude":15.37694,"longitude":105.02107},{"id":105401,"name":"Amphoe Khemmarat","latitude":15.97114,"longitude":105.15168},{"id":105424,"name":"Amphoe Khong Chiam","latitude":15.45432,"longitude":105.50363},{"id":105430,"name":"Amphoe Khueang Nai","latitude":15.39097,"longitude":104.54363},{"id":105466,"name":"Amphoe Kut Khaopun","latitude":15.81907,"longitude":105.04066},{"id":105485,"name":"Amphoe Lao Suea Kok","latitude":15.43952,"longitude":104.91662},{"id":105530,"name":"Amphoe Muang Sam Sip","latitude":15.52637,"longitude":104.71661},{"id":105600,"name":"Amphoe Mueang Ubon Ratchathani","latitude":15.29662,"longitude":104.83052},{"id":105608,"name":"Amphoe Na Chaluai","latitude":14.56695,"longitude":105.22367},{"id":105622,"name":"Amphoe Na Tan","latitude":15.93485,"longitude":105.28454},{"id":105628,"name":"Amphoe Na Yia","latitude":15.0414,"longitude":105.05729},{"id":105634,"name":"Amphoe Nam Khun","latitude":14.55508,"longitude":104.89872},{"id":105640,"name":"Amphoe Nam Yuen","latitude":14.48671,"longitude":105.00269},{"id":105738,"name":"Amphoe Phibun Mangsahan","latitude":15.14589,"longitude":105.24094},{"id":105746,"name":"Amphoe Pho Sai","latitude":15.76739,"longitude":105.34339},{"id":106180,"name":"Amphoe Samrong","latitude":14.98532,"longitude":104.79139},{"id":106202,"name":"Amphoe Sawang Wirawong","latitude":15.23439,"longitude":105.076},{"id":106216,"name":"Amphoe Si Mueang Mai","latitude":15.56297,"longitude":105.3483},{"id":106238,"name":"Amphoe Sirindhorn","latitude":15.11249,"longitude":105.42837},{"id":106267,"name":"Amphoe Tan Sum","latitude":15.39035,"longitude":105.16273},{"id":106316,"name":"Amphoe Thung Si Udom","latitude":14.73936,"longitude":104.91731},{"id":106322,"name":"Amphoe Trakan Phuet Phon","latitude":15.6136,"longitude":105.06444},{"id":106353,"name":"Amphoe Warin Chamrap","latitude":15.12394,"longitude":104.87499},{"id":106488,"name":"Det Udom","latitude":14.90598,"longitude":105.07836},{"id":106633,"name":"Phibun Mangsahan","latitude":15.24467,"longitude":105.22908},{"id":106694,"name":"Sawang Wirawong","latitude":15.24158,"longitude":105.0922},{"id":106737,"name":"Ubon Ratchathani","latitude":15.23844,"longitude":104.84866},{"id":106750,"name":"Warin Chamrap","latitude":15.19319,"longitude":104.8628}]