[{"id":67377,"name":"Ampasimanolotra","latitude":-18.81667,"longitude":49.06667},{"id":67378,"name":"Andovoranto","latitude":-18.95443,"longitude":49.1094},{"id":67379,"name":"Mahanoro","latitude":-19.9,"longitude":48.8},{"id":67380,"name":"Mahavelona","latitude":-17.68475,"longitude":49.50869},{"id":67381,"name":"Marolambo","latitude":-20.05,"longitude":48.11667},{"id":67382,"name":"Toamasina","latitude":-18.1492,"longitude":49.40234},{"id":67383,"name":"Toamasina I","latitude":-18.13863,"longitude":49.39203},{"id":67384,"name":"Toamasina II","latitude":-17.94053,"longitude":49.14608},{"id":67385,"name":"Vohibinany","latitude":-17.35,"longitude":49.03333}]