[{"id":39241,"name":"Ablon","latitude":49.39214,"longitude":0.29584},{"id":39255,"name":"Acquigny","latitude":49.1735,"longitude":1.1765},{"id":39259,"name":"Agneaux","latitude":49.11905,"longitude":-1.1061},{"id":39262,"name":"Agon-Coutainville","latitude":49.04167,"longitude":-1.575},{"id":39310,"name":"Alençon","latitude":48.43476,"longitude":0.09311},{"id":39317,"name":"Alizay","latitude":49.32158,"longitude":1.17854},{"id":39362,"name":"Amfreville","latitude":49.25,"longitude":-0.23333},{"id":39363,"name":"Amfreville-la-Mi-Voie","latitude":49.40755,"longitude":1.13871},{"id":39393,"name":"Andé","latitude":49.23163,"longitude":1.24088},{"id":39398,"name":"Angerville-l’Orcher","latitude":49.58833,"longitude":0.28191},{"id":39477,"name":"Argences","latitude":49.12635,"longitude":-0.16644},{"id":39479,"name":"Argentan","latitude":48.74441,"longitude":-0.02023},{"id":39502,"name":"Arnières-sur-Iton","latitude":48.99678,"longitude":1.10384},{"id":39509,"name":"Arques-la-Bataille","latitude":49.88122,"longitude":1.12875},{"id":39558,"name":"Athis-de-l'Orne","latitude":48.81667,"longitude":-0.5},{"id":39568,"name":"Aube-sur-Rîle","latitude":48.7392,"longitude":0.55161},{"id":39575,"name":"Aubevoye","latitude":49.17097,"longitude":1.33537},{"id":39603,"name":"Auffay","latitude":49.71881,"longitude":1.09911},{"id":39615,"name":"Aumale","latitude":49.76985,"longitude":1.75587},{"id":39619,"name":"Aunay-sur-Odon","latitude":49.02012,"longitude":-0.63238},{"id":39635,"name":"Authie","latitude":49.20615,"longitude":-0.43191},{"id":39651,"name":"Auzebosc","latitude":49.59565,"longitude":0.7285},{"id":39673,"name":"Aviron","latitude":49.05,"longitude":1.11667},{"id":39678,"name":"Avranches","latitude":48.68436,"longitude":-1.35686},{"id":39702,"name":"Bacqueville-en-Caux","latitude":49.78761,"longitude":0.99927},{"id":39710,"name":"Bagnoles-de-l'Orne","latitude":48.5572,"longitude":-0.41383},{"id":39781,"name":"Barentin","latitude":49.54533,"longitude":0.95515},{"id":39782,"name":"Barenton","latitude":48.60027,"longitude":-0.83258},{"id":39788,"name":"Barneville-Carteret","latitude":49.38333,"longitude":-1.75},{"id":39789,"name":"Barneville-Plage","latitude":49.36786,"longitude":-1.76512},{"id":39819,"name":"Bavent","latitude":49.22996,"longitude":-0.18675},{"id":39822,"name":"Bayeux","latitude":49.27732,"longitude":-0.7039},{"id":39861,"name":"Beaumont-Hague","latitude":49.66387,"longitude":-1.83822},{"id":39869,"name":"Beaumont-le-Roger","latitude":49.07839,"longitude":0.78081},{"id":39902,"name":"Belbeuf","latitude":49.38766,"longitude":1.14245},{"id":39931,"name":"Bellême","latitude":48.37329,"longitude":0.57005},{"id":39918,"name":"Bellengreville","latitude":49.12425,"longitude":-0.20961},{"id":40426,"name":"Bénouville","latitude":49.24151,"longitude":-0.28246},{"id":39952,"name":"Bernay","latitude":49.08888,"longitude":0.59858},{"id":39954,"name":"Berneval-le-Grand","latitude":49.95328,"longitude":1.18755},{"id":39957,"name":"Bernières-sur-Mer","latitude":49.33057,"longitude":-0.42299},{"id":39990,"name":"Beuville","latitude":49.24364,"longitude":-0.32585},{"id":39991,"name":"Beuvillers","latitude":49.12961,"longitude":0.25492},{"id":39995,"name":"Beuzeville","latitude":49.34483,"longitude":0.34254},{"id":39996,"name":"Beuzeville-la-Grenier","latitude":49.59157,"longitude":0.42684},{"id":40437,"name":"Bézu-Saint-Éloi","latitude":49.29524,"longitude":1.70404},{"id":40041,"name":"Biéville-Beuville","latitude":49.24293,"longitude":-0.32762},{"id":40019,"name":"Bihorel","latitude":49.45468,"longitude":1.1223},{"id":40048,"name":"Blainville-Crevon","latitude":49.50395,"longitude":1.29952},{"id":40049,"name":"Blainville-sur-Mer","latitude":49.06599,"longitude":-1.5834},{"id":40050,"name":"Blainville-sur-Orne","latitude":49.22913,"longitude":-0.30061},{"id":40054,"name":"Blangy-sur-Bresle","latitude":49.93211,"longitude":1.62514},{"id":40070,"name":"Blonville-sur-Mer","latitude":49.33709,"longitude":0.02709},{"id":40086,"name":"Bois-Guillaume","latitude":49.4602,"longitude":1.12219},{"id":40102,"name":"Bolbec","latitude":49.57321,"longitude":0.47339},{"id":40134,"name":"Boos","latitude":49.38849,"longitude":1.20348},{"id":40144,"name":"Bosc-le-Hard","latitude":49.62734,"longitude":1.17483},{"id":40186,"name":"Bourg-Achard","latitude":49.35322,"longitude":0.81623},{"id":40205,"name":"Bourgtheroulde-Infreville","latitude":49.3,"longitude":0.88333},{"id":40207,"name":"Bourguébus","latitude":49.12187,"longitude":-0.29786},{"id":40213,"name":"Bourth","latitude":48.76846,"longitude":0.80911},{"id":40229,"name":"Bouville","latitude":49.56193,"longitude":0.89514},{"id":40355,"name":"Bréauté","latitude":49.62805,"longitude":0.40005},{"id":40356,"name":"Brécey","latitude":48.72413,"longitude":-1.16647},{"id":40358,"name":"Bréhal","latitude":48.89915,"longitude":-1.51225},{"id":40282,"name":"Breteuil","latitude":48.83333,"longitude":0.91667},{"id":40285,"name":"Bretoncelles","latitude":48.43122,"longitude":0.88775},{"id":40287,"name":"Bretteville","latitude":49.6544,"longitude":-1.52884},{"id":40288,"name":"Bretteville-du-Grand-Caux","latitude":49.66667,"longitude":0.4},{"id":40289,"name":"Bretteville-l’Orgueilleuse","latitude":49.21189,"longitude":-0.51428},{"id":40290,"name":"Bretteville-sur-Laize","latitude":49.04466,"longitude":-0.32639},{"id":40291,"name":"Bretteville-sur-Odon","latitude":49.16627,"longitude":-0.41662},{"id":40297,"name":"Breuilpont","latitude":48.96398,"longitude":1.42919},{"id":40303,"name":"Bricquebec","latitude":49.47008,"longitude":-1.63254},{"id":40320,"name":"Brionne","latitude":49.19553,"longitude":0.7151},{"id":40323,"name":"Briouze","latitude":48.69848,"longitude":-0.36806},{"id":40329,"name":"Brix","latitude":49.54512,"longitude":-1.58012},{"id":40331,"name":"Broglie","latitude":49.00911,"longitude":0.52915},{"id":40370,"name":"Buchy","latitude":49.58513,"longitude":1.35852},{"id":40374,"name":"Bueil","latitude":48.93189,"longitude":1.44257},{"id":40382,"name":"Bully","latitude":49.10155,"longitude":-0.40825},{"id":40445,"name":"Cabourg","latitude":49.2911,"longitude":-0.1133},{"id":40457,"name":"Caen","latitude":49.18585,"longitude":-0.35912},{"id":40461,"name":"Cagny","latitude":49.1458,"longitude":-0.2563},{"id":40462,"name":"Cahagnes","latitude":49.06631,"longitude":-0.76869},{"id":40466,"name":"Cairon","latitude":49.24017,"longitude":-0.45046},{"id":40478,"name":"Calvados","latitude":49.09011,"longitude":-0.30608},{"id":40485,"name":"Cambes-en-Plaine","latitude":49.23161,"longitude":-0.3854},{"id":40490,"name":"Cambremer","latitude":49.15192,"longitude":0.0476},{"id":40515,"name":"Canon","latitude":49.0738,"longitude":-0.09219},{"id":40518,"name":"Canteleu","latitude":49.44065,"longitude":1.02459},{"id":40522,"name":"Cany-Barville","latitude":49.78885,"longitude":0.63704},{"id":40541,"name":"Carentan","latitude":49.30312,"longitude":-1.24806},{"id":40556,"name":"Carpiquet","latitude":49.18522,"longitude":-0.44623},{"id":40602,"name":"Caudebec-en-Caux","latitude":49.52577,"longitude":0.72561},{"id":40603,"name":"Caudebec-lès-Elbeuf","latitude":49.28082,"longitude":1.02195},{"id":40607,"name":"Caumont","latitude":49.36642,"longitude":0.89591},{"id":40608,"name":"Caumont-l'Éventé","latitude":49.09017,"longitude":-0.80501},{"id":40615,"name":"Cauville-sur-Mer","latitude":49.6,"longitude":0.13333},{"id":40631,"name":"Ceaucé","latitude":48.49436,"longitude":-0.62526},{"id":41395,"name":"Cérences","latitude":48.91667,"longitude":-1.4347},{"id":40648,"name":"Cerisy-la-Salle","latitude":49.02622,"longitude":-1.28283},{"id":40664,"name":"Ceton","latitude":48.22631,"longitude":0.74968},{"id":40751,"name":"Champsecret","latitude":48.60925,"longitude":-0.55058},{"id":40779,"name":"Chanu","latitude":48.72914,"longitude":-0.67603},{"id":40801,"name":"Charleval","latitude":49.3729,"longitude":1.38369},{"id":40881,"name":"Cherbourg-Octeville","latitude":49.63984,"longitude":-1.61636},{"id":40890,"name":"Cheux","latitude":49.16611,"longitude":-0.52544},{"id":41045,"name":"Claville","latitude":49.04844,"longitude":1.01954},{"id":41066,"name":"Clécy","latitude":48.91718,"longitude":-0.48041},{"id":41071,"name":"Cléon","latitude":49.31235,"longitude":1.0295},{"id":41065,"name":"Clères","latitude":49.6,"longitude":1.11667},{"id":41054,"name":"Clinchamps-sur-Orne","latitude":49.07857,"longitude":-0.40156},{"id":41090,"name":"Colleville-Montgomery","latitude":49.27528,"longitude":-0.30052},{"id":41099,"name":"Colombelles","latitude":49.2049,"longitude":-0.29571},{"id":41128,"name":"Conches-en-Ouche","latitude":48.95768,"longitude":0.94052},{"id":41136,"name":"Condé-sur-Huisne","latitude":48.38103,"longitude":0.85093},{"id":41137,"name":"Condé-sur-Noireau","latitude":48.84881,"longitude":-0.55214},{"id":41138,"name":"Condé-sur-Sarthe","latitude":48.43197,"longitude":0.03398},{"id":41140,"name":"Condé-sur-Vire","latitude":49.05,"longitude":-1.03333},{"id":41179,"name":"Cormeilles","latitude":49.24803,"longitude":0.37654},{"id":41181,"name":"Cormelles-le-Royal","latitude":49.15398,"longitude":-0.33062},{"id":41191,"name":"Corneville-sur-Risle","latitude":49.34128,"longitude":0.58628},{"id":41245,"name":"Courcelles-sur-Seine","latitude":49.18285,"longitude":1.36008},{"id":41266,"name":"Courseulles-sur-Mer","latitude":49.33027,"longitude":-0.45612},{"id":41267,"name":"Courteilles","latitude":48.77495,"longitude":-0.19942},{"id":41278,"name":"Coutances","latitude":49.04541,"longitude":-1.44518},{"id":41279,"name":"Couterne","latitude":48.51318,"longitude":-0.41538},{"id":41340,"name":"Créances","latitude":49.19873,"longitude":-1.56938},{"id":41308,"name":"Cresserons","latitude":49.28701,"longitude":-0.35569},{"id":41310,"name":"Creully","latitude":49.28478,"longitude":-0.53976},{"id":41317,"name":"Criel-sur-Mer","latitude":50.01508,"longitude":1.31459},{"id":41318,"name":"Criquebeuf-sur-Seine","latitude":49.30563,"longitude":1.09964},{"id":41319,"name":"Criquetot-l’Esneval","latitude":49.64555,"longitude":0.26571},{"id":41329,"name":"Croth","latitude":48.84557,"longitude":1.37861},{"id":41385,"name":"Cuverville","latitude":49.18998,"longitude":-0.26474},{"id":41413,"name":"Damigny","latitude":48.45,"longitude":0.06667},{"id":41425,"name":"Damville","latitude":48.8693,"longitude":1.07458},{"id":41436,"name":"Darnétal","latitude":49.44533,"longitude":1.15144},{"id":41444,"name":"Deauville","latitude":49.357,"longitude":0.06995},{"id":41601,"name":"Démouville","latitude":49.18001,"longitude":-0.26947},{"id":41617,"name":"Département de l'Eure","latitude":49.16667,"longitude":1.0},{"id":41622,"name":"Département de l'Orne","latitude":48.66667,"longitude":0.08333},{"id":41650,"name":"Déville-lès-Rouen","latitude":49.46942,"longitude":1.05214},{"id":41469,"name":"Dieppe","latitude":49.9216,"longitude":1.07772},{"id":41480,"name":"Digosville","latitude":49.63104,"longitude":-1.52627},{"id":41495,"name":"Dives-sur-Mer","latitude":49.28176,"longitude":-0.10125},{"id":41516,"name":"Domfront","latitude":48.59208,"longitude":-0.64588},{"id":41534,"name":"Donville-les-Bains","latitude":48.84608,"longitude":-1.58315},{"id":41550,"name":"Doudeville","latitude":49.72268,"longitude":0.78479},{"id":41559,"name":"Douvres-la-Délivrande","latitude":49.29472,"longitude":-0.38039},{"id":41564,"name":"Dozulé","latitude":49.23132,"longitude":-0.04454},{"id":41584,"name":"Ducey","latitude":48.61843,"longitude":-1.29052},{"id":41585,"name":"Duclair","latitude":49.48385,"longitude":0.87617},{"id":48046,"name":"Écouché","latitude":48.71751,"longitude":-0.12409},{"id":48051,"name":"Écrainville","latitude":49.64943,"longitude":0.32488},{"id":41662,"name":"Elbeuf","latitude":49.28669,"longitude":1.00288},{"id":41685,"name":"Envermeu","latitude":49.8956,"longitude":1.26493},{"id":48070,"name":"Épaignes","latitude":49.27945,"longitude":0.4398},{"id":48083,"name":"Épouville","latitude":49.56349,"longitude":0.22373},{"id":48084,"name":"Épron","latitude":49.22174,"longitude":-0.37085},{"id":48086,"name":"Équemauville","latitude":49.39406,"longitude":0.2076},{"id":48087,"name":"Équeurdreville-Hainneville","latitude":49.64868,"longitude":-1.65306},{"id":41714,"name":"Eslettes","latitude":49.5482,"longitude":1.05515},{"id":48093,"name":"Étainhus","latitude":49.56648,"longitude":0.31285},{"id":48102,"name":"Éterville","latitude":49.14423,"longitude":-0.42512},{"id":48114,"name":"Étrépagny","latitude":49.30623,"longitude":1.61139},{"id":48110,"name":"Étretat","latitude":49.70669,"longitude":0.20523},{"id":41742,"name":"Eu","latitude":50.04606,"longitude":1.42079},{"id":48122,"name":"Évrecy","latitude":49.09904,"longitude":-0.50421},{"id":48123,"name":"Évreux","latitude":49.02414,"longitude":1.15082},{"id":48127,"name":"Ézy-sur-Eure","latitude":48.86667,"longitude":1.41667},{"id":41765,"name":"Falaise","latitude":48.89217,"longitude":-0.19527},{"id":41781,"name":"Fauville-en-Caux","latitude":49.65257,"longitude":0.59197},{"id":41999,"name":"Fécamp","latitude":49.75787,"longitude":0.37457},{"id":41800,"name":"Fermanville","latitude":49.68673,"longitude":-1.46284},{"id":41828,"name":"Flamanville","latitude":49.53274,"longitude":-1.8656},{"id":41836,"name":"Flers","latitude":48.73722,"longitude":-0.57466},{"id":41850,"name":"Fleury-sur-Andelle","latitude":49.36176,"longitude":1.35599},{"id":41851,"name":"Fleury-sur-Orne","latitude":49.14851,"longitude":-0.37508},{"id":41886,"name":"Fontaine-Étoupefour","latitude":49.146,"longitude":-0.45522},{"id":41880,"name":"Fontaine-la-Mallet","latitude":49.536,"longitude":0.14625},{"id":41881,"name":"Fontaine-le-Bourg","latitude":49.56451,"longitude":1.16391},{"id":41883,"name":"Fontaine-le-Dun","latitude":49.81182,"longitude":0.85095},{"id":41894,"name":"Fontenay","latitude":49.55993,"longitude":0.18391},{"id":41900,"name":"Fontenay-le-Marmion","latitude":49.09346,"longitude":-0.35294},{"id":41913,"name":"Forges-les-Eaux","latitude":49.61391,"longitude":1.54449},{"id":41921,"name":"Foucarmont","latitude":49.84682,"longitude":1.56899},{"id":41948,"name":"Francheville","latitude":48.78647,"longitude":0.84962},{"id":42010,"name":"Gacé","latitude":48.79344,"longitude":0.29624},{"id":42017,"name":"Gaillefontaine","latitude":49.65371,"longitude":1.61547},{"id":42018,"name":"Gaillon","latitude":49.16104,"longitude":1.34016},{"id":42019,"name":"Gainneville","latitude":49.51845,"longitude":0.26164},{"id":42040,"name":"Garennes-sur-Eure","latitude":48.91116,"longitude":1.43836},{"id":42049,"name":"Gasny","latitude":49.09184,"longitude":1.60336},{"id":42055,"name":"Gavray","latitude":48.91108,"longitude":-1.35059},{"id":42086,"name":"Giberville","latitude":49.18158,"longitude":-0.28386},{"id":42105,"name":"Gisors","latitude":49.28178,"longitude":1.7801},{"id":42115,"name":"Goderville","latitude":49.64566,"longitude":0.36593},{"id":42132,"name":"Gonneville-la-Mallet","latitude":49.6395,"longitude":0.22245},{"id":42152,"name":"Gournay-en-Bray","latitude":49.48285,"longitude":1.72471},{"id":42157,"name":"Gouville-sur-Mer","latitude":49.09611,"longitude":-1.57908},{"id":42166,"name":"Grainville-la-Teinturière","latitude":49.74773,"longitude":0.64048},{"id":42167,"name":"Grainville-sur-Odon","latitude":49.13936,"longitude":-0.53046},{"id":42172,"name":"Grand-Couronne","latitude":49.35563,"longitude":1.00647},{"id":42175,"name":"Grandcamp-Maisy","latitude":49.38333,"longitude":-1.03333},{"id":42185,"name":"Granville","latitude":48.83792,"longitude":-1.59714},{"id":42191,"name":"Gravigny","latitude":49.0531,"longitude":1.16962},{"id":42228,"name":"Gruchet-le-Valasse","latitude":49.55466,"longitude":0.48684},{"id":42251,"name":"Guichainville","latitude":49.00139,"longitude":1.19305},{"id":42320,"name":"Hambye","latitude":48.94798,"longitude":-1.26417},{"id":42328,"name":"Harfleur","latitude":49.5066,"longitude":0.19827},{"id":42355,"name":"Hautot-sur-Mer","latitude":49.89789,"longitude":1.02884},{"id":42357,"name":"Hauville","latitude":49.39645,"longitude":0.77232},{"id":42455,"name":"Hénouville","latitude":49.4789,"longitude":0.96367},{"id":42378,"name":"Hermanville-sur-Mer","latitude":49.28464,"longitude":-0.31544},{"id":42461,"name":"Hérouville-Saint-Clair","latitude":49.21088,"longitude":-0.30653},{"id":42462,"name":"Hérouvillette","latitude":49.2213,"longitude":-0.24348},{"id":42390,"name":"Heudreville-sur-Eure","latitude":49.14089,"longitude":1.18813},{"id":42417,"name":"Honfleur","latitude":49.41985,"longitude":0.23294},{"id":42427,"name":"Houlbec-Cocherel","latitude":49.0735,"longitude":1.36563},{"id":42428,"name":"Houlgate","latitude":49.299,"longitude":-0.08153},{"id":42431,"name":"Houppeville","latitude":49.51259,"longitude":1.07962},{"id":42472,"name":"Ifs","latitude":49.14,"longitude":-0.34899},{"id":42476,"name":"Igoville","latitude":49.3199,"longitude":1.14832},{"id":42485,"name":"Incheville","latitude":50.01239,"longitude":1.49438},{"id":42499,"name":"Isigny-le-Buat","latitude":48.61705,"longitude":-1.16993},{"id":42500,"name":"Isigny-sur-Mer","latitude":49.31604,"longitude":-1.10384},{"id":42502,"name":"Isneauville","latitude":49.49832,"longitude":1.15431},{"id":42516,"name":"Ivry-la-Bataille","latitude":48.88333,"longitude":1.45948},{"id":42589,"name":"Jullouville","latitude":48.77576,"longitude":-1.56366},{"id":42592,"name":"Jumièges","latitude":49.43324,"longitude":0.81918},{"id":42599,"name":"Juvigny-sous-Andaine","latitude":48.55194,"longitude":-0.50878},{"id":42648,"name":"La Bonneville-sur-Iton","latitude":49.0,"longitude":1.03333},{"id":42674,"name":"La Cerlangue","latitude":49.50592,"longitude":0.41332},{"id":42683,"name":"La Chapelle-Réanville","latitude":49.09752,"longitude":1.38209},{"id":42720,"name":"La Couture-Boussey","latitude":48.89581,"longitude":1.40491},{"id":42735,"name":"La Ferrière-aux-Étangs","latitude":48.66227,"longitude":-0.51955},{"id":42740,"name":"La Ferté-Macé","latitude":48.58999,"longitude":-0.358},{"id":42744,"name":"La Feuillie","latitude":49.46415,"longitude":1.51463},{"id":42768,"name":"La Glacerie","latitude":49.60517,"longitude":-1.58185},{"id":42782,"name":"La Haye-du-Puits","latitude":49.28973,"longitude":-1.54324},{"id":42780,"name":"La Haye-Malherbe","latitude":49.22553,"longitude":1.06774},{"id":42781,"name":"La Haye-Pesnel","latitude":48.79561,"longitude":-1.39655},{"id":42789,"name":"La Lande-Patry","latitude":48.76202,"longitude":-0.59876},{"id":42798,"name":"La Madeleine-de-Nonancourt","latitude":48.77298,"longitude":1.20253},{"id":42799,"name":"La Mailleraye-sur-Seine","latitude":49.48308,"longitude":0.7703},{"id":42800,"name":"La Meauffe","latitude":49.17643,"longitude":-1.11119},{"id":42844,"name":"La Remuée","latitude":49.52773,"longitude":0.40283},{"id":42848,"name":"La Rivière-Saint-Sauveur","latitude":49.40821,"longitude":0.2703},{"id":42874,"name":"La Saussaye","latitude":49.25936,"longitude":0.98094},{"id":42876,"name":"La Selle-la-Forge","latitude":48.73295,"longitude":-0.54103},{"id":42907,"name":"La Vaupalière","latitude":49.48789,"longitude":0.9963},{"id":42911,"name":"La Vespière","latitude":49.01975,"longitude":0.4125},{"id":43031,"name":"Langrune-sur-Mer","latitude":49.32346,"longitude":-0.37346},{"id":43042,"name":"Lanquetot","latitude":49.58527,"longitude":0.52637},{"id":43135,"name":"Le Bosc-Roger-en-Roumois","latitude":49.28333,"longitude":0.93333},{"id":43199,"name":"Le Grand-Quevilly","latitude":49.40076,"longitude":1.04582},{"id":43205,"name":"Le Havre","latitude":49.4938,"longitude":0.10767},{"id":43207,"name":"Le Houlme","latitude":49.50972,"longitude":1.03537},{"id":43220,"name":"Le Manoir","latitude":49.31355,"longitude":1.20455},{"id":43226,"name":"Le Mesnil-Esnard","latitude":49.41319,"longitude":1.14521},{"id":43234,"name":"Le Molay-Littry","latitude":49.24265,"longitude":-0.87238},{"id":43241,"name":"Le Neubourg","latitude":49.15048,"longitude":0.9102},{"id":43254,"name":"Le Petit-Quevilly","latitude":49.41338,"longitude":1.06155},{"id":43308,"name":"Le Teilleul","latitude":48.53758,"longitude":-0.87304},{"id":43310,"name":"Le Theil-Bocage","latitude":48.88333,"longitude":-0.71667},{"id":43319,"name":"Le Thuit-Signol","latitude":49.26487,"longitude":0.9391},{"id":43323,"name":"Le Trait","latitude":49.46895,"longitude":0.81634},{"id":43324,"name":"Le Tréport","latitude":50.05979,"longitude":1.37583},{"id":43328,"name":"Le Val-Saint-Père","latitude":48.66177,"longitude":-1.37653},{"id":43329,"name":"Le Vaudreuil","latitude":49.25407,"longitude":1.2096},{"id":43690,"name":"Léry","latitude":49.28585,"longitude":1.20768},{"id":43362,"name":"Les Andelys","latitude":49.24557,"longitude":1.41168},{"id":43368,"name":"Les Authieux-sur-le-Port-Saint-Ouen","latitude":49.341,"longitude":1.13465},{"id":43392,"name":"Les Grandes-Ventes","latitude":49.78544,"longitude":1.22921},{"id":43399,"name":"Les Loges","latitude":49.6986,"longitude":0.28403},{"id":43400,"name":"Les Loges-Marchis","latitude":48.54132,"longitude":-1.08754},{"id":43421,"name":"Les Pieux","latitude":49.51286,"longitude":-1.80714},{"id":43442,"name":"Lessay","latitude":49.21703,"longitude":-1.53089},{"id":43471,"name":"Lieurey","latitude":49.23019,"longitude":0.49879},{"id":43486,"name":"Lillebonne","latitude":49.5203,"longitude":0.53617},{"id":43497,"name":"Limésy","latitude":49.61271,"longitude":0.92483},{"id":43505,"name":"Lion-sur-Mer","latitude":49.30018,"longitude":-0.32157},{"id":43508,"name":"Lisieux","latitude":49.1466,"longitude":0.22925},{"id":43514,"name":"Livarot","latitude":49.005,"longitude":0.1502},{"id":43551,"name":"Londinières","latitude":49.83187,"longitude":1.40232},{"id":43564,"name":"Longny-au-Perche","latitude":48.52984,"longitude":0.75239},{"id":43614,"name":"Louviers","latitude":49.21667,"longitude":1.16667},{"id":43615,"name":"Louvigny","latitude":49.15715,"longitude":-0.39376},{"id":43630,"name":"Luc-sur-Mer","latitude":49.31452,"longitude":-0.35499},{"id":43654,"name":"Luneray","latitude":49.82795,"longitude":0.91581},{"id":43727,"name":"Magny-le-Désert","latitude":48.57015,"longitude":-0.32732},{"id":43752,"name":"Malaunay","latitude":49.5271,"longitude":1.04292},{"id":43771,"name":"Manche","latitude":49.03822,"longitude":-1.31865},{"id":43789,"name":"Manéglise","latitude":49.56578,"longitude":0.25572},{"id":43778,"name":"Manneville-sur-Risle","latitude":49.35173,"longitude":0.54526},{"id":43798,"name":"Marcey-les-Grèves","latitude":48.69673,"longitude":-1.39156},{"id":43807,"name":"Marcilly-sur-Eure","latitude":48.82568,"longitude":1.34741},{"id":43840,"name":"Marigny","latitude":49.09952,"longitude":-1.24179},{"id":43869,"name":"Maromme","latitude":49.47925,"longitude":1.02375},{"id":43918,"name":"Martin-Église","latitude":49.90174,"longitude":1.1412},{"id":43919,"name":"Martinvast","latitude":49.59608,"longitude":-1.66434},{"id":43939,"name":"Mathieu","latitude":49.25448,"longitude":-0.37188},{"id":43968,"name":"May-sur-Orne","latitude":49.10107,"longitude":-0.37471},{"id":44465,"name":"Ménilles","latitude":49.03333,"longitude":1.36667},{"id":44002,"name":"Menneval","latitude":49.1,"longitude":0.61667},{"id":44025,"name":"Merville-Franceville-Plage","latitude":49.27218,"longitude":-0.19616},{"id":44030,"name":"Mesnières-en-Bray","latitude":49.76172,"longitude":1.38187},{"id":44033,"name":"Messei","latitude":48.71157,"longitude":-0.53739},{"id":44136,"name":"Mondeville","latitude":49.17497,"longitude":-0.32238},{"id":44156,"name":"Mont-Saint-Aignan","latitude":49.46307,"longitude":1.09364},{"id":44185,"name":"Montaure","latitude":49.23417,"longitude":1.08837},{"id":44215,"name":"Montebourg","latitude":49.48774,"longitude":-1.38036},{"id":44256,"name":"Montigny","latitude":49.4596,"longitude":1.00168},{"id":44265,"name":"Montivilliers","latitude":49.54518,"longitude":0.18769},{"id":44280,"name":"Montmain","latitude":49.40996,"longitude":1.23742},{"id":44282,"name":"Montmartin-sur-Mer","latitude":48.98861,"longitude":-1.5253},{"id":44368,"name":"Mortagne-au-Perche","latitude":48.52018,"longitude":0.54734},{"id":44372,"name":"Mortain","latitude":48.64782,"longitude":-0.94055},{"id":44375,"name":"Mortrée","latitude":48.63899,"longitude":0.07909},{"id":44385,"name":"Mouen","latitude":49.14696,"longitude":-0.48366},{"id":44398,"name":"Moult","latitude":49.11494,"longitude":-0.16472},{"id":44420,"name":"Moyaux","latitude":49.19511,"longitude":0.35603},{"id":44517,"name":"Nassandres","latitude":49.12632,"longitude":0.73597},{"id":44527,"name":"Neaufles-Saint-Martin","latitude":49.2765,"longitude":1.72794},{"id":44542,"name":"Neufchâtel-en-Bray","latitude":49.73315,"longitude":1.43956},{"id":44699,"name":"Néville","latitude":49.82472,"longitude":0.70862},{"id":44623,"name":"Nointot","latitude":49.59822,"longitude":0.47674},{"id":44638,"name":"Nonancourt","latitude":48.77086,"longitude":1.19799},{"id":44642,"name":"Normanville","latitude":49.07868,"longitude":1.15915},{"id":44650,"name":"Notre-Dame-de-Bondeville","latitude":49.48333,"longitude":1.05},{"id":44651,"name":"Notre-Dame-de-Gravenchon","latitude":49.4894,"longitude":0.57188},{"id":44712,"name":"Octeville","latitude":49.62612,"longitude":-1.64349},{"id":44713,"name":"Octeville-sur-Mer","latitude":49.55496,"longitude":0.1166},{"id":44720,"name":"Offranville","latitude":49.87208,"longitude":1.04817},{"id":44728,"name":"Oissel","latitude":49.33309,"longitude":1.09413},{"id":44754,"name":"Orbec","latitude":49.01667,"longitude":0.41667},{"id":44770,"name":"Orival","latitude":49.72429,"longitude":1.20512},{"id":44805,"name":"Ouistreham","latitude":49.27566,"longitude":-0.2591},{"id":44810,"name":"Ourville-en-Caux","latitude":49.72854,"longitude":0.6046},{"id":44824,"name":"Pacy-sur-Eure","latitude":49.01667,"longitude":1.38333},{"id":44853,"name":"Parigny","latitude":48.5945,"longitude":-1.07925},{"id":44874,"name":"Pavilly","latitude":49.56703,"longitude":0.95445},{"id":44895,"name":"Percy","latitude":48.91714,"longitude":-1.18916},{"id":45352,"name":"Périers","latitude":49.18667,"longitude":-1.40762},{"id":44902,"name":"Perriers-sur-Andelle","latitude":49.41487,"longitude":1.37098},{"id":44915,"name":"Petit-Couronne","latitude":49.38333,"longitude":1.01667},{"id":44921,"name":"Petiville","latitude":49.46078,"longitude":0.5874},{"id":44946,"name":"Picauville","latitude":49.3781,"longitude":-1.40048},{"id":44979,"name":"Pirou","latitude":49.18089,"longitude":-1.57384},{"id":44983,"name":"Pissy-Pôville","latitude":49.52986,"longitude":0.99281},{"id":45368,"name":"Pîtres","latitude":49.31667,"longitude":1.23333},{"id":45164,"name":"Pont-Audemer","latitude":49.35,"longitude":0.51667},{"id":45177,"name":"Pont-d'Ouilly","latitude":48.8759,"longitude":-0.40221},{"id":45194,"name":"Pont-Écrepin","latitude":48.76425,"longitude":-0.24455},{"id":45167,"name":"Pont-Hébert","latitude":49.16714,"longitude":-1.13428},{"id":45191,"name":"Pont-l’Évêque","latitude":49.28912,"longitude":0.19161},{"id":45171,"name":"Pont-Saint-Pierre","latitude":49.33561,"longitude":1.27601},{"id":45215,"name":"Pontorson","latitude":48.55316,"longitude":-1.50754},{"id":45235,"name":"Port-en-Bessin-Huppain","latitude":49.3446,"longitude":-0.75557},{"id":45238,"name":"Portbail","latitude":49.33571,"longitude":-1.6956},{"id":45247,"name":"Poses","latitude":49.30539,"longitude":1.24353},{"id":45248,"name":"Potigny","latitude":48.96925,"longitude":-0.24166},{"id":45303,"name":"Préaux","latitude":49.49136,"longitude":1.21583},{"id":45333,"name":"Putanges-Pont-Écrepin","latitude":48.76667,"longitude":-0.25},{"id":45375,"name":"Querqueville","latitude":49.66251,"longitude":-1.69119},{"id":45381,"name":"Quettehou","latitude":49.59308,"longitude":-1.30352},{"id":45382,"name":"Quettreville-sur-Sienne","latitude":48.96802,"longitude":-1.46782},{"id":45387,"name":"Quillebeuf-sur-Seine","latitude":49.46934,"longitude":0.52793},{"id":45391,"name":"Quincampoix","latitude":49.5271,"longitude":1.18849},{"id":45415,"name":"Radon","latitude":48.50246,"longitude":0.10278},{"id":45417,"name":"Rai","latitude":48.75,"longitude":0.58333},{"id":45431,"name":"Ranville","latitude":49.23071,"longitude":-0.2556},{"id":45692,"name":"Rémalard","latitude":48.42867,"longitude":0.77185},{"id":45696,"name":"Réville","latitude":49.61906,"longitude":-1.25868},{"id":45557,"name":"Rogerville","latitude":49.50296,"longitude":0.26516},{"id":45568,"name":"Rolleville","latitude":49.58232,"longitude":0.21177},{"id":45571,"name":"Romagny","latitude":48.63931,"longitude":-0.96605},{"id":45579,"name":"Romilly-sur-Andelle","latitude":49.3319,"longitude":1.26127},{"id":45584,"name":"Roncherolles-sur-le-Vivier","latitude":49.46667,"longitude":1.18333},{"id":45614,"name":"Rots","latitude":49.21235,"longitude":-0.47319},{"id":45617,"name":"Rouen","latitude":49.44313,"longitude":1.09932},{"id":45633,"name":"Roumare","latitude":49.51008,"longitude":0.97422},{"id":45641,"name":"Routot","latitude":49.378,"longitude":0.73346},{"id":45643,"name":"Rouxmesnil-Bouteilles","latitude":49.90633,"longitude":1.07976},{"id":45666,"name":"Rugles","latitude":48.82212,"longitude":0.70979},{"id":45714,"name":"Sahurs","latitude":49.35863,"longitude":0.94256},{"id":45740,"name":"Saint-Amand","latitude":49.04338,"longitude":-0.96491},{"id":45767,"name":"Saint-André-sur-Orne","latitude":49.11741,"longitude":-0.38227},{"id":45776,"name":"Saint-Arnoult","latitude":49.52676,"longitude":0.67117},{"id":45789,"name":"Saint-Aubin-lès-Elbeuf","latitude":49.3036,"longitude":1.01056},{"id":45781,"name":"Saint-Aubin-Routot","latitude":49.52341,"longitude":0.32602},{"id":45790,"name":"Saint-Aubin-sur-Gaillon","latitude":49.14701,"longitude":1.32914},{"id":45791,"name":"Saint-Aubin-sur-Mer","latitude":49.32787,"longitude":-0.38696},{"id":45792,"name":"Saint-Aubin-sur-Scie","latitude":49.87162,"longitude":1.06823},{"id":45874,"name":"Saint-Contest","latitude":49.21401,"longitude":-0.40221},{"id":45904,"name":"Saint-Denis-sur-Sarthon","latitude":48.4532,"longitude":-0.0472},{"id":45920,"name":"Saint-Désir","latitude":49.14056,"longitude":0.21398},{"id":46655,"name":"Saint-Étienne-du-Rouvray","latitude":49.37794,"longitude":1.10467},{"id":45927,"name":"Saint-Eustache-la-Forêt","latitude":49.55137,"longitude":0.45599},{"id":45950,"name":"Saint-Gatien-des-Bois","latitude":49.35,"longitude":0.18333},{"id":45982,"name":"Saint-Georges-des-Groseillers","latitude":48.76993,"longitude":-0.56768},{"id":46010,"name":"Saint-Germain-du-Corbéis","latitude":48.42215,"longitude":0.06193},{"id":46016,"name":"Saint-Germain-la-Blanche-Herbe","latitude":49.18327,"longitude":-0.40426},{"id":46020,"name":"Saint-Germain-sur-Avre","latitude":48.76466,"longitude":1.26776},{"id":46001,"name":"Saint-Germain-Village","latitude":49.34908,"longitude":0.50331},{"id":46063,"name":"Saint-Hilaire-du-Harcouët","latitude":48.577,"longitude":-1.09004},{"id":46052,"name":"Saint-Hilaire-Petitville","latitude":49.3025,"longitude":-1.21995},{"id":46076,"name":"Saint-Jacques-sur-Darnétal","latitude":49.4398,"longitude":1.20359},{"id":46078,"name":"Saint-James","latitude":48.5218,"longitude":-1.32629},{"id":46106,"name":"Saint-Jean-des-Baisants","latitude":49.09371,"longitude":-0.97289},{"id":46107,"name":"Saint-Jean-des-Champs","latitude":48.828,"longitude":-1.46487},{"id":46109,"name":"Saint-Jean-du-Cardonnay","latitude":49.50455,"longitude":1.0114},{"id":46132,"name":"Saint-Jouin-Bruneval","latitude":49.64275,"longitude":0.164},{"id":46153,"name":"Saint-Just","latitude":49.10852,"longitude":1.44101},{"id":46175,"name":"Saint-Laurent-de-Brévedent","latitude":49.52564,"longitude":0.25458},{"id":46213,"name":"Saint-Léger-du-Bourg-Denis","latitude":49.43345,"longitude":1.15803},{"id":46222,"name":"Saint-Léonard","latitude":49.74252,"longitude":0.35907},{"id":46225,"name":"Saint-Lô","latitude":49.11624,"longitude":-1.09031},{"id":46237,"name":"Saint-Manvieu","latitude":49.18067,"longitude":-0.50211},{"id":46238,"name":"Saint-Manvieu-Norrey","latitude":49.18139,"longitude":-0.5},{"id":46241,"name":"Saint-Marcel","latitude":49.1,"longitude":1.45},{"id":46269,"name":"Saint-Martin-de-Boscherville","latitude":49.44377,"longitude":0.96271},{"id":46271,"name":"Saint-Martin-de-Fontenay","latitude":49.11523,"longitude":-0.37391},{"id":46273,"name":"Saint-Martin-de-Landelles","latitude":48.5453,"longitude":-1.1724},{"id":46282,"name":"Saint-Martin-des-Besaces","latitude":49.01091,"longitude":-0.845},{"id":46283,"name":"Saint-Martin-des-Champs","latitude":48.66841,"longitude":-1.33393},{"id":46288,"name":"Saint-Martin-du-Manoir","latitude":49.53213,"longitude":0.23759},{"id":46293,"name":"Saint-Martin-du-Vivier","latitude":49.46667,"longitude":1.16667},{"id":46297,"name":"Saint-Martin-en-Campagne","latitude":49.95648,"longitude":1.22233},{"id":46265,"name":"Saint-Martin-Osmonville","latitude":49.63873,"longitude":1.29952},{"id":46369,"name":"Saint-Nicolas-d’Aliermont","latitude":49.87857,"longitude":1.22486},{"id":46367,"name":"Saint-Nicolas-de-la-Taille","latitude":49.51085,"longitude":0.47405},{"id":46379,"name":"Saint-Ouen-de-Thouberville","latitude":49.35726,"longitude":0.88848},{"id":46381,"name":"Saint-Ouen-du-Tilleul","latitude":49.29723,"longitude":0.9476},{"id":46420,"name":"Saint-Paër","latitude":49.51452,"longitude":0.87935},{"id":46387,"name":"Saint-Pair-sur-Mer","latitude":48.81455,"longitude":-1.56761},{"id":46434,"name":"Saint-Pierre-de-Varengeville","latitude":49.5024,"longitude":0.93118},{"id":46436,"name":"Saint-Pierre-des-Fleurs","latitude":49.25,"longitude":0.96667},{"id":46442,"name":"Saint-Pierre-du-Regard","latitude":48.84286,"longitude":-0.54631},{"id":46443,"name":"Saint-Pierre-du-Vauvray","latitude":49.23208,"longitude":1.22125},{"id":46453,"name":"Saint-Pierre-Église","latitude":49.66848,"longitude":-1.40358},{"id":46446,"name":"Saint-Pierre-en-Val","latitude":50.02168,"longitude":1.44707},{"id":46450,"name":"Saint-Pierre-lès-Elbeuf","latitude":49.27901,"longitude":1.04305},{"id":46452,"name":"Saint-Pierre-sur-Dives","latitude":49.01667,"longitude":-0.03333},{"id":46454,"name":"Saint-Planchers","latitude":48.82269,"longitude":-1.52598},{"id":46492,"name":"Saint-Quentin-sur-le-Homme","latitude":48.64751,"longitude":-1.31806},{"id":46509,"name":"Saint-Rémy","latitude":48.94007,"longitude":-0.50344},{"id":46500,"name":"Saint-Romain-de-Colbosc","latitude":49.53093,"longitude":0.35719},{"id":46544,"name":"Saint-Saëns","latitude":49.67302,"longitude":1.28525},{"id":46538,"name":"Saint-Sauveur-le-Vicomte","latitude":49.38547,"longitude":-1.5331},{"id":46533,"name":"Saint-Sauveur-Lendelin","latitude":49.12988,"longitude":-1.41405},{"id":46577,"name":"Saint-Sébastien-de-Morsent","latitude":49.01096,"longitude":1.0873},{"id":46546,"name":"Saint-Senier-sous-Avranches","latitude":48.68399,"longitude":-1.33126},{"id":46552,"name":"Saint-Sever-Calvados","latitude":48.84035,"longitude":-1.04773},{"id":46570,"name":"Saint-Sulpice-sur-Risle","latitude":48.78063,"longitude":0.65739},{"id":46571,"name":"Saint-Sylvain","latitude":49.05624,"longitude":-0.21758},{"id":46595,"name":"Saint-Vaast-la-Hougue","latitude":49.58843,"longitude":-1.26931},{"id":46596,"name":"Saint-Valery-en-Caux","latitude":49.86667,"longitude":0.73333},{"id":46612,"name":"Saint-Vigor-le-Grand","latitude":49.28242,"longitude":-0.68579},{"id":46625,"name":"Saint-Wandrille-Rançon","latitude":49.52658,"longitude":0.76497},{"id":46660,"name":"Sainte-Adresse","latitude":49.5089,"longitude":0.08446},{"id":46688,"name":"Sainte-Gauburge-Sainte-Colombe","latitude":48.71722,"longitude":0.43126},{"id":46696,"name":"Sainte-Honorine-du-Fay","latitude":49.07775,"longitude":-0.49295},{"id":46706,"name":"Sainte-Marguerite-sur-Duclair","latitude":49.50852,"longitude":0.84362},{"id":46714,"name":"Sainte-Marie-des-Champs","latitude":49.6212,"longitude":0.77904},{"id":46720,"name":"Sainte-Mère-Église","latitude":49.41,"longitude":-1.31726},{"id":46789,"name":"Sannerville","latitude":49.18018,"longitude":-0.22434},{"id":46821,"name":"Sartilly","latitude":48.75239,"longitude":-1.45678},{"id":47133,"name":"Sées","latitude":48.60403,"longitude":0.17244},{"id":46924,"name":"Seine-Maritime","latitude":49.67278,"longitude":1.12519},{"id":46963,"name":"Serqueux","latitude":49.63202,"longitude":1.54005},{"id":46964,"name":"Serquigny","latitude":49.10943,"longitude":0.71016},{"id":47027,"name":"Soliers","latitude":49.1344,"longitude":-0.29613},{"id":47053,"name":"Sottevast","latitude":49.52374,"longitude":-1.59169},{"id":47054,"name":"Sotteville-lès-Rouen","latitude":49.40972,"longitude":1.09005},{"id":47083,"name":"Sourdeval","latitude":48.72312,"longitude":-0.92223},{"id":47122,"name":"Surtainville","latitude":49.45977,"longitude":-1.81298},{"id":47169,"name":"Tancarville","latitude":49.4855,"longitude":0.45765},{"id":47213,"name":"Tessé-la-Madeleine","latitude":48.54963,"longitude":-0.42521},{"id":47212,"name":"Tessy-sur-Vire","latitude":48.97381,"longitude":-1.06087},{"id":47218,"name":"Thaon","latitude":49.25796,"longitude":-0.45605},{"id":47227,"name":"Thiberville","latitude":49.13768,"longitude":0.45502},{"id":47263,"name":"Thury-Harcourt","latitude":48.98434,"longitude":-0.47519},{"id":47283,"name":"Tillières-sur-Avre","latitude":48.75585,"longitude":1.05388},{"id":47285,"name":"Tilly-sur-Seulles","latitude":49.17598,"longitude":-0.62605},{"id":47288,"name":"Tinchebray","latitude":48.76437,"longitude":-0.73333},{"id":47292,"name":"Tollevast","latitude":49.57437,"longitude":-1.62746},{"id":47303,"name":"Torigni-sur-Vire","latitude":49.03702,"longitude":-0.98214},{"id":47418,"name":"Tôtes","latitude":49.68091,"longitude":1.04649},{"id":47317,"name":"Touques","latitude":49.34443,"longitude":0.10218},{"id":47321,"name":"Tourlaville","latitude":49.63829,"longitude":-1.56639},{"id":47330,"name":"Tourouvre","latitude":48.58951,"longitude":0.65253},{"id":47336,"name":"Tourville-la-Rivière","latitude":49.32782,"longitude":1.10551},{"id":47337,"name":"Tourville-sur-Arques","latitude":49.85926,"longitude":1.10238},{"id":47338,"name":"Tourville-sur-Odon","latitude":49.14154,"longitude":-0.50128},{"id":47341,"name":"Toutainville","latitude":49.36474,"longitude":0.46538},{"id":47378,"name":"Troarn","latitude":49.17835,"longitude":-0.18169},{"id":47383,"name":"Trouville-sur-Mer","latitude":49.3657,"longitude":0.08041},{"id":47387,"name":"Trun","latitude":48.84268,"longitude":0.03268},{"id":47416,"name":"Turretot","latitude":49.60923,"longitude":0.23422},{"id":47435,"name":"Urville-Nacqueville","latitude":49.67444,"longitude":-1.73664},{"id":47464,"name":"Val-de-Reuil","latitude":49.27385,"longitude":1.21021},{"id":47483,"name":"Valframbert","latitude":48.46465,"longitude":0.10828},{"id":47490,"name":"Valliquerville","latitude":49.61385,"longitude":0.68703},{"id":47497,"name":"Valognes","latitude":49.50881,"longitude":-1.47047},{"id":47509,"name":"Varengeville-sur-Mer","latitude":49.90475,"longitude":0.99479},{"id":47526,"name":"Vassy","latitude":48.85381,"longitude":-0.67485},{"id":47532,"name":"Vaudry","latitude":48.8413,"longitude":-0.85309},{"id":47590,"name":"Ver-sur-Mer","latitude":49.32987,"longitude":-0.53118},{"id":47613,"name":"Verneuil-sur-Avre","latitude":48.73949,"longitude":0.92731},{"id":47619,"name":"Vernon","latitude":49.09292,"longitude":1.46332},{"id":47633,"name":"Verson","latitude":49.15432,"longitude":-0.45628},{"id":47730,"name":"Villedieu-les-Poêles","latitude":48.83333,"longitude":-1.21667},{"id":47796,"name":"Villers-Bocage","latitude":49.0796,"longitude":-0.65412},{"id":47810,"name":"Villers-Écalles","latitude":49.54136,"longitude":0.91942},{"id":47809,"name":"Villers-sur-Mer","latitude":49.32264,"longitude":0.00027},{"id":47840,"name":"Vimoutiers","latitude":48.92772,"longitude":0.19835},{"id":47857,"name":"Vire","latitude":48.83849,"longitude":-0.88929},{"id":48000,"name":"Yainville","latitude":49.45371,"longitude":0.8292},{"id":48024,"name":"Yébleron","latitude":49.63333,"longitude":0.53746},{"id":48005,"name":"Yerville","latitude":49.6672,"longitude":0.89594},{"id":48008,"name":"Ymare","latitude":49.3506,"longitude":1.17938},{"id":48010,"name":"Yport","latitude":49.73716,"longitude":0.31537},{"id":48016,"name":"Yvetot","latitude":49.61744,"longitude":0.75814}]