[{"id":76745,"name":"Abakaliki","latitude":6.32485,"longitude":8.11368},{"id":76754,"name":"Afikpo","latitude":5.89258,"longitude":7.93534},{"id":76852,"name":"Effium","latitude":6.63105,"longitude":8.05814},{"id":76867,"name":"Ezza-Ohu","latitude":6.44094,"longitude":8.08432},{"id":76954,"name":"Isieke","latitude":6.38186,"longitude":8.03736}]