[{"id":97615,"name":"Amurzet","latitude":47.69541,"longitude":131.09493},{"id":97742,"name":"Babstovo","latitude":48.11853,"longitude":132.47913},{"id":97932,"name":"Bira","latitude":49.00135,"longitude":132.46826},{"id":97933,"name":"Birakan","latitude":48.99302,"longitude":131.72026},{"id":97935,"name":"Birobidzhan","latitude":48.79284,"longitude":132.92386},{"id":97936,"name":"Birobidzhanskiy Rayon","latitude":48.5,"longitude":132.75},{"id":98760,"name":"Izvestkovyy","latitude":48.98043,"longitude":131.55274},{"id":98982,"name":"Khingansk","latitude":49.12821,"longitude":131.19322},{"id":99439,"name":"Kul’dur","latitude":49.20465,"longitude":131.6384},{"id":99574,"name":"Leninskiy Rayon","latitude":48.16667,"longitude":132.25},{"id":99578,"name":"Leninskoye","latitude":47.93501,"longitude":132.62025},{"id":99660,"name":"Londoko","latitude":49.01805,"longitude":131.99142},{"id":100385,"name":"Obluchenskiy Rayon","latitude":49.0,"longitude":132.0},{"id":100415,"name":"Oktyabr’skiy Rayon","latitude":48.16667,"longitude":131.41667},{"id":100813,"name":"Priamurskiy","latitude":48.52716,"longitude":134.90359},{"id":101411,"name":"Smidovich","latitude":48.59647,"longitude":133.80866},{"id":101412,"name":"Smidovichskiy Rayon","latitude":48.5,"longitude":134.0},{"id":102349,"name":"Volochayevka Vtoraya","latitude":48.56695,"longitude":134.58232}]