[{"id":97745,"name":"Babushkin","latitude":51.71222,"longitude":105.86472},{"id":97753,"name":"Bagdarin","latitude":54.43333,"longitude":113.6},{"id":97794,"name":"Barguzin","latitude":53.61875,"longitude":109.63904},{"id":97822,"name":"Bayangol","latitude":50.6977,"longitude":103.4656},{"id":97925,"name":"Bichura","latitude":50.58806,"longitude":107.60222},{"id":98011,"name":"Bol’shoy Kunaley","latitude":51.43203,"longitude":107.6089},{"id":98377,"name":"Dzhida","latitude":50.67722,"longitude":106.18056},{"id":98620,"name":"Gusinoozyorsk","latitude":51.28333,"longitude":106.5},{"id":98621,"name":"Gusinoye Ozero","latitude":51.11444,"longitude":106.26139},{"id":98652,"name":"Il’inka","latitude":52.11944,"longitude":107.27083},{"id":98659,"name":"Il’ka","latitude":51.72114,"longitude":108.52169},{"id":98718,"name":"Istok","latitude":52.09528,"longitude":106.2475},{"id":98741,"name":"Ivolginsk","latitude":51.74919,"longitude":107.28374},{"id":98742,"name":"Ivolginskiy Rayon","latitude":51.83333,"longitude":107.33333},{"id":98764,"name":"Kabansk","latitude":52.04861,"longitude":106.65278},{"id":99000,"name":"Kholtoson","latitude":50.2981,"longitude":103.3097},{"id":99003,"name":"Khonkholoy","latitude":51.13186,"longitude":108.22515},{"id":99005,"name":"Khorinsk","latitude":52.16631,"longitude":109.77626},{"id":99031,"name":"Kichera","latitude":55.93874,"longitude":110.10122},{"id":99089,"name":"Kizhinga","latitude":51.8476,"longitude":109.90795},{"id":99418,"name":"Kudara-Somon","latitude":50.15472,"longitude":107.40139},{"id":99478,"name":"Kurumkan","latitude":54.32093,"longitude":110.30651},{"id":99516,"name":"Kyakhta","latitude":50.35737,"longitude":106.45033},{"id":99519,"name":"Kyren","latitude":51.6828,"longitude":102.1408},{"id":99998,"name":"Mukhorshibir’","latitude":51.04986,"longitude":107.82997},{"id":99997,"name":"Mukhorshibirskiy Rayon","latitude":51.08333,"longitude":107.75},{"id":100024,"name":"Muyskiy Rayon","latitude":56.33333,"longitude":115.0},{"id":100069,"name":"Naushki","latitude":50.38278,"longitude":106.10556},{"id":100145,"name":"Nikol’sk","latitude":51.18867,"longitude":108.32187},{"id":100138,"name":"Nikolayevskiy","latitude":51.65526,"longitude":107.80068},{"id":100150,"name":"Nizhneangarsk","latitude":55.79326,"longitude":109.58029},{"id":100175,"name":"Nizhniy Sayantuy","latitude":51.73751,"longitude":107.51308},{"id":100200,"name":"Novaya Bryan’","latitude":51.71699,"longitude":108.27014},{"id":100251,"name":"Novokizhinginsk","latitude":51.6162,"longitude":109.60265},{"id":100351,"name":"Novyy Uoyan","latitude":56.15722,"longitude":111.70556},{"id":100355,"name":"Novyy Zagan","latitude":51.02858,"longitude":107.76376},{"id":100404,"name":"Okino-Klyuchi","latitude":50.59389,"longitude":107.10944},{"id":100405,"name":"Okinskiy Rayon","latitude":52.5,"longitude":100.5},{"id":100451,"name":"Onokhoy","latitude":51.92859,"longitude":108.06693},{"id":100469,"name":"Orlik","latitude":52.5178,"longitude":99.825},{"id":100651,"name":"Petropavlovka","latitude":50.6114,"longitude":105.3196},{"id":100816,"name":"Pribaykal’skiy Rayon","latitude":52.5,"longitude":108.0},{"id":100957,"name":"Rechka-Vydrino","latitude":51.4892,"longitude":104.8429},{"id":101072,"name":"Sagan-Nur","latitude":51.3436,"longitude":108.4449},{"id":101151,"name":"Selenduma","latitude":50.91306,"longitude":106.24056},{"id":101152,"name":"Selenginskiy Rayon","latitude":51.16667,"longitude":106.33333},{"id":101211,"name":"Severo-Baykal’skiy Rayon","latitude":56.0,"longitude":111.5},{"id":101216,"name":"Severobaykal’sk","latitude":55.63695,"longitude":109.32297},{"id":101220,"name":"Severomuysk","latitude":56.14806,"longitude":113.42667},{"id":101257,"name":"Sharalday","latitude":51.02528,"longitude":107.64487},{"id":101434,"name":"Sokol","latitude":51.80036,"longitude":107.44437},{"id":101492,"name":"Sosnovo-Ozerskoye","latitude":52.52466,"longitude":111.54124},{"id":101500,"name":"Sotnikovo","latitude":51.88448,"longitude":107.4825},{"id":101745,"name":"Taksimo","latitude":56.34162,"longitude":114.90048},{"id":101766,"name":"Tankhoy","latitude":51.55683,"longitude":105.1262},{"id":101772,"name":"Tarbagatay","latitude":51.48195,"longitude":107.36158},{"id":101796,"name":"Tataurovo","latitude":52.14182,"longitude":107.44054},{"id":101978,"name":"Turka","latitude":52.9492,"longitude":108.2217},{"id":101983,"name":"Turuntayevo","latitude":52.20203,"longitude":107.64484},{"id":102044,"name":"Ulan-Ude","latitude":51.82721,"longitude":107.60627},{"id":102115,"name":"Ust’-Barguzin","latitude":53.41116,"longitude":109.03103},{"id":102428,"name":"Vydrino","latitude":51.463,"longitude":104.6425},{"id":102630,"name":"Zaigrayevo","latitude":51.83487,"longitude":108.267},{"id":102633,"name":"Zakamensk","latitude":50.3741,"longitude":103.2863},{"id":102655,"name":"Zarechnyy","latitude":51.84928,"longitude":107.521},{"id":102723,"name":"Zhemchug","latitude":51.6861,"longitude":102.459}]