[{"id":53425,"name":"Acatenango","latitude":14.55451,"longitude":-90.94368},{"id":53452,"name":"Chimaltenango","latitude":14.66111,"longitude":-90.81944},{"id":53465,"name":"Comalapa","latitude":14.74086,"longitude":-90.88761},{"id":53489,"name":"El Tejar","latitude":14.64683,"longitude":-90.79122},{"id":53621,"name":"Parramos","latitude":14.60891,"longitude":-90.80303},{"id":53625,"name":"Patzicía","latitude":14.63194,"longitude":-90.92659},{"id":53627,"name":"Patzún","latitude":14.68189,"longitude":-91.01397},{"id":53630,"name":"Pochuta","latitude":14.5445,"longitude":-91.08904},{"id":53650,"name":"San Andrés Itzapa","latitude":14.62222,"longitude":-90.84314},{"id":53689,"name":"San José Poaquil","latitude":14.81808,"longitude":-90.91248},{"id":53710,"name":"San Martín Jilotepeque","latitude":14.78008,"longitude":-90.79259},{"id":53745,"name":"Santa Apolonia","latitude":14.79049,"longitude":-90.97267},{"id":53754,"name":"Santa Cruz Balanyá","latitude":14.68522,"longitude":-90.91906},{"id":53790,"name":"Tecpán Guatemala","latitude":14.76181,"longitude":-90.99247},{"id":53800,"name":"Yepocapa","latitude":14.50195,"longitude":-90.95396},{"id":53804,"name":"Zaragoza","latitude":14.64968,"longitude":-90.89034}]