[{"id":98259,"name":"Demidov","latitude":55.27063,"longitude":31.51497},{"id":98269,"name":"Desnogorsk","latitude":54.15077,"longitude":33.28151},{"id":98319,"name":"Dorogobuzh","latitude":54.915,"longitude":33.29722},{"id":98351,"name":"Dukhovshchina","latitude":55.1919,"longitude":32.4111},{"id":98446,"name":"Gagarin","latitude":55.55291,"longitude":34.99537},{"id":98499,"name":"Glinka","latitude":54.64043,"longitude":32.87811},{"id":98511,"name":"Golynki","latitude":54.86964,"longitude":31.38609},{"id":98874,"name":"Kardymovo","latitude":54.89016,"longitude":32.43111},{"id":98910,"name":"Katyn'","latitude":54.77455,"longitude":31.69041},{"id":98983,"name":"Khislavichi","latitude":54.18714,"longitude":32.15817},{"id":98993,"name":"Kholm-Zhirkovskiy","latitude":55.51889,"longitude":33.47306},{"id":99956,"name":"Monastyrshchina","latitude":54.34961,"longitude":31.83795},{"id":100239,"name":"Novodugino","latitude":55.63052,"longitude":34.28423},{"id":100494,"name":"Oster","latitude":54.017,"longitude":32.8019},{"id":100523,"name":"Ozërnyy","latitude":55.5802,"longitude":32.4127},{"id":100586,"name":"Pechersk","latitude":54.85355,"longitude":32.03154},{"id":100710,"name":"Pochinok","latitude":54.40685,"longitude":32.44067},{"id":101001,"name":"Roslavl’","latitude":53.95278,"longitude":32.86389},{"id":101025,"name":"Rudnya","latitude":54.94698,"longitude":31.0934},{"id":101070,"name":"Safonovo","latitude":55.11087,"longitude":33.23292},{"id":101071,"name":"Safonovskiy Rayon","latitude":55.16667,"longitude":33.16667},{"id":101267,"name":"Shatalovo","latitude":54.334,"longitude":32.4465},{"id":101352,"name":"Shumyachi","latitude":53.85833,"longitude":32.42417},{"id":101415,"name":"Smolensk","latitude":54.7818,"longitude":32.0401},{"id":101620,"name":"Stodolishche","latitude":54.18594,"longitude":32.64925},{"id":101721,"name":"Sychëvka","latitude":55.82515,"longitude":34.27361},{"id":101747,"name":"Talashkino","latitude":54.65471,"longitude":32.18325},{"id":102008,"name":"Tëmkino","latitude":55.10917,"longitude":35.01389},{"id":102040,"name":"Ugra","latitude":54.77775,"longitude":34.32674},{"id":102220,"name":"Velizh","latitude":55.60564,"longitude":31.19673},{"id":102238,"name":"Verkhnedneprovskiy","latitude":54.98131,"longitude":33.34573},{"id":102424,"name":"Vyaz’ma","latitude":55.21039,"longitude":34.29508},{"id":102505,"name":"Yartsevo","latitude":55.06667,"longitude":32.69639},{"id":102531,"name":"Yekimovichi","latitude":54.11285,"longitude":33.29648},{"id":102551,"name":"Yel’nya","latitude":54.57864,"longitude":33.18373},{"id":102571,"name":"Yershichi","latitude":53.6725,"longitude":32.75417}]