[{"id":19438,"name":"Dawukou","latitude":39.04194,"longitude":106.39583},{"id":19476,"name":"Dongta","latitude":38.0814,"longitude":106.34444},{"id":20106,"name":"Shitanjing","latitude":39.23417,"longitude":106.34389},{"id":20111,"name":"Shizuishan","latitude":39.23333,"longitude":106.76944},{"id":20246,"name":"Wuzhong","latitude":37.9867,"longitude":106.201},{"id":20374,"name":"Yinchuan","latitude":38.46806,"longitude":106.27306},{"id":20454,"name":"Zhongwei","latitude":37.51129,"longitude":105.19067}]