[{"id":17363,"name":"Adligenswil","latitude":47.06521,"longitude":8.36124},{"id":17391,"name":"Altishofen","latitude":47.19916,"longitude":7.96964},{"id":17437,"name":"Ballwil","latitude":47.15371,"longitude":8.32233},{"id":17466,"name":"Beromünster","latitude":47.20612,"longitude":8.19265},{"id":17578,"name":"Buchrain","latitude":47.09625,"longitude":8.34729},{"id":17604,"name":"Büron","latitude":47.21192,"longitude":8.0942},{"id":17587,"name":"Buttisholz","latitude":47.11442,"longitude":8.09425},{"id":17674,"name":"Dagmersellen","latitude":47.21405,"longitude":7.98519},{"id":17718,"name":"Ebikon","latitude":47.07937,"longitude":8.34041},{"id":17735,"name":"Eich","latitude":47.15116,"longitude":8.16695},{"id":17746,"name":"Emmen","latitude":47.07819,"longitude":8.27331},{"id":17753,"name":"Entlebuch","latitude":46.99559,"longitude":8.06354},{"id":17754,"name":"Entlebuch District","latitude":46.9259,"longitude":8.01427},{"id":17772,"name":"Escholzmatt","latitude":46.9135,"longitude":7.93426},{"id":17776,"name":"Ettiswil","latitude":47.15031,"longitude":8.01759},{"id":17797,"name":"Flühli","latitude":46.88391,"longitude":8.01558},{"id":17831,"name":"Geuensee","latitude":47.1997,"longitude":8.10689},{"id":17875,"name":"Grosswangen","latitude":47.1331,"longitude":8.05041},{"id":17887,"name":"Gunzwil","latitude":47.21072,"longitude":8.17932},{"id":17893,"name":"Hasle","latitude":46.97787,"longitude":8.05326},{"id":17912,"name":"Hildisrieden","latitude":47.15068,"longitude":8.22582},{"id":17920,"name":"Hitzkirch","latitude":47.22403,"longitude":8.26425},{"id":17921,"name":"Hochdorf","latitude":47.16841,"longitude":8.29179},{"id":17922,"name":"Hochdorf District","latitude":47.17062,"longitude":8.28702},{"id":17926,"name":"Hohenrain","latitude":47.18083,"longitude":8.31802},{"id":17935,"name":"Horw","latitude":47.01692,"longitude":8.30956},{"id":17955,"name":"Inwil","latitude":47.1253,"longitude":8.34885},{"id":17998,"name":"Knutwil","latitude":47.19953,"longitude":8.07315},{"id":18008,"name":"Kriens","latitude":47.0311,"longitude":8.28547},{"id":18087,"name":"Littau","latitude":47.05,"longitude":8.26274},{"id":18095,"name":"Lucerne-Land District","latitude":47.04046,"longitude":8.29271},{"id":18096,"name":"Lucerne-Stadt District","latitude":47.05334,"longitude":8.31063},{"id":18103,"name":"Luthern","latitude":47.05753,"longitude":7.91692},{"id":18106,"name":"Luzern","latitude":47.05048,"longitude":8.30635},{"id":18119,"name":"Malters","latitude":47.03628,"longitude":8.18193},{"id":18136,"name":"Mauensee","latitude":47.16703,"longitude":8.06793},{"id":18138,"name":"Meggen","latitude":47.04691,"longitude":8.37467},{"id":18139,"name":"Meierskappel","latitude":47.1247,"longitude":8.44274},{"id":18153,"name":"Menznau","latitude":47.08364,"longitude":8.03971},{"id":18208,"name":"Nebikon","latitude":47.19185,"longitude":7.97769},{"id":18214,"name":"Neudorf","latitude":47.17699,"longitude":8.20911},{"id":18216,"name":"Neuenkirch","latitude":47.09989,"longitude":8.20416},{"id":18230,"name":"Nottwil","latitude":47.13469,"longitude":8.13774},{"id":18256,"name":"Oberkirch","latitude":47.15642,"longitude":8.11567},{"id":18306,"name":"Pfaffnau","latitude":47.22772,"longitude":7.89719},{"id":18361,"name":"Reiden","latitude":47.24719,"longitude":7.97135},{"id":18402,"name":"Römerswil","latitude":47.16881,"longitude":8.24528},{"id":18390,"name":"Root","latitude":47.11458,"longitude":8.39021},{"id":18401,"name":"Ruswil","latitude":47.08425,"longitude":8.12645},{"id":18459,"name":"Schenkon","latitude":47.17765,"longitude":8.13204},{"id":18486,"name":"Schötz","latitude":47.16896,"longitude":7.9887},{"id":18489,"name":"Schüpfheim","latitude":46.95161,"longitude":8.01723},{"id":18476,"name":"Schwarzenberg","latitude":47.01705,"longitude":8.17261},{"id":18508,"name":"Sempach","latitude":47.13577,"longitude":8.19149},{"id":18567,"name":"Sursee","latitude":47.17088,"longitude":8.11113},{"id":18568,"name":"Sursee District","latitude":47.15591,"longitude":8.13704},{"id":18602,"name":"Triengen","latitude":47.23573,"longitude":8.07652},{"id":18622,"name":"Udligenswil","latitude":47.09005,"longitude":8.40335},{"id":18690,"name":"Vitznau","latitude":47.01014,"longitude":8.4842},{"id":18726,"name":"Wauwil","latitude":47.18457,"longitude":8.021},{"id":18729,"name":"Weggis","latitude":47.03208,"longitude":8.43219},{"id":18735,"name":"Werthenstein","latitude":47.05578,"longitude":8.10182},{"id":18748,"name":"Wikon","latitude":47.26339,"longitude":7.96801},{"id":18754,"name":"Willisau","latitude":47.12183,"longitude":7.99418},{"id":18755,"name":"Willisau District","latitude":47.14097,"longitude":7.95933},{"id":18766,"name":"Wolhusen","latitude":47.05983,"longitude":8.07389},{"id":18792,"name":"Zell","latitude":47.13673,"longitude":7.92495}]