[{"id":38746,"name":"Enonkoski","latitude":62.08333,"longitude":28.93333},{"id":38766,"name":"Haukivuori","latitude":62.01753,"longitude":27.21906},{"id":38769,"name":"Heinävesi","latitude":62.43333,"longitude":28.6},{"id":38773,"name":"Hirvensalmi","latitude":61.63333,"longitude":26.8},{"id":38811,"name":"Jäppilä","latitude":62.37899,"longitude":27.43372},{"id":38800,"name":"Joroinen","latitude":62.17823,"longitude":27.83165},{"id":38806,"name":"Juva","latitude":61.9,"longitude":27.85},{"id":38821,"name":"Kangasniemi","latitude":61.99357,"longitude":26.64785},{"id":38846,"name":"Kerimäki","latitude":61.91069,"longitude":29.28228},{"id":38947,"name":"Mäntyharju","latitude":61.41667,"longitude":26.88333},{"id":38937,"name":"Mikkeli","latitude":61.68857,"longitude":27.27227},{"id":38981,"name":"Pertunmaa","latitude":61.5,"longitude":26.48333},{"id":38983,"name":"Pieksämäki","latitude":62.3,"longitude":27.13333},{"id":38998,"name":"Punkaharju","latitude":61.75883,"longitude":29.38843},{"id":39000,"name":"Puumala","latitude":61.52728,"longitude":28.17495},{"id":39013,"name":"Rantasalmi","latitude":62.06667,"longitude":28.3},{"id":39024,"name":"Ristiina","latitude":61.50579,"longitude":27.24643},{"id":39041,"name":"Savonlinna","latitude":61.8699,"longitude":28.87999},{"id":39042,"name":"Savonranta","latitude":62.18333,"longitude":29.2},{"id":39057,"name":"Sulkava","latitude":61.78691,"longitude":28.37299},{"id":39113,"name":"Virtasalmi","latitude":62.12695,"longitude":27.46276}]