[{"id":56181,"name":"Amuntai","latitude":-2.41773,"longitude":115.24941},{"id":56203,"name":"Banjarmasin","latitude":-3.31987,"longitude":114.59075},{"id":56207,"name":"Barabai","latitude":-2.58333,"longitude":115.38333},{"id":56323,"name":"Kabupaten Balangan","latitude":-2.32314,"longitude":115.62922},{"id":56335,"name":"Kabupaten Banjar","latitude":-3.31667,"longitude":115.08333},{"id":56341,"name":"Kabupaten Barito Kuala","latitude":-3.08333,"longitude":114.61667},{"id":56420,"name":"Kabupaten Hulu Sungai Selatan","latitude":-2.75,"longitude":115.2},{"id":56421,"name":"Kabupaten Hulu Sungai Tengah","latitude":-2.61667,"longitude":115.41667},{"id":56422,"name":"Kabupaten Hulu Sungai Utara","latitude":-2.45,"longitude":115.13333},{"id":56468,"name":"Kabupaten Kota Baru","latitude":-3.0,"longitude":116.0},{"id":56657,"name":"Kabupaten Tabalong","latitude":-1.88333,"longitude":115.5},{"id":56663,"name":"Kabupaten Tanah Bumbu","latitude":-3.45413,"longitude":115.70372},{"id":56665,"name":"Kabupaten Tanah Laut","latitude":-3.88333,"longitude":114.86667},{"id":56673,"name":"Kabupaten Tapin","latitude":-2.91667,"longitude":115.03333},{"id":56733,"name":"Kota Banjar Baru","latitude":-3.41667,"longitude":114.83333},{"id":56734,"name":"Kota Banjarmasin","latitude":-3.32444,"longitude":114.59102},{"id":56864,"name":"Martapura","latitude":-3.4109,"longitude":114.8642}]