[{"id":57434,"name":"Abū Ghaush","latitude":31.80592,"longitude":35.1093},{"id":57447,"name":"Bet Shemesh","latitude":31.73072,"longitude":34.99293},{"id":57475,"name":"Har Adar","latitude":31.82754,"longitude":35.13093},{"id":57484,"name":"Jerusalem","latitude":31.76904,"longitude":35.21633},{"id":57509,"name":"Mevasseret Ẕiyyon","latitude":31.80186,"longitude":35.15072},{"id":57514,"name":"Modiin Ilit","latitude":31.93221,"longitude":35.04416},{"id":57571,"name":"West Jerusalem","latitude":31.78199,"longitude":35.21961},{"id":57579,"name":"Ẕur Hadassa","latitude":31.71912,"longitude":35.09708}]