[{"id":97919,"name":"Bezhanitsy","latitude":56.97669,"longitude":29.89065},{"id":98256,"name":"Dedovichi","latitude":57.55166,"longitude":29.95018},{"id":98290,"name":"Dno","latitude":57.82772,"longitude":29.96368},{"id":98470,"name":"Gdov","latitude":58.74424,"longitude":27.81977},{"id":98471,"name":"Gdovskiy Rayon","latitude":58.75,"longitude":28.0},{"id":98630,"name":"Idritsa","latitude":56.33157,"longitude":28.89884},{"id":98745,"name":"Izborsk","latitude":57.70757,"longitude":27.86291},{"id":99302,"name":"Krasnogorodsk","latitude":56.83568,"longitude":28.28224},{"id":99368,"name":"Krasnyy Luch","latitude":57.06676,"longitude":30.09032},{"id":99448,"name":"Kun’inskiy Rayon","latitude":56.25,"longitude":31.0},{"id":99651,"name":"Loknya","latitude":56.82998,"longitude":30.14665},{"id":100115,"name":"Nevel’","latitude":56.02094,"longitude":29.92844},{"id":100291,"name":"Novorzhev","latitude":57.02942,"longitude":29.33378},{"id":100292,"name":"Novorzhevskiy Rayon","latitude":57.08333,"longitude":29.41667},{"id":100309,"name":"Novosokol’nicheskiy Rayon","latitude":56.41667,"longitude":30.0},{"id":100310,"name":"Novosokol’niki","latitude":56.34634,"longitude":30.15778},{"id":100343,"name":"Novyy Izborsk","latitude":57.77079,"longitude":27.97306},{"id":100455,"name":"Opochka","latitude":56.71357,"longitude":28.66388},{"id":100496,"name":"Ostrov","latitude":57.34395,"longitude":28.35368},{"id":100498,"name":"Ostrovskiy Rayon","latitude":57.25,"longitude":28.33333},{"id":100531,"name":"Palkino","latitude":57.54089,"longitude":28.01257},{"id":100532,"name":"Palkinskiy Rayon","latitude":57.5,"longitude":28.0},{"id":100588,"name":"Pechorskiy Rayon","latitude":57.75,"longitude":27.75},{"id":100589,"name":"Pechory","latitude":57.81642,"longitude":27.6119},{"id":100704,"name":"Plyussa","latitude":58.43078,"longitude":29.36537},{"id":100777,"name":"Porkhov","latitude":57.76502,"longitude":29.55612},{"id":100778,"name":"Porkhovskiy Rayon","latitude":57.75,"longitude":29.5},{"id":100881,"name":"Pskov","latitude":57.8136,"longitude":28.3496},{"id":100882,"name":"Pskovskiy Rayon","latitude":57.75,"longitude":28.25},{"id":100899,"name":"Pushkino-Gorskiy Rayon","latitude":57.0,"longitude":28.75},{"id":100901,"name":"Pushkinskiye Gory","latitude":57.02085,"longitude":28.9103},{"id":100902,"name":"Pustoshka","latitude":56.33547,"longitude":29.36901},{"id":100903,"name":"Pustoshkinskiy Rayon","latitude":56.41667,"longitude":29.41667},{"id":100918,"name":"Pytalovo","latitude":57.06791,"longitude":27.91384},{"id":100919,"name":"Pytalovskiy Rayon","latitude":57.0,"longitude":28.0},{"id":101143,"name":"Sebezh","latitude":56.28511,"longitude":28.48187},{"id":101144,"name":"Sebezhskiy Rayon","latitude":56.25,"longitude":28.5},{"id":101197,"name":"Serëdka","latitude":58.15838,"longitude":28.18576},{"id":101633,"name":"Strugi-Krasnyye","latitude":58.26754,"longitude":29.11137},{"id":101634,"name":"Strugo-Krasnenskiy Rayon","latitude":58.33333,"longitude":29.0},{"id":102147,"name":"Usvyaty","latitude":55.74556,"longitude":30.75333},{"id":102213,"name":"Velikiye Luki","latitude":56.34,"longitude":30.54517},{"id":102215,"name":"Velikolukskiy Rayon","latitude":56.5,"longitude":30.58333},{"id":102425,"name":"Vybor","latitude":57.22716,"longitude":29.1663}]