[{"id":53434,"name":"Barberena","latitude":14.30739,"longitude":-90.36156},{"id":53442,"name":"Casillas","latitude":14.42222,"longitude":-90.24417},{"id":53456,"name":"Chiquimulilla","latitude":14.0838,"longitude":-90.38547},{"id":53475,"name":"Cuilapa","latitude":14.27639,"longitude":-90.29889},{"id":53501,"name":"Guazacapán","latitude":14.07417,"longitude":-90.41667},{"id":53547,"name":"Municipio de Casillas","latitude":14.37854,"longitude":-90.1726},{"id":53553,"name":"Municipio de Chiquimulilla","latitude":14.09716,"longitude":-90.37903},{"id":53562,"name":"Municipio de Guazacapán","latitude":14.01786,"longitude":-90.434},{"id":53606,"name":"Nueva Santa Rosa","latitude":14.38111,"longitude":-90.27611},{"id":53612,"name":"Oratorio","latitude":14.22806,"longitude":-90.17583},{"id":53633,"name":"Pueblo Nuevo Viñas","latitude":14.22576,"longitude":-90.47613},{"id":53699,"name":"San Juan Tecuaco","latitude":14.08361,"longitude":-90.26649},{"id":53733,"name":"San Rafael Las Flores","latitude":14.48139,"longitude":-90.17333},{"id":53757,"name":"Santa Cruz Naranjo","latitude":14.38806,"longitude":-90.36972},{"id":53766,"name":"Santa María Ixhuatán","latitude":14.19,"longitude":-90.27472},{"id":53769,"name":"Santa Rosa de Lima","latitude":14.38806,"longitude":-90.29556},{"id":53789,"name":"Taxisco","latitude":14.06719,"longitude":-90.46791}]