[{"id":52217,"name":"Abuko","latitude":13.40417,"longitude":-16.65583},{"id":52227,"name":"Brikama","latitude":13.27136,"longitude":-16.64944},{"id":52241,"name":"Foni Bondali","latitude":13.21667,"longitude":-15.93333},{"id":52242,"name":"Foni Brefet","latitude":13.21667,"longitude":-16.33333},{"id":52243,"name":"Foni Jarrol","latitude":13.23333,"longitude":-15.83333},{"id":52244,"name":"Foni Kansala","latitude":13.21667,"longitude":-16.05},{"id":52249,"name":"Gunjur","latitude":13.20194,"longitude":-16.73389},{"id":52274,"name":"Kombo Central District","latitude":13.25,"longitude":-16.66667},{"id":52275,"name":"Kombo East District","latitude":13.21667,"longitude":-16.51667},{"id":52276,"name":"Kombo North District","latitude":13.36667,"longitude":-16.66667},{"id":52278,"name":"Kombo South District","latitude":13.25,"longitude":-16.75},{"id":52307,"name":"Somita","latitude":13.20583,"longitude":-16.30556},{"id":52310,"name":"Sukuta","latitude":13.41033,"longitude":-16.70815}]