[{"id":10056,"name":"Abaetetuba","latitude":-1.71806,"longitude":-48.8825},{"id":10063,"name":"Abel Figueiredo","latitude":-4.94378,"longitude":-48.42275},{"id":10073,"name":"Acará","latitude":-1.96083,"longitude":-48.19667},{"id":10090,"name":"Afuá","latitude":-0.15667,"longitude":-50.38667},{"id":15648,"name":"Água Azul do Norte","latitude":-6.63125,"longitude":-50.62146},{"id":10127,"name":"Alenquer","latitude":-0.85422,"longitude":-54.94506},{"id":10141,"name":"Almeirim","latitude":0.47621,"longitude":-53.87297},{"id":10153,"name":"Altamira","latitude":-3.20333,"longitude":-52.20639},{"id":10231,"name":"Anajás","latitude":-0.86015,"longitude":-50.0397},{"id":10234,"name":"Ananindeua","latitude":-1.34611,"longitude":-48.38287},{"id":10236,"name":"Anapu","latitude":-3.88583,"longitude":-51.33796},{"id":10443,"name":"Augusto Corrêa","latitude":-1.02167,"longitude":-46.635},{"id":10452,"name":"Aurora do Pará","latitude":-2.30323,"longitude":-47.75621},{"id":10458,"name":"Aveiro","latitude":-3.66721,"longitude":-56.01637},{"id":10473,"name":"Bagre","latitude":-2.40166,"longitude":-50.16628},{"id":10480,"name":"Baião","latitude":-2.79056,"longitude":-49.67167},{"id":10503,"name":"Bannach","latitude":-7.46864,"longitude":-50.65904},{"id":10511,"name":"Barcarena","latitude":-1.54656,"longitude":-48.63248},{"id":10615,"name":"Belém","latitude":-1.45583,"longitude":-48.50444},{"id":10612,"name":"Belterra","latitude":-3.01258,"longitude":-54.99128},{"id":10625,"name":"Benevides","latitude":-1.36139,"longitude":-48.24472},{"id":10716,"name":"Bom Jesus do Tocantins","latitude":-4.99184,"longitude":-48.8237},{"id":10738,"name":"Bonito","latitude":-1.42927,"longitude":-47.33735},{"id":10765,"name":"Bragança","latitude":-0.96813,"longitude":-46.73377},{"id":10768,"name":"Brasil Novo","latitude":-3.33767,"longitude":-52.57451},{"id":10791,"name":"Brejo Grande do Araguaia","latitude":-5.74369,"longitude":-48.45573},{"id":10801,"name":"Breu Branco","latitude":-3.73348,"longitude":-49.37122},{"id":10802,"name":"Breves","latitude":-1.68222,"longitude":-50.48028},{"id":10820,"name":"Bujaru","latitude":-1.515,"longitude":-48.04472},{"id":10871,"name":"Cachoeira do Arari","latitude":-0.84609,"longitude":-48.93118},{"id":10872,"name":"Cachoeira do Piriá","latitude":-1.94037,"longitude":-46.46914},{"id":10952,"name":"Cametá","latitude":-2.29582,"longitude":-49.49213},{"id":11031,"name":"Canaã dos Carajás","latitude":-6.49873,"longitude":-50.09334},{"id":11062,"name":"Capanema","latitude":-1.19583,"longitude":-47.18083},{"id":11085,"name":"Capitão Poço","latitude":-1.74639,"longitude":-47.05944},{"id":11184,"name":"Castanhal","latitude":-1.27231,"longitude":-47.85627},{"id":11275,"name":"Chaves","latitude":-0.06289,"longitude":-49.64787},{"id":11319,"name":"Colares","latitude":-0.90894,"longitude":-48.2534},{"id":11354,"name":"Conceição do Araguaia","latitude":-8.26441,"longitude":-49.26982},{"id":11368,"name":"Concórdia do Pará","latitude":-1.86154,"longitude":-47.96322},{"id":11514,"name":"Cumaru do Norte","latitude":-8.39144,"longitude":-51.24084},{"id":11523,"name":"Curionópolis","latitude":-6.18137,"longitude":-49.66441},{"id":11533,"name":"Curralinho","latitude":-1.58236,"longitude":-49.98697},{"id":11536,"name":"Curuá","latitude":-1.73821,"longitude":-55.11492},{"id":11537,"name":"Curuçá","latitude":-0.69787,"longitude":-47.86755},{"id":11626,"name":"Dom Eliseu","latitude":-4.08267,"longitude":-47.89052},{"id":11679,"name":"Eldorado do Carajás","latitude":-6.10586,"longitude":-49.30329},{"id":11776,"name":"Faro","latitude":-1.11536,"longitude":-57.77412},{"id":11837,"name":"Floresta do Araguaia","latitude":-7.57944,"longitude":-49.52862},{"id":11923,"name":"Garrafão do Norte","latitude":-2.21516,"longitude":-47.11722},{"id":11965,"name":"Goianésia do Pará","latitude":-3.9492,"longitude":-48.87355},{"id":12089,"name":"Gurupá","latitude":-1.16555,"longitude":-51.62743},{"id":12182,"name":"Igarapé Açu","latitude":-1.12889,"longitude":-47.62},{"id":12184,"name":"Igarapé Miri","latitude":-1.975,"longitude":-48.95972},{"id":12186,"name":"Igarapé-Açu","latitude":-1.14164,"longitude":-47.51366},{"id":12187,"name":"Igarapé-Miri","latitude":-2.07705,"longitude":-49.14772},{"id":12248,"name":"Inhangapi","latitude":-1.46284,"longitude":-47.94974},{"id":12282,"name":"Ipixuna do Pará","latitude":-2.98149,"longitude":-48.11946},{"id":12320,"name":"Irituia","latitude":-1.77048,"longitude":-47.42145},{"id":12363,"name":"Itaituba","latitude":-5.86018,"longitude":-56.23176},{"id":12490,"name":"Itupiranga","latitude":-5.23295,"longitude":-49.94952},{"id":12519,"name":"Jacareacanga","latitude":-6.22222,"longitude":-57.75278},{"id":12530,"name":"Jacundá","latitude":-4.56883,"longitude":-49.22284},{"id":12702,"name":"Juruti","latitude":-2.33065,"longitude":-56.02742},{"id":12833,"name":"Limoeiro do Ajuru","latitude":-1.89647,"longitude":-49.51015},{"id":13293,"name":"Mãe do Rio","latitude":-1.98328,"longitude":-47.51572},{"id":12911,"name":"Magalhães Barata","latitude":-0.81838,"longitude":-47.6299},{"id":12964,"name":"Marabá","latitude":-5.38146,"longitude":-49.13232},{"id":12969,"name":"Maracanã","latitude":-0.75819,"longitude":-47.48755},{"id":12979,"name":"Marapanim","latitude":-0.84063,"longitude":-47.70897},{"id":13022,"name":"Marituba","latitude":-1.37399,"longitude":-48.3142},{"id":13093,"name":"Medicilândia","latitude":-3.15674,"longitude":-53.17769},{"id":13096,"name":"Melgaço","latitude":-1.66163,"longitude":-51.05884},{"id":13159,"name":"Mocajuba","latitude":-2.58417,"longitude":-49.50722},{"id":13170,"name":"Moju","latitude":-1.88389,"longitude":-48.76889},{"id":13171,"name":"Mojuí Dos Campos","latitude":-3.07044,"longitude":-54.57515},{"id":13187,"name":"Monte Alegre","latitude":-2.00082,"longitude":-54.08102},{"id":13259,"name":"Muaná","latitude":-1.52833,"longitude":-49.21667},{"id":13375,"name":"Nova Esperança do Piriá","latitude":-2.45364,"longitude":-46.97384},{"id":13393,"name":"Nova Ipixuna","latitude":-4.98779,"longitude":-49.19861},{"id":13439,"name":"Nova Timboteua","latitude":-1.12059,"longitude":-47.42089},{"id":13475,"name":"Novo Progresso","latitude":-7.75396,"longitude":-55.51343},{"id":13476,"name":"Novo Repartimento","latitude":-4.70032,"longitude":-50.5222},{"id":15683,"name":"Óbidos","latitude":0.1324,"longitude":-55.82386},{"id":13491,"name":"Oeiras do Pará","latitude":-2.00306,"longitude":-49.85444},{"id":13518,"name":"Oriximiná","latitude":-1.76556,"longitude":-55.86611},{"id":13552,"name":"Ourém","latitude":-1.55194,"longitude":-47.11444},{"id":13533,"name":"Ourilândia do Norte","latitude":-7.59565,"longitude":-51.43201},{"id":13556,"name":"Pacajá","latitude":-3.70172,"longitude":-50.77844},{"id":13578,"name":"Palestina do Pará","latitude":-5.97518,"longitude":-48.38544},{"id":13626,"name":"Paragominas","latitude":-2.96667,"longitude":-47.48333},{"id":13655,"name":"Parauapebas","latitude":-6.18558,"longitude":-50.55474},{"id":13717,"name":"Pau d'Arco","latitude":-7.73913,"longitude":-50.14638},{"id":13788,"name":"Peixe-Boi","latitude":-1.10168,"longitude":-47.27259},{"id":13929,"name":"Piçarra","latitude":-6.47338,"longitude":-48.95039},{"id":13932,"name":"Placas","latitude":-3.97715,"longitude":-54.52418},{"id":13959,"name":"Ponta de Pedras","latitude":-1.05304,"longitude":-49.15491},{"id":13990,"name":"Portel","latitude":-1.93556,"longitude":-50.82111},{"id":14025,"name":"Porto de Moz","latitude":-1.74833,"longitude":-52.23833},{"id":14066,"name":"Prainha","latitude":-2.20147,"longitude":-53.49329},{"id":14100,"name":"Primavera","latitude":-0.94947,"longitude":-47.1104},{"id":14130,"name":"Quatipuru","latitude":-0.82554,"longitude":-47.01043},{"id":14184,"name":"Redenção","latitude":-8.0601,"longitude":-50.18116},{"id":14281,"name":"Rio Maria","latitude":-7.40968,"longitude":-49.82886},{"id":14345,"name":"Rondon do Pará","latitude":-4.43977,"longitude":-48.59233},{"id":14362,"name":"Rurópolis","latitude":-4.18795,"longitude":-55.18406},{"id":14389,"name":"Salinópolis","latitude":-0.61361,"longitude":-47.35611},{"id":14407,"name":"Salvaterra","latitude":-0.78848,"longitude":-48.61953},{"id":14428,"name":"Santa Bárbara do Pará","latitude":-1.19832,"longitude":-48.25095},{"id":14451,"name":"Santa Cruz do Arari","latitude":-0.59603,"longitude":-49.29289},{"id":14485,"name":"Santa Izabel do Pará","latitude":-1.37975,"longitude":-48.12221},{"id":14497,"name":"Santa Luzia do Pará","latitude":-1.6575,"longitude":-46.92715},{"id":14508,"name":"Santa Maria das Barreiras","latitude":-8.63667,"longitude":-50.26578},{"id":14514,"name":"Santa Maria do Pará","latitude":-1.35028,"longitude":-47.57556},{"id":14578,"name":"Santana do Araguaia","latitude":-9.13867,"longitude":-50.673},{"id":14598,"name":"Santarém","latitude":-2.44306,"longitude":-54.70833},{"id":14599,"name":"Santarém Novo","latitude":-0.88782,"longitude":-47.36301},{"id":14641,"name":"Santo Antônio do Tauá","latitude":-1.15194,"longitude":-48.12944},{"id":14852,"name":"São Caetano de Odivelas","latitude":-0.75,"longitude":-48.02},{"id":14867,"name":"São Domingos do Araguaia","latitude":-5.7193,"longitude":-48.72755},{"id":14869,"name":"São Domingos do Capim","latitude":-1.87163,"longitude":-47.77837},{"id":14906,"name":"São Félix do Xingu","latitude":-6.64472,"longitude":-51.995},{"id":14896,"name":"São Francisco do Pará","latitude":-1.14641,"longitude":-47.75713},{"id":14914,"name":"São Geraldo do Araguaia","latitude":-6.40056,"longitude":-48.555},{"id":15013,"name":"São João da Ponta","latitude":-0.85361,"longitude":-47.97803},{"id":15022,"name":"São João de Pirabas","latitude":-0.77472,"longitude":-47.17722},{"id":15024,"name":"São João do Araguaia","latitude":-5.443,"longitude":-48.74932},{"id":15090,"name":"São Miguel do Guamá","latitude":-1.62667,"longitude":-47.48333},{"id":15139,"name":"São Sebastião da Boa Vista","latitude":-1.47873,"longitude":-49.62629},{"id":14661,"name":"Sapucaia","latitude":-6.8479,"longitude":-49.50056},{"id":14702,"name":"Senador José Porfírio","latitude":-2.59083,"longitude":-51.95417},{"id":14814,"name":"Soure","latitude":-0.71667,"longitude":-48.52333},{"id":15201,"name":"Tailândia","latitude":-2.87235,"longitude":-48.75748},{"id":15289,"name":"Terra Alta","latitude":-0.99306,"longitude":-47.84447},{"id":15297,"name":"Terra Santa","latitude":-2.10417,"longitude":-56.48694},{"id":15334,"name":"Tomé Açu","latitude":-2.41889,"longitude":-48.15222},{"id":15335,"name":"Tomé-Açu","latitude":-2.62132,"longitude":-48.24098},{"id":15345,"name":"Tracuateua","latitude":-0.98894,"longitude":-46.93973},{"id":15349,"name":"Trairão","latitude":-5.1025,"longitude":-55.95821},{"id":15387,"name":"Tucumã","latitude":-6.8347,"longitude":-51.44562},{"id":15389,"name":"Tucuruí","latitude":-3.76585,"longitude":-49.67923},{"id":15443,"name":"Ulianópolis","latitude":-3.81225,"longitude":-47.50094},{"id":15471,"name":"Uruará","latitude":-3.63212,"longitude":-53.78023},{"id":15564,"name":"Vigia","latitude":-0.85833,"longitude":-48.14167},{"id":15588,"name":"Viseu","latitude":-1.19667,"longitude":-46.14},{"id":15604,"name":"Vitória do Xingu","latitude":-3.22032,"longitude":-51.88508},{"id":15641,"name":"Xinguara","latitude":-6.84897,"longitude":-49.25573}]