[{"id":38572,"name":"Ábalos","latitude":42.57154,"longitude":-2.70956},{"id":31946,"name":"Agoncillo","latitude":42.44667,"longitude":-2.2898},{"id":31965,"name":"Aguilar del Río Alhama","latitude":41.96212,"longitude":-1.9934},{"id":31986,"name":"Ajamil","latitude":42.16705,"longitude":-2.48752},{"id":152892,"name":"Ajamil de Cameros","latitude":0.0,"longitude":0.0},{"id":32034,"name":"Albelda de Iregua","latitude":42.35837,"longitude":-2.47278},{"id":32038,"name":"Alberite","latitude":42.40704,"longitude":-2.43894},{"id":32082,"name":"Alcanadre","latitude":42.40492,"longitude":-2.12073},{"id":32158,"name":"Aldeanueva de Ebro","latitude":42.22911,"longitude":-1.88735},{"id":32186,"name":"Alesanco","latitude":42.41409,"longitude":-2.81666},{"id":32187,"name":"Alesón","latitude":42.40554,"longitude":-2.68938},{"id":32198,"name":"Alfaro","latitude":42.18032,"longitude":-1.75016},{"id":32272,"name":"Almarza de Cameros","latitude":42.2165,"longitude":-2.59873},{"id":32380,"name":"Anguciana","latitude":42.57421,"longitude":-2.90124},{"id":32381,"name":"Anguiano","latitude":42.26381,"longitude":-2.76463},{"id":32453,"name":"Arenzana de Abajo","latitude":42.38599,"longitude":-2.7194},{"id":32454,"name":"Arenzana de Arriba","latitude":42.38745,"longitude":-2.69494},{"id":32493,"name":"Arnedillo","latitude":42.21221,"longitude":-2.23602},{"id":32494,"name":"Arnedo","latitude":42.228,"longitude":-2.10083},{"id":32518,"name":"Arrúbal","latitude":42.43485,"longitude":-2.25143},{"id":32558,"name":"Ausejo","latitude":42.3421,"longitude":-2.1671},{"id":32562,"name":"Autol","latitude":42.21661,"longitude":-2.00525},{"id":32586,"name":"Azofra","latitude":42.424,"longitude":-2.80086},{"id":32603,"name":"Badarán","latitude":42.36794,"longitude":-2.81079},{"id":32701,"name":"Bañares","latitude":42.46838,"longitude":-2.9101},{"id":32706,"name":"Baños de Río Tobía","latitude":42.33533,"longitude":-2.76099},{"id":32705,"name":"Baños de Rioja","latitude":42.5123,"longitude":-2.94635},{"id":32837,"name":"Berceo","latitude":42.33906,"longitude":-2.85239},{"id":32848,"name":"Bergasa","latitude":42.25285,"longitude":-2.13221},{"id":32849,"name":"Bergasillas Bajera","latitude":42.24462,"longitude":-2.1583},{"id":152893,"name":"Bezares","latitude":0.0,"longitude":0.0},{"id":32919,"name":"Bobadilla","latitude":42.31873,"longitude":-2.75992},{"id":32983,"name":"Brieva de Cameros","latitude":42.16462,"longitude":-2.7945},{"id":32990,"name":"Briñas","latitude":42.60106,"longitude":-2.83192},{"id":32988,"name":"Briones","latitude":42.54397,"longitude":-2.78572},{"id":33091,"name":"Cabezón de Cameros","latitude":42.19716,"longitude":-2.51989},{"id":33126,"name":"Calahorra","latitude":42.30506,"longitude":-1.96521},{"id":152894,"name":"Camprovín","latitude":0.0,"longitude":0.0},{"id":33223,"name":"Canales de la Sierra","latitude":42.14233,"longitude":-3.02458},{"id":33534,"name":"Cañas","latitude":42.3924,"longitude":-2.84649},{"id":33244,"name":"Canillas de Río Tuerto","latitude":42.3995,"longitude":-2.84091},{"id":33896,"name":"Cárdenas","latitude":42.37464,"longitude":-2.76726},{"id":33345,"name":"Casalarreina","latitude":42.54911,"longitude":-2.90994},{"id":33398,"name":"Castañares de Rioja","latitude":42.51248,"longitude":-2.93148},{"id":152895,"name":"Castroviejo","latitude":0.0,"longitude":0.0},{"id":33565,"name":"Cellorigo","latitude":42.62703,"longitude":-3.00016},{"id":33569,"name":"Cenicero","latitude":42.4813,"longitude":-2.64412},{"id":33602,"name":"Cervera del Río Alhama","latitude":42.00517,"longitude":-1.95531},{"id":33656,"name":"Cidamón","latitude":42.49518,"longitude":-2.87834},{"id":33665,"name":"Cihuri","latitude":42.56499,"longitude":-2.92287},{"id":33688,"name":"Cirueña","latitude":42.41214,"longitude":-2.89593},{"id":33705,"name":"Clavijo","latitude":42.34897,"longitude":-2.42666},{"id":33783,"name":"Cordovín","latitude":42.38557,"longitude":-2.815},{"id":33786,"name":"Corera","latitude":42.34344,"longitude":-2.22023},{"id":33793,"name":"Cornago","latitude":42.06444,"longitude":-2.09486},{"id":33797,"name":"Corporales","latitude":42.43208,"longitude":-2.99535},{"id":152896,"name":"Cuzcurrita de Río Tirón","latitude":0.0,"longitude":0.0},{"id":152897,"name":"Daroca de Rioja","latitude":0.0,"longitude":0.0},{"id":34055,"name":"Enciso","latitude":42.14946,"longitude":-2.26953},{"id":34062,"name":"Entrena","latitude":42.38782,"longitude":-2.53066},{"id":34146,"name":"Estollo","latitude":42.32953,"longitude":-2.85092},{"id":34153,"name":"Ezcaray","latitude":42.32536,"longitude":-3.01309},{"id":34204,"name":"Foncea","latitude":42.61529,"longitude":-3.03897},{"id":34219,"name":"Fonzaleche","latitude":42.58114,"longitude":-3.01218},{"id":34286,"name":"Fuenmayor","latitude":42.46729,"longitude":-2.56153},{"id":34377,"name":"Galbárruli","latitude":42.62181,"longitude":-2.96087},{"id":34381,"name":"Galilea","latitude":42.34703,"longitude":-2.23605},{"id":34393,"name":"Gallinero de Cameros","latitude":42.17229,"longitude":-2.61793},{"id":34466,"name":"Gimileo","latitude":42.54992,"longitude":-2.82237},{"id":34509,"name":"Grañón","latitude":42.44992,"longitude":-3.02767},{"id":34518,"name":"Grávalos","latitude":42.10836,"longitude":-1.99874},{"id":34572,"name":"Haro","latitude":42.57634,"longitude":-2.8476},{"id":34580,"name":"Herce","latitude":42.21423,"longitude":-2.16488},{"id":34592,"name":"Herramélluri","latitude":42.50295,"longitude":-3.01954},{"id":34605,"name":"Hervías","latitude":42.44781,"longitude":-2.88714},{"id":34657,"name":"Hormilla","latitude":42.43828,"longitude":-2.77447},{"id":34658,"name":"Hormilleja","latitude":42.45628,"longitude":-2.73155},{"id":34661,"name":"Hornillos de Cameros","latitude":42.21001,"longitude":-2.4196},{"id":34664,"name":"Hornos de Moncalvillo","latitude":42.39198,"longitude":-2.5855},{"id":34713,"name":"Huércanos","latitude":42.428,"longitude":-2.69589},{"id":34735,"name":"Igea","latitude":42.06777,"longitude":-2.01094},{"id":34793,"name":"Jalón de Cameros","latitude":42.21804,"longitude":-2.49004},{"id":34946,"name":"Laguna de Cameros","latitude":42.17455,"longitude":-2.54282},{"id":34953,"name":"Lagunilla del Jubera","latitude":42.33414,"longitude":-2.32117},{"id":34975,"name":"Lardero","latitude":42.42686,"longitude":-2.46153},{"id":35017,"name":"Ledesma de la Cogolla","latitude":42.32032,"longitude":-2.719},{"id":35027,"name":"Leiva","latitude":42.50281,"longitude":-3.04701},{"id":35040,"name":"Leza de Río Leza","latitude":42.32952,"longitude":-2.40606},{"id":35101,"name":"Logroño","latitude":42.46667,"longitude":-2.45},{"id":35164,"name":"Lumbreras","latitude":42.10477,"longitude":-2.62189},{"id":35253,"name":"Manjarrés","latitude":42.39152,"longitude":-2.67512},{"id":152898,"name":"Mansilla de la Sierra","latitude":0.0,"longitude":0.0},{"id":35266,"name":"Manzanares de Rioja","latitude":42.3961,"longitude":-2.8959},{"id":35347,"name":"Matute","latitude":42.29888,"longitude":-2.79564},{"id":35378,"name":"Medrano","latitude":42.38361,"longitude":-2.55394},{"id":35666,"name":"Munilla","latitude":42.189,"longitude":-2.29506},{"id":35678,"name":"Murillo de Río Leza","latitude":42.40099,"longitude":-2.32464},{"id":35682,"name":"Muro de Aguas","latitude":42.13364,"longitude":-2.11175},{"id":35684,"name":"Muro en Cameros","latitude":42.22509,"longitude":-2.53038},{"id":35842,"name":"Nájera","latitude":42.41822,"longitude":-2.72865},{"id":35710,"name":"Nalda","latitude":42.33467,"longitude":-2.4871},{"id":35739,"name":"Navajún","latitude":41.96667,"longitude":-2.1},{"id":152899,"name":"Navarrete","latitude":0.0,"longitude":0.0},{"id":152900,"name":"Nestares","latitude":0.0,"longitude":0.0},{"id":35807,"name":"Nieva de Cameros","latitude":42.21835,"longitude":-2.667},{"id":35857,"name":"Ochánduri","latitude":42.52525,"longitude":-3.00415},{"id":35859,"name":"Ocón","latitude":42.29898,"longitude":-2.24019},{"id":35867,"name":"Ojacastro","latitude":42.3472,"longitude":-3.0049},{"id":35894,"name":"Ollauri","latitude":42.54256,"longitude":-2.83448},{"id":152901,"name":"Ortigosa de Cameros","latitude":0.0,"longitude":0.0},{"id":36087,"name":"Pazuengos","latitude":42.31776,"longitude":-2.92539},{"id":36112,"name":"Pedroso","latitude":42.29959,"longitude":-2.71889},{"id":36208,"name":"Pinillos","latitude":42.19951,"longitude":-2.59709},{"id":36341,"name":"Pradejón","latitude":42.33446,"longitude":-2.06851},{"id":36343,"name":"Pradillo","latitude":42.1766,"longitude":-2.64185},{"id":36407,"name":"Préjano","latitude":42.18648,"longitude":-2.17998},{"id":36375,"name":"Provincia de La Rioja","latitude":42.46311,"longitude":-2.42455},{"id":36492,"name":"Quel","latitude":42.22979,"longitude":-2.05196},{"id":36534,"name":"Rabanera","latitude":42.18955,"longitude":-2.48654},{"id":152902,"name":"Rasillo de Cameros El","latitude":0.0,"longitude":0.0},{"id":152903,"name":"Redal El","latitude":0.0,"longitude":0.0},{"id":152904,"name":"Ribafrecha","latitude":0.0,"longitude":0.0},{"id":36626,"name":"Rincón de Soto","latitude":42.23475,"longitude":-1.85214},{"id":36659,"name":"Robres del Castillo","latitude":42.27593,"longitude":-2.29245},{"id":36664,"name":"Rodezno","latitude":42.52576,"longitude":-2.84597},{"id":36743,"name":"Sajazarra","latitude":42.58884,"longitude":-2.96124},{"id":36805,"name":"San Asensio","latitude":42.49677,"longitude":-2.75057},{"id":36891,"name":"San Millán de la Cogolla","latitude":42.32974,"longitude":-2.86185},{"id":36890,"name":"San Millán de Yécora","latitude":42.54705,"longitude":-3.09681},{"id":36916,"name":"San Román de Cameros","latitude":42.23255,"longitude":-2.47436},{"id":36924,"name":"San Torcuato","latitude":42.48219,"longitude":-2.88923},{"id":36930,"name":"San Vicente de la Sonsierra","latitude":42.56321,"longitude":-2.76071},{"id":37014,"name":"Santa Coloma","latitude":42.36717,"longitude":-2.65598},{"id":152905,"name":"Santa Engracia del Jubera","latitude":0.0,"longitude":0.0},{"id":37055,"name":"Santa Eulalia Bajera","latitude":42.2096,"longitude":-2.19174},{"id":37141,"name":"Santo Domingo de la Calzada","latitude":42.44015,"longitude":-2.95365},{"id":152906,"name":"Santurde de Rioja","latitude":0.0,"longitude":0.0},{"id":37154,"name":"Santurdejo","latitude":42.37696,"longitude":-2.95437},{"id":37278,"name":"Sojuela","latitude":42.36988,"longitude":-2.54525},{"id":37306,"name":"Sorzano","latitude":42.34307,"longitude":-2.52872},{"id":152907,"name":"Sotés","latitude":0.0,"longitude":0.0},{"id":37319,"name":"Soto en Cameros","latitude":42.28591,"longitude":-2.42597},{"id":37414,"name":"Terroba","latitude":42.25809,"longitude":-2.44375},{"id":37429,"name":"Tirgo","latitude":42.54587,"longitude":-2.9494},{"id":37438,"name":"Tobía","latitude":42.29846,"longitude":-2.81399},{"id":37468,"name":"Tormantos","latitude":42.49431,"longitude":-3.07446},{"id":37504,"name":"Torre en Cameros","latitude":42.24133,"longitude":-2.51805},{"id":37524,"name":"Torrecilla en Cameros","latitude":42.25532,"longitude":-2.63109},{"id":37525,"name":"Torrecilla sobre Alesanco","latitude":42.40825,"longitude":-2.83379},{"id":37562,"name":"Torremontalbo","latitude":42.5,"longitude":-2.68333},{"id":37633,"name":"Treviana","latitude":42.55901,"longitude":-3.05032},{"id":37636,"name":"Tricio","latitude":42.40223,"longitude":-2.71912},{"id":37650,"name":"Tudelilla","latitude":42.30023,"longitude":-2.11749},{"id":37700,"name":"Uruñuela","latitude":42.4431,"longitude":-2.70749},{"id":37763,"name":"Valdemadera","latitude":41.98408,"longitude":-2.07403},{"id":37829,"name":"Valgañón","latitude":42.31782,"longitude":-3.06725},{"id":37942,"name":"Ventosa","latitude":42.40495,"longitude":-2.62651},{"id":37945,"name":"Ventrosa","latitude":42.15705,"longitude":-2.85044},{"id":37971,"name":"Viguera","latitude":42.30934,"longitude":-2.53334},{"id":38095,"name":"Villalba de Rioja","latitude":42.60967,"longitude":-2.88687},{"id":38115,"name":"Villalobar de Rioja","latitude":42.49123,"longitude":-2.96404},{"id":38149,"name":"Villamediana de Iregua","latitude":42.42658,"longitude":-2.41943},{"id":38176,"name":"Villanueva de Cameros","latitude":42.16719,"longitude":-2.6504},{"id":152908,"name":"Villar de Arnedo El","latitude":0.0,"longitude":0.0},{"id":38246,"name":"Villar de Torre","latitude":42.37133,"longitude":-2.86411},{"id":38270,"name":"Villarejo","latitude":42.37417,"longitude":-2.88712},{"id":38297,"name":"Villarroya","latitude":42.13053,"longitude":-2.06896},{"id":38309,"name":"Villarta-Quintana","latitude":42.42998,"longitude":-3.0484},{"id":38340,"name":"Villavelayo","latitude":42.13084,"longitude":-2.98565},{"id":38348,"name":"Villaverde de Rioja","latitude":42.32051,"longitude":-2.8137},{"id":38377,"name":"Villoslada de Cameros","latitude":42.11383,"longitude":-2.67413},{"id":38394,"name":"Viniegra de Abajo","latitude":42.15055,"longitude":-2.8893},{"id":38395,"name":"Viniegra de Arriba","latitude":42.09513,"longitude":-2.83304},{"id":38476,"name":"Zarratón","latitude":42.51649,"longitude":-2.88094},{"id":38483,"name":"Zarzosa","latitude":42.18294,"longitude":-2.34297},{"id":38499,"name":"Zorraquín","latitude":42.32565,"longitude":-3.03925}]