[{"id":667,"name":"Arauco","latitude":-28.58071,"longitude":-66.7925},{"id":738,"name":"Castro Barros","latitude":-30.57952,"longitude":-65.72696},{"id":752,"name":"Chamical","latitude":-30.36002,"longitude":-66.31399},{"id":761,"name":"Chilecito","latitude":-29.16195,"longitude":-67.4974},{"id":831,"name":"Departamento de Arauco","latitude":-28.5,"longitude":-66.83333},{"id":893,"name":"Departamento de General Lamadrid","latitude":-28.83333,"longitude":-68.66667},{"id":910,"name":"Departamento de Independencia","latitude":-30.16667,"longitude":-67.41667},{"id":1200,"name":"La Rioja","latitude":-29.41105,"longitude":-66.85067},{"id":1543,"name":"Villa Bustos","latitude":-29.28636,"longitude":-67.02067},{"id":1588,"name":"Vinchina","latitude":-28.75964,"longitude":-68.20692}]