[{"id":63328,"name":"Ebino-shi","latitude":32.01667,"longitude":130.8},{"id":63527,"name":"Hyūga-shi","latitude":32.3771,"longitude":131.52275},{"id":63818,"name":"Kobayashi","latitude":31.98333,"longitude":130.98333},{"id":63819,"name":"Kobayashi Shi","latitude":32.04556,"longitude":131.02762},{"id":63884,"name":"Kushima","latitude":31.48621,"longitude":131.2421},{"id":63885,"name":"Kushima Shi","latitude":31.48571,"longitude":131.26485},{"id":64003,"name":"Miyakonojō","latitude":31.73333,"longitude":131.06667},{"id":64004,"name":"Miyakonojō Shi","latitude":31.8092,"longitude":131.07904},{"id":64009,"name":"Miyazaki","latitude":31.91667,"longitude":131.41667},{"id":64010,"name":"Miyazaki-shi","latitude":31.96192,"longitude":131.38455},{"id":64125,"name":"Nichinan","latitude":31.6,"longitude":131.36667},{"id":64126,"name":"Nichinan Shi","latitude":31.63737,"longitude":131.33409},{"id":64159,"name":"Nobeoka","latitude":32.58333,"longitude":131.66667},{"id":64160,"name":"Nobeoka-shi","latitude":32.67238,"longitude":131.64311},{"id":64252,"name":"Saito-shi","latitude":32.17288,"longitude":131.31543},{"id":64429,"name":"Takanabe","latitude":32.13333,"longitude":131.5},{"id":64551,"name":"Tsuma","latitude":32.1,"longitude":131.4}]