[{"id":19309,"name":"Baiyin","latitude":36.54696,"longitude":104.17023},{"id":19330,"name":"Beidao","latitude":34.56861,"longitude":105.89333},{"id":19460,"name":"Dingxi Shi","latitude":35.0371,"longitude":104.38623},{"id":19622,"name":"Hezuo","latitude":34.98556,"longitude":102.90944},{"id":19716,"name":"Jiayuguan","latitude":39.81121,"longitude":98.28618},{"id":19728,"name":"Jinchang","latitude":38.50062,"longitude":102.19379},{"id":19758,"name":"Jiuquan","latitude":39.74318,"longitude":98.51736},{"id":19803,"name":"Lanzhou","latitude":36.05701,"longitude":103.83987},{"id":19806,"name":"Laojunmiao","latitude":39.83333,"longitude":97.73333},{"id":19854,"name":"Linxia Chengguanzhen","latitude":35.60028,"longitude":103.20639},{"id":19855,"name":"Linxia Huizu Zizhizhou","latitude":35.66597,"longitude":103.2408},{"id":19871,"name":"Longnan Shi","latitude":33.53451,"longitude":105.34947},{"id":19908,"name":"Mawu","latitude":34.42639,"longitude":104.91472},{"id":19980,"name":"Pingliang","latitude":35.53917,"longitude":106.68611},{"id":20015,"name":"Qincheng","latitude":34.58028,"longitude":105.72722},{"id":20026,"name":"Qingyang Shi","latitude":36.23598,"longitude":107.58113},{"id":20181,"name":"Tianshui","latitude":34.57952,"longitude":105.74238},{"id":20237,"name":"Wuwei","latitude":37.92672,"longitude":102.63202},{"id":20426,"name":"Zhangye","latitude":38.93417,"longitude":100.45167},{"id":20427,"name":"Zhangye Shi","latitude":39.12183,"longitude":99.92495}]