[{"id":63206,"name":"‘Ajlūn","latitude":32.33326,"longitude":35.75279},{"id":63207,"name":"‘Anjarah","latitude":32.3063,"longitude":35.75653},{"id":63208,"name":"‘Ayn Jannah","latitude":32.33466,"longitude":35.7637},{"id":63202,"name":"Ḩalāwah","latitude":32.38433,"longitude":35.66167},{"id":63199,"name":"Şakhrah","latitude":32.37087,"longitude":35.84267}]