[{"id":53843,"name":"Aguas del Padre","latitude":14.56667,"longitude":-87.88333},{"id":53845,"name":"Ajuterique","latitude":14.38333,"longitude":-87.7},{"id":53894,"name":"Cerro Blanco","latitude":14.66667,"longitude":-87.78333},{"id":53908,"name":"Comayagua","latitude":14.48412,"longitude":-87.6006},{"id":53912,"name":"Concepción de Guasistagua","latitude":14.6,"longitude":-87.65},{"id":53941,"name":"El Agua Dulcita","latitude":14.7,"longitude":-87.75},{"id":53978,"name":"El Porvenir","latitude":14.58333,"longitude":-87.88333},{"id":53983,"name":"El Rancho","latitude":14.68333,"longitude":-87.5},{"id":53984,"name":"El Rincón","latitude":14.58333,"longitude":-87.93333},{"id":53985,"name":"El Rosario","latitude":14.575,"longitude":-87.74306},{"id":53988,"name":"El Sauce","latitude":14.5285,"longitude":-87.66571},{"id":53989,"name":"El Socorro","latitude":14.63333,"longitude":-87.91667},{"id":54003,"name":"Esquías","latitude":14.73333,"longitude":-87.36667},{"id":54004,"name":"Flores","latitude":14.28333,"longitude":-87.56667},{"id":54025,"name":"Humuya","latitude":14.25,"longitude":-87.66667},{"id":54031,"name":"Jamalteca","latitude":14.7,"longitude":-87.58333},{"id":54068,"name":"La Libertad","latitude":14.88,"longitude":-87.55},{"id":54079,"name":"La Trinidad","latitude":14.7,"longitude":-87.66286},{"id":54089,"name":"Lamaní","latitude":14.2,"longitude":-87.61667},{"id":54092,"name":"Las Lajas","latitude":14.9,"longitude":-87.58333},{"id":54100,"name":"Lejamaní","latitude":14.36667,"longitude":-87.7},{"id":54128,"name":"Meámbar","latitude":14.82047,"longitude":-87.78424},{"id":54129,"name":"Minas de Oro","latitude":14.8,"longitude":-87.35},{"id":54157,"name":"Ojos de Agua","latitude":14.79498,"longitude":-87.6501},{"id":54175,"name":"Potrerillos","latitude":14.55,"longitude":-87.86667},{"id":54200,"name":"Río Bonito","latitude":14.76667,"longitude":-87.88333},{"id":54219,"name":"San Antonio de la Cuesta","latitude":14.63333,"longitude":-87.6},{"id":54240,"name":"San Jerónimo","latitude":14.64043,"longitude":-87.56768},{"id":54249,"name":"San José de Comayagua","latitude":14.73333,"longitude":-88.03333},{"id":54255,"name":"San José del Potrero","latitude":14.86203,"longitude":-87.29049},{"id":54266,"name":"San Luis","latitude":14.75,"longitude":-87.41667},{"id":54286,"name":"San Sebastián","latitude":14.23687,"longitude":-87.63215},{"id":54317,"name":"Siguatepeque","latitude":14.6,"longitude":-87.83333},{"id":54331,"name":"Taulabé","latitude":14.67145,"longitude":-87.98693},{"id":54355,"name":"Valle de Ángeles","latitude":14.5,"longitude":-87.63333},{"id":54360,"name":"Villa de San Antonio","latitude":14.31667,"longitude":-87.61667}]