[{"id":149104,"name":"Biakoye","latitude":7.1169869,"longitude":0.323243},{"id":149105,"name":"Jasikan","latitude":7.4094088,"longitude":0.443015},{"id":149106,"name":"Kadjebi","latitude":7.5263192,"longitude":0.4670477},{"id":149107,"name":"Krachi East","latitude":7.7719698,"longitude":-0.0776376},{"id":149108,"name":"Krachi Nchumuru","latitude":8.148498,"longitude":-0.1634988},{"id":149109,"name":"Krachi West","latitude":7.9828216,"longitude":-0.3488627},{"id":149110,"name":"Nkwanta North","latitude":8.3518076,"longitude":0.1221762},{"id":149111,"name":"Nkwanta South","latitude":8.2593134,"longitude":0.5018519}]