[{"id":31763,"name":"Akhmīm","latitude":26.56217,"longitude":31.74503},{"id":31765,"name":"Al Balyanā","latitude":26.23568,"longitude":32.00347},{"id":31773,"name":"Al Manshāh","latitude":26.47686,"longitude":31.8035},{"id":31824,"name":"Jirjā","latitude":26.33826,"longitude":31.89161},{"id":31825,"name":"Juhaynah","latitude":26.67319,"longitude":31.4976},{"id":31838,"name":"Markaz Jirjā","latitude":26.30683,"longitude":31.84574},{"id":31839,"name":"Markaz Sūhāj","latitude":26.53948,"longitude":31.67524},{"id":31867,"name":"Sohag","latitude":26.55695,"longitude":31.69478},{"id":31875,"name":"Ţahţā","latitude":26.7693,"longitude":31.50214}]