[{"id":161,"name":"Bashkia Finiq","latitude":39.84393,"longitude":20.16659},{"id":162,"name":"Bashkia Himarë","latitude":40.11581,"longitude":19.81389},{"id":167,"name":"Bashkia Konispol","latitude":39.70064,"longitude":20.13353},{"id":184,"name":"Bashkia Selenicë","latitude":40.39503,"longitude":19.65958},{"id":189,"name":"Bashkia Vlorë","latitude":40.4134,"longitude":19.49792},{"id":195,"name":"Delvinë","latitude":39.95111,"longitude":20.09778},{"id":206,"name":"Himarë","latitude":40.10167,"longitude":19.74472},{"id":210,"name":"Konispol","latitude":39.65889,"longitude":20.18139},{"id":216,"name":"Ksamil","latitude":39.76889,"longitude":19.99972},{"id":233,"name":"Orikum","latitude":40.32528,"longitude":19.47139},{"id":244,"name":"Rrethi i Delvinës","latitude":39.91667,"longitude":20.08333},{"id":263,"name":"Sarandë","latitude":39.87534,"longitude":20.00477},{"id":264,"name":"Selenicë","latitude":40.53056,"longitude":19.63583},{"id":276,"name":"Vlorë","latitude":40.4686,"longitude":19.48318}]