[{"id":129903,"name":"Beshariq","latitude":40.43583,"longitude":70.61028},{"id":129923,"name":"Fergana","latitude":40.38421,"longitude":71.78432},{"id":129932,"name":"Hamza","latitude":40.42762,"longitude":71.50534},{"id":129948,"name":"Kirguli","latitude":40.43553,"longitude":71.76721},{"id":129955,"name":"Marg‘ilon","latitude":40.47237,"longitude":71.72463},{"id":129969,"name":"Oltiariq","latitude":40.39194,"longitude":71.47417},{"id":129986,"name":"Qo‘qon","latitude":40.52861,"longitude":70.9425},{"id":129988,"name":"Quva","latitude":40.52204,"longitude":72.07292},{"id":129989,"name":"Quvasoy","latitude":40.29721,"longitude":71.98026},{"id":129992,"name":"Rishton","latitude":40.35667,"longitude":71.28472},{"id":130000,"name":"Shohimardon","latitude":39.98322,"longitude":71.80512},{"id":130004,"name":"So‘x Tumani","latitude":40.04417,"longitude":71.09417},{"id":130008,"name":"Toshloq","latitude":40.47722,"longitude":71.76778},{"id":130019,"name":"Yangi Marg‘ilon","latitude":40.42722,"longitude":71.71889},{"id":130025,"name":"Yaypan","latitude":40.37583,"longitude":70.81556}]