[{"id":97568,"name":"Aleksandrovsk","latitude":59.1581,"longitude":57.5695},{"id":97793,"name":"Barda","latitude":56.9287,"longitude":55.5962},{"id":97895,"name":"Berezniki","latitude":59.4091,"longitude":56.8204},{"id":97900,"name":"Bershet’","latitude":57.7309,"longitude":56.3783},{"id":98122,"name":"Chastyye","latitude":57.28876,"longitude":54.97278},{"id":98123,"name":"Chaykovskaya","latitude":58.1288,"longitude":55.5352},{"id":98124,"name":"Chaykovskiy","latitude":56.76864,"longitude":54.11484},{"id":98145,"name":"Cherdyn’","latitude":60.40295,"longitude":56.47868},{"id":98164,"name":"Chermoz","latitude":58.7813,"longitude":56.1577},{"id":98176,"name":"Chernushka","latitude":56.50722,"longitude":56.07661},{"id":98227,"name":"Chusovoy","latitude":58.3013,"longitude":57.8131},{"id":98296,"name":"Dobryanka","latitude":58.4644,"longitude":56.4127},{"id":98420,"name":"Ferma","latitude":57.9016,"longitude":56.3064},{"id":98427,"name":"Filippovka","latitude":57.4373,"longitude":57.01934},{"id":98432,"name":"Foki","latitude":56.693,"longitude":54.34985},{"id":98437,"name":"Froly","latitude":57.9214,"longitude":56.2728},{"id":98455,"name":"Gamovo","latitude":57.8652,"longitude":56.1056},{"id":98467,"name":"Gayny","latitude":60.30707,"longitude":54.32412},{"id":98534,"name":"Gornozavodsk","latitude":58.37583,"longitude":58.32111},{"id":98586,"name":"Gremyachinsk","latitude":58.5603,"longitude":57.851},{"id":98601,"name":"Gubakha","latitude":58.83862,"longitude":57.55325},{"id":98792,"name":"Kalino","latitude":58.2504,"longitude":57.6085},{"id":98861,"name":"Karagay","latitude":58.26669,"longitude":54.93678},{"id":98941,"name":"Kerchevskiy","latitude":59.9456,"longitude":56.2959},{"id":99087,"name":"Kizel","latitude":59.04709,"longitude":57.64767},{"id":99120,"name":"Kochevo","latitude":59.5974,"longitude":54.3147},{"id":99160,"name":"Komarikhinskiy","latitude":58.0979,"longitude":57.1163},{"id":99182,"name":"Kondratovo","latitude":57.9804,"longitude":56.1066},{"id":99224,"name":"Kosa","latitude":59.9449,"longitude":54.9895},{"id":99322,"name":"Krasnokamsk","latitude":58.0796,"longitude":55.7552},{"id":99340,"name":"Krasnovishersk","latitude":60.40783,"longitude":57.08199},{"id":99423,"name":"Kudymkar","latitude":59.01306,"longitude":54.65556},{"id":99428,"name":"Kukushtan","latitude":57.6464,"longitude":56.4952},{"id":99436,"name":"Kultayevo","latitude":57.8948,"longitude":55.9378},{"id":99446,"name":"Kungur","latitude":57.4368,"longitude":56.9593},{"id":99497,"name":"Kuyeda","latitude":56.4311,"longitude":55.58861},{"id":99645,"name":"Lobanovo","latitude":57.8595,"longitude":56.3026},{"id":99703,"name":"Lyamino","latitude":58.2839,"longitude":57.725},{"id":99710,"name":"Lys’va","latitude":58.10861,"longitude":57.80528},{"id":99823,"name":"Maykor","latitude":59.0047,"longitude":55.8784},{"id":99860,"name":"Mendeleyevo","latitude":58.16976,"longitude":54.99634},{"id":100362,"name":"Novyye Lyady","latitude":58.0552,"longitude":56.6104},{"id":100379,"name":"Nyrob","latitude":60.733,"longitude":56.72024},{"id":100380,"name":"Nytva","latitude":57.9437,"longitude":55.3396},{"id":100396,"name":"Ochër","latitude":57.89035,"longitude":54.72019},{"id":100402,"name":"Okhansk","latitude":57.7203,"longitude":55.3882},{"id":100457,"name":"Orda","latitude":57.19509,"longitude":56.90908},{"id":100484,"name":"Osa","latitude":57.283,"longitude":55.4589},{"id":100511,"name":"Overyata","latitude":58.08417,"longitude":55.86694},{"id":100561,"name":"Pashiya","latitude":58.4324,"longitude":58.2562},{"id":100576,"name":"Pavlovskiy","latitude":57.8424,"longitude":54.84357},{"id":100611,"name":"Perm","latitude":58.01046,"longitude":56.25017},{"id":100751,"name":"Polazna","latitude":58.2922,"longitude":56.4156},{"id":100799,"name":"Pozhva","latitude":59.0912,"longitude":56.0901},{"id":101111,"name":"Sarany","latitude":58.5,"longitude":58.88333},{"id":101124,"name":"Sars","latitude":56.55017,"longitude":57.13658},{"id":101210,"name":"Severnyy-Kospashskiy","latitude":59.0897,"longitude":57.8039},{"id":101239,"name":"Shakhta","latitude":59.0905,"longitude":57.6575},{"id":101331,"name":"Shirokovskiy","latitude":58.8411,"longitude":57.785},{"id":101350,"name":"Shumikhinskiy","latitude":58.7448,"longitude":57.6926},{"id":101382,"name":"Siva","latitude":58.38204,"longitude":54.38037},{"id":101433,"name":"Sokol","latitude":57.9146,"longitude":56.0456},{"id":101451,"name":"Solikamsk","latitude":59.6316,"longitude":56.7685},{"id":101658,"name":"Suksun","latitude":57.1431,"longitude":57.3949},{"id":101725,"name":"Sylva","latitude":58.0327,"longitude":56.7713},{"id":102009,"name":"Tëplaya Gora","latitude":58.52444,"longitude":59.07278},{"id":102032,"name":"Ugleural’skiy","latitude":58.9443,"longitude":57.5937},{"id":102041,"name":"Uinskoye","latitude":56.88174,"longitude":56.58135},{"id":102101,"name":"Usol’ye","latitude":59.4219,"longitude":56.6862},{"id":102123,"name":"Ust’-Kachka","latitude":58.0038,"longitude":55.6721},{"id":102130,"name":"Ust’-Kishert’","latitude":57.3654,"longitude":57.2495},{"id":102228,"name":"Vereshchagino","latitude":58.07894,"longitude":54.6557},{"id":102237,"name":"Verkhnechusovskiye Gorodki","latitude":58.1671,"longitude":57.1086},{"id":102518,"name":"Yayva","latitude":59.3347,"longitude":57.2592},{"id":102547,"name":"Yelovo","latitude":57.05381,"longitude":54.9207},{"id":102584,"name":"Yubileynyy","latitude":58.7794,"longitude":57.7822},{"id":102585,"name":"Yug","latitude":57.7293,"longitude":56.172},{"id":102587,"name":"Yugo-Kamskiy","latitude":57.7026,"longitude":55.5904},{"id":102599,"name":"Yurla","latitude":59.3251,"longitude":54.3278},{"id":102609,"name":"Yus’vinskiy Rayon","latitude":59.08333,"longitude":55.25},{"id":102621,"name":"Yuzhnyy-Kospashskiy","latitude":58.9725,"longitude":57.759},{"id":102783,"name":"Zvëzdnyy","latitude":57.7325,"longitude":56.31472},{"id":102789,"name":"Zyukayka","latitude":58.20416,"longitude":54.70784}]